{"metadata":{"type":"brand","wikidata":"Q114496224","name":"easybox","compare_keys":["opening_hours"]},"data":[{"osm":{"type":"node","id":10296473897,"tags":{"amenity":"parcel_locker","brand":"easybox","brand:wikidata":"Q114496224","operator:wikidata":"Q114417096"},"wikidata":"Q114496224","coordinates":[42.6897384,23.3024505]},"atp":{"id":"wXbj6SOsgcxNMcVanBvZgHg6cyE=","tags":{"amenity":"parcel_locker","parcel_mail_in":"yes","parcel_pickup":"yes","addr:full":"бул. Ген Тотлебен 36","addr:city":"София","addr:state":"София-град","addr:postcode":"1606","addr:country":"BG","name":"easybox 1149 Кауфланд София Крива Река","opening_hours":"Mo-Su 00:00-24:00","image":"https://sameday.bg/locker/image/12547/small","brand":"easybox","brand:wikidata":"Q114496224","operator:wikidata":"Q114417096"},"coordinates":[42.690221,23.302028]},"dist":63.813,"tags_mismatch":true},{"osm":{"type":"node","id":10757569187,"tags":{"amenity":"parcel_locker","brand":"easybox","brand:wikidata":"Q114496224","indoor":"yes","operator:wikidata":"Q114417096"},"wikidata":"Q114496224","coordinates":[42.6726992,23.3233564]},"atp":{"id":"5O3ugn94J-asnr80LQI9HbSkqSw=","tags":{"amenity":"parcel_locker","parcel_mail_in":"yes","parcel_pickup":"yes","addr:full":"София, бул. Джеймс Баучер 51 в магазина","addr:city":"София","addr:state":"София-град","addr:postcode":"1407","addr:country":"BG","name":"easybox 1189 Офис1 София Дж. Баучер","opening_hours":"Mo-Fr 09:00-19:00; Sa 10:00-18:00; Su 10:00-17:00","image":"https://sameday.bg/locker/image/12425/small","brand":"easybox","brand:wikidata":"Q114496224","operator:wikidata":"Q114417096"},"coordinates":[42.672675,23.323139]},"dist":17.976,"tags_mismatch":true},{"osm":{"type":"node","id":10823595982,"tags":{"amenity":"parcel_locker","branch":"easybox ЕКО Манастирски Ливади","brand":"easybox","brand:wikidata":"Q114496224","contact:website":"https://sameday.bg/easybox/","opening_hours":"24/7","operator:wikidata":"Q114417096","payment:mastercard":"yes","payment:visa":"yes"},"wikidata":"Q114496224","coordinates":[42.6500271,23.292916]},"atp":{"id":"kggzp2gbu5X8PjLHS2C-Umww4Q8=","tags":{"amenity":"parcel_locker","parcel_mail_in":"yes","parcel_pickup":"yes","addr:full":"ул. Околовръстен път 47","addr:city":"София","addr:state":"София-град","addr:postcode":"1404","addr:country":"BG","name":"easybox 1129 EKO Манастирски Ливади","opening_hours":"Mo-Su 00:00-24:00","image":"https://sameday.bg/locker/image/12665/small","brand":"easybox","brand:wikidata":"Q114496224","operator:wikidata":"Q114417096"},"coordinates":[42.650064,23.293143]},"dist":19.013,"tags_mismatch":true},{"osm":{"type":"node","id":10925898680,"tags":{"amenity":"parcel_locker","brand":"easybox","brand:wikidata":"Q114496224","operator:wikidata":"Q114417096"},"wikidata":"Q114496224","coordinates":[43.2198,23.5473819]},"atp":{"id":"M9vC6RvmdFeGgrW1ghn_pdepWvo=","tags":{"amenity":"parcel_locker","parcel_mail_in":"yes","parcel_pickup":"yes","addr:full":"ул. Славянска 2, офис на Изипей","addr:city":"Враца","addr:state":"Враца","addr:postcode":"3005","addr:country":"BG","name":"easybox 3006 Враца Славянска 2","opening_hours":"Mo-Fr 09:00-19:00; Sa-Su 09:00-14:00","image":"https://sameday.bg/locker/image/12571/small","brand":"easybox","brand:wikidata":"Q114496224","operator:wikidata":"Q114417096"},"coordinates":[43.220238,23.546936]},"dist":60.643,"tags_mismatch":true},{"osm":{"type":"node","id":10925924680,"tags":{"amenity":"parcel_locker","brand":"easybox","brand:wikidata":"Q114496224","operator:wikidata":"Q114417096"},"wikidata":"Q114496224","coordinates":[43.2243555,23.5456621]},"atp":{"id":"trYrzfgiqBDcNa9J9LrCQLgutg0=","tags":{"amenity":"parcel_locker","parcel_mail_in":"yes","parcel_pickup":"yes","addr:full":"ж.к. Дъбника м/у бл. 147 и бл. 14, офис на Изипей","addr:city":"Враца","addr:state":"Враца","addr:postcode":"3005","addr:country":"BG","name":"easybox 3005 Враца Дъбника между бл. 147 и бл. 14","opening_hours":"Mo-Su 08:00-20:00","image":"https://sameday.bg/locker/image/12573/small","brand":"easybox","brand:wikidata":"Q114496224","operator:wikidata":"Q114417096"},"coordinates":[43.224479,23.545869]},"dist":21.671,"tags_mismatch":true},{"osm":{"type":"node","id":11011525675,"tags":{"amenity":"parcel_locker","brand":"easybox","brand:wikidata":"Q114496224","opening_hours":"24/7","operator:wikidata":"Q114417096","parcel_mail_in":"yes","parcel_pickup":"yes"},"wikidata":"Q114496224","coordinates":[42.6807795,23.3086159]},"atp":{"id":"ylCro2aASe62Wp5kh_ggYiSeo6s=","tags":{"amenity":"parcel_locker","parcel_mail_in":"yes","parcel_pickup":"yes","addr:full":"бул. България и ул. Ст Сарафов","addr:city":"София","addr:state":"София-град","addr:postcode":"1408","addr:country":"BG","name":"easybox 1126 EKO България","opening_hours":"Mo-Su 00:00-24:00","image":"https://sameday.bg/locker/image/12675/small","brand":"easybox","brand:wikidata":"Q114496224","operator:wikidata":"Q114417096"},"coordinates":[42.680884,23.30831]},"dist":27.573,"tags_mismatch":true},{"osm":{"type":"node","id":11150455900,"tags":{"amenity":"parcel_locker","brand":"easybox","brand:wikidata":"Q114496224","indoor":"no","opening_hours":"24/7","operator:wikidata":"Q114417096"},"wikidata":"Q114496224","coordinates":[42.6671259,23.2842226]},"atp":{"id":"In1B7LcTRJwv_zfLYbosf93-BE0=","tags":{"amenity":"parcel_locker","parcel_mail_in":"yes","parcel_pickup":"yes","addr:full":"ж.к. Красно село","addr:city":"София","addr:state":"София-град","addr:postcode":"1680","addr:country":"BG","name":"easybox 1077 Бурлекс Каблешков","opening_hours":"Mo-Su 00:00-24:00","image":"https://sameday.bg/locker/image/14295/small","brand":"easybox","brand:wikidata":"Q114496224","operator:wikidata":"Q114417096"},"coordinates":[42.667044,23.284254]},"dist":9.462,"tags_mismatch":true},{"osm":{"type":"node","id":11168903257,"tags":{"amenity":"parcel_locker","brand":"easybox","brand:wikidata":"Q114496224","indoor":"no","operator:wikidata":"Q114417096"},"wikidata":"Q114496224","coordinates":[42.7460878,23.2293424]},"atp":{"id":"rDNuuEzvenfqgnRQRlK8KvPDUsE=","tags":{"amenity":"parcel_locker","parcel_mail_in":"yes","parcel_pickup":"yes","addr:full":"бул.Европа 184","addr:city":"София","addr:state":"София-град","addr:postcode":"1331","addr:country":"BG","name":"easybox 1110 ЛУКОЙЛ София Европа","opening_hours":"Mo-Su 00:00-24:00","image":"https://sameday.bg/locker/image/12731/small","brand":"easybox","brand:wikidata":"Q114496224","operator:wikidata":"Q114417096"},"coordinates":[42.745769,23.229407]},"dist":35.839,"tags_mismatch":true},{"osm":{"type":"node","id":11208487058,"tags":{"amenity":"parcel_locker","brand":"easybox","brand:wikidata":"Q114496224","direction":"35","indoor":"no","operator:wikidata":"Q114417096","parcel_mail_in":"yes","parcel_pickup":"yes"},"wikidata":"Q114496224","coordinates":[42.6677341,23.290907]},"atp":{"id":"Vbvptyd0xU378i2iShckvq8FSgw=","tags":{"amenity":"parcel_locker","parcel_mail_in":"yes","parcel_pickup":"yes","addr:full":"бул. България № 49В","addr:city":"София","addr:state":"София-град","addr:postcode":"1404","addr:country":"BG","name":"easybox 1178 ОМВ София България","opening_hours":"Mo-Su 00:00-24:00","image":"https://sameday.bg/locker/image/12463/small","brand":"easybox","brand:wikidata":"Q114496224","operator:wikidata":"Q114417096"},"coordinates":[42.667549,23.290647]},"dist":29.589,"tags_mismatch":true},{"osm":{"type":"node","id":11399869165,"tags":{"amenity":"parcel_locker","brand":"easybox","brand:wikidata":"Q114496224","operator:wikidata":"Q114417096"},"wikidata":"Q114496224","coordinates":[42.6903408,23.3155495]},"atp":{"id":"xwqDo_GEabh55017tja0Vd8xZzM=","tags":{"amenity":"parcel_locker","parcel_mail_in":"yes","parcel_pickup":"yes","addr:full":"ул. 20-ти април 13","addr:city":"София","addr:state":"София-град","addr:postcode":"1606","addr:country":"BG","name":"easybox 1079 Търговски Комплекс Руски паметник","opening_hours":"Mo-Fr 06:00-22:00; Sa-Su 08:00-22:00","image":"https://sameday.bg/locker/image/14236/small","brand":"easybox","brand:wikidata":"Q114496224","operator:wikidata":"Q114417096"},"coordinates":[42.692235,23.312197]},"dist":345.6,"tags_mismatch":true},{"osm":{"type":"node","id":11459457898,"tags":{"addr:housenumber":"51А","addr:street":"Пирин","amenity":"parcel_locker","brand":"easybox","brand:wikidata":"Q114496224","check_date":"2024-03-01","layer":"-1","opening_hours":"24/7","operator:wikidata":"Q114417096","payment:cash":"yes","payment:credit_cards":"yes","payment:debit_cards":"yes","wheelchair":"yes"},"wikidata":"Q114496224","coordinates":[42.6654609,23.2800908]},"atp":{"id":"yZD_uaWU_SReWj3EbZi6JT1tpIY=","tags":{"amenity":"parcel_locker","parcel_mail_in":"yes","parcel_pickup":"yes","addr:full":"ул. Пирин 51А","addr:city":"София","addr:state":"София-град","addr:postcode":"1000","addr:country":"BG","name":"easybox 1084 ФантастикоФ43 Манастирски Ливади","opening_hours":"Mo-Su 00:00-24:00","image":"https://sameday.bg/locker/image/14358/small","brand":"easybox","brand:wikidata":"Q114496224","operator:wikidata":"Q114417096"},"coordinates":[42.665581,23.279993]},"dist":15.566,"tags_mismatch":true},{"osm":{"type":"node","id":11486492701,"tags":{"amenity":"parcel_locker","brand":"easybox","brand:wikidata":"Q114496224","opening_hours":"24/7","operator:wikidata":"Q114417096","parcel_mail_in":"no","parcel_pickup":"yes"},"wikidata":"Q114496224","coordinates":[42.7107023,23.3083192]},"atp":{"id":"IKK4q94T4HXcJijdgPy3mFdPmeo=","tags":{"amenity":"parcel_locker","parcel_mail_in":"yes","parcel_pickup":"yes","addr:full":"Банишора - бул. Ген. Николай Г. Столетов № 33","addr:city":"София","addr:state":"София-град","addr:postcode":"1000","addr:country":"BG","name":"easybox 1099 ОМВ София Столетов","opening_hours":"Mo-Su 00:00-24:00","image":"https://sameday.bg","brand":"easybox","brand:wikidata":"Q114496224","operator:wikidata":"Q114417096"},"coordinates":[42.71073,23.30837]},"dist":5.169,"tags_mismatch":true},{"osm":{"type":"node","id":11514002345,"tags":{"amenity":"parcel_locker","brand":"easybox","brand:wikidata":"Q114496224","fixme":"verify exact position","operator:wikidata":"Q114417096"},"wikidata":"Q114496224","coordinates":[42.6667203,23.3701069]},"atp":{"id":"24dPERQvddb8ZO5aDe9lbYwt48g=","tags":{"amenity":"parcel_locker","parcel_mail_in":"yes","parcel_pickup":"yes","addr:full":"бул. Цариградско шосе 40","addr:city":"София","addr:state":"София-град","addr:postcode":"1750","addr:country":"BG","name":"easybox 1001 Европарк София","opening_hours":"Mo-Su 00:00-24:00","image":"https://sameday.bg/locker/image/12617/small","brand":"easybox","brand:wikidata":"Q114496224","operator:wikidata":"Q114417096"},"coordinates":[42.666621,23.370212]},"dist":13.992,"tags_mismatch":true},{"osm":{"type":"node","id":11601991431,"tags":{"amenity":"parcel_locker","brand":"easybox","brand:wikidata":"Q114496224","indoor":"no","opening_hours":"24/7","operator:wikidata":"Q114417096"},"wikidata":"Q114496224","coordinates":[42.7123593,23.4123129]},"atp":{"id":"pBLrEzLFzdqazZ6LvAKyjRcueLM=","tags":{"amenity":"parcel_locker","parcel_mail_in":"yes","parcel_pickup":"yes","addr:full":"ж.к. Враждебна, ул. 27 1","addr:city":"София","addr:state":"София-град","addr:postcode":"1839","addr:country":"BG","name":"easybox 1069 Бурлекс Враждебна","opening_hours":"Mo-Su 00:00-24:00","image":"https://sameday.bg/locker/image/14493/small","brand":"easybox","brand:wikidata":"Q114496224","operator:wikidata":"Q114417096"},"coordinates":[42.712285,23.412397]},"dist":10.746,"tags_mismatch":true},{"osm":{"type":"node","id":11727761869,"tags":{"amenity":"parcel_locker","brand":"easybox","brand:wikidata":"Q114496224","operator:wikidata":"Q114417096"},"wikidata":"Q114496224","coordinates":[42.6614709,23.3774701]},"atp":{"id":"VzlfnXcZhyjm3zK5fxDoRQCtb0I=","tags":{"amenity":"parcel_locker","parcel_mail_in":"yes","parcel_pickup":"yes","addr:full":"бул. Цариградско шосе № 50, от дясно на входа","addr:city":"София","addr:state":"София-град","addr:postcode":"1113","addr:country":"BG","name":"easybox 1173 ОМВ София Цариградско","opening_hours":"Mo-Su 00:00-24:00","image":"https://sameday.bg/locker/image/12474/small","brand":"easybox","brand:wikidata":"Q114496224","operator:wikidata":"Q114417096"},"coordinates":[42.661723,23.377288]},"dist":31.742,"tags_mismatch":true},{"osm":{"type":"node","id":11750601091,"tags":{"amenity":"parcel_locker","brand":"easybox","brand:wikidata":"Q114496224","operator:wikidata":"Q114417096","parcel_mail_in":"yes","parcel_pickup":"yes"},"wikidata":"Q114496224","coordinates":[42.6588367,23.3476506]},"atp":{"id":"3AnZ9YY-DkuukEZDSdhv07smawU=","tags":{"amenity":"parcel_locker","parcel_mail_in":"yes","parcel_pickup":"yes","addr:full":"бул. Г.М.Димитров 77","addr:city":"София","addr:state":"София-град","addr:postcode":"1000","addr:country":"BG","name":"easybox 1094 ФантастикоФ6 ГМДимитров","opening_hours":"Mo-Su 00:00-24:00","image":"https://sameday.bg/locker/image/14290/small","brand":"easybox","brand:wikidata":"Q114496224","operator:wikidata":"Q114417096"},"coordinates":[42.658908,23.347246]},"dist":34.022,"tags_mismatch":true},{"osm":{"type":"node","id":11816523890,"tags":{"amenity":"parcel_locker","brand":"easybox","brand:wikidata":"Q114496224","operator:wikidata":"Q114417096"},"wikidata":"Q114496224","coordinates":[42.7412687,23.2763342]},"atp":{"id":"H-4Le9stqZi3aF-pNSOWf9yNEiU=","tags":{"amenity":"parcel_locker","parcel_mail_in":"yes","parcel_pickup":"yes","addr:full":"ул. 275-та 28","addr:city":"София","addr:state":"София-град","addr:postcode":"1387","addr:country":"BG","name":"easybox 1023 София Обеля 1","opening_hours":"Mo-Su 00:00-24:00","image":"https://sameday.bg","brand":"easybox","brand:wikidata":"Q114496224","operator:wikidata":"Q114417096"},"coordinates":[42.741255,23.276363]},"dist":2.802,"tags_mismatch":true},{"osm":{"type":"node","id":11816595634,"tags":{"amenity":"parcel_locker","brand":"easybox","brand:wikidata":"Q114496224","operator:wikidata":"Q114417096"},"wikidata":"Q114496224","coordinates":[42.7474064,23.2747109]},"atp":{"id":"8wHEYzKA5ZsOAZasIKlfkVZHh-M=","tags":{"amenity":"parcel_locker","parcel_mail_in":"yes","parcel_pickup":"yes","addr:full":"ж.к.Обеля 2 ул.104 с/у бл.233","addr:city":"София","addr:state":"София-град","addr:postcode":"1326","addr:country":"BG","name":"easybox 1145 Бакалия Обеля 2","opening_hours":"Mo-Su 00:00-24:00","image":"https://sameday.bg/locker/image/12556/small","brand":"easybox","brand:wikidata":"Q114496224","operator:wikidata":"Q114417096"},"coordinates":[42.747302,23.274665]},"dist":12.199,"tags_mismatch":true},{"osm":{"type":"node","id":11825031037,"tags":{"amenity":"parcel_locker","brand":"easybox","brand:wikidata":"Q114496224","operator:wikidata":"Q114417096"},"wikidata":"Q114496224","coordinates":[42.2034838,24.3263799]},"atp":{"id":"kfwaugaI0hVWaEulFCXIdd-5Ti4=","tags":{"amenity":"parcel_locker","parcel_mail_in":"yes","parcel_pickup":"yes","addr:full":"ул. Петър Бонев 52","addr:city":"Пазарджик","addr:state":"Пазарджик","addr:postcode":"4400","addr:country":"BG","name":"easybox 4405 М Маркет Халето","opening_hours":"Mo-Su 00:00-24:00","image":"https://sameday.bg","brand":"easybox","brand:wikidata":"Q114496224","operator:wikidata":"Q114417096"},"coordinates":[42.203551,24.326486]},"dist":11.498,"tags_mismatch":true},{"osm":{"type":"node","id":11830853130,"tags":{"amenity":"parcel_locker","brand":"easybox","brand:wikidata":"Q114496224","operator:wikidata":"Q114417096"},"wikidata":"Q114496224","coordinates":[42.1959565,24.3348027]},"atp":{"id":"ux9nEv8cEOz2st3loQw6Jq0InBk=","tags":{"amenity":"parcel_locker","parcel_mail_in":"yes","parcel_pickup":"yes","addr:full":"ул. Георги Бенковски 12","addr:city":"Пазарджик","addr:state":"Пазарджик","addr:postcode":"4202","addr:country":"BG","name":"easybox 4407 Билла Пазарджик Бенковски","opening_hours":"Mo-Su 00:00-24:00","image":"https://sameday.bg","brand":"easybox","brand:wikidata":"Q114496224","operator:wikidata":"Q114417096"},"coordinates":[42.195887,24.33454]},"dist":22.979,"tags_mismatch":true},{"osm":{"type":"node","id":11832752454,"tags":{"amenity":"parcel_locker","brand":"easybox","brand:wikidata":"Q114496224","indoor":"no","opening_hours":"24/7","operator:wikidata":"Q114417096"},"wikidata":"Q114496224","coordinates":[42.7113801,23.302031]},"atp":{"id":"1eoimL1LGiXIRLXh1JPPzAjSImI=","tags":{"amenity":"parcel_locker","parcel_mail_in":"yes","parcel_pickup":"yes","addr:full":"ул. Скопие 1","addr:city":"София","addr:state":"София-град","addr:postcode":"1233","addr:country":"BG","name":"easybox 1004 Кауфланд София-Банишора","opening_hours":"Mo-Su 00:00-24:00","image":"https://sameday.bg","brand":"easybox","brand:wikidata":"Q114496224","operator:wikidata":"Q114417096"},"coordinates":[42.711497,23.302496]},"dist":40.154,"tags_mismatch":true},{"osm":{"type":"node","id":11844209928,"tags":{"amenity":"parcel_locker","brand":"easybox","brand:wikidata":"Q114496224","operator:wikidata":"Q114417096"},"wikidata":"Q114496224","coordinates":[42.6561672,23.37471]},"atp":{"id":"X9oOMvwgiZGLPFVpzmDf_OEqHfU=","tags":{"amenity":"parcel_locker","parcel_mail_in":"yes","parcel_pickup":"yes","addr:full":"ул. Йерусалим 22","addr:city":"София","addr:state":"София-град","addr:postcode":"1784","addr:country":"BG","name":"easybox 1055 Фантастико Ф42 Младост1","opening_hours":"Mo-Su 00:00-24:00","image":"https://sameday.bg/locker/image/14591/small","brand":"easybox","brand:wikidata":"Q114496224","operator:wikidata":"Q114417096"},"coordinates":[42.655735,23.373861]},"dist":84.439,"tags_mismatch":true},{"osm":{"type":"node","id":11849547488,"tags":{"amenity":"parcel_locker","brand":"easybox","brand:wikidata":"Q114496224","indoor":"yes","level":"-1","operator:wikidata":"Q114417096","parcel_mail_in":"yes","parcel_pickup":"yes"},"wikidata":"Q114496224","coordinates":[42.6538406,23.3601785]},"atp":{"id":"NfkDVBNqjqOo1cFeFJblwf3BU9c=","tags":{"amenity":"parcel_locker","parcel_mail_in":"yes","parcel_pickup":"yes","addr:full":"бул. Св. Климент Охридски 10","addr:city":"София","addr:state":"София-град","addr:postcode":"1000","addr:country":"BG","name":"easybox 1086 ФантастикоФ36 Дървеница","opening_hours":"Mo-Su 00:00-24:00","image":"https://sameday.bg/locker/image/14165/small","brand":"easybox","brand:wikidata":"Q114496224","operator:wikidata":"Q114417096"},"coordinates":[42.653822,23.360413]},"dist":19.288,"tags_mismatch":true},{"osm":{"type":"node","id":11850669500,"tags":{"amenity":"parcel_locker","brand":"easybox","brand:wikidata":"Q114496224","operator:wikidata":"Q114417096"},"wikidata":"Q114496224","coordinates":[42.651377,23.3798276]},"atp":{"id":"e_Bo8s8SfPXA5DLV47SMpzcwDck=","tags":{"amenity":"parcel_locker","parcel_mail_in":"yes","parcel_pickup":"yes","addr:full":"бул. Александър Малинов” № 29 от дясно на входа","addr:city":"София","addr:state":"София-град","addr:postcode":"1729","addr:country":"BG","name":"easybox 1176 ОМВ София Малинов","opening_hours":"Mo-Su 00:00-24:00","image":"https://sameday.bg/locker/image/12467/small","brand":"easybox","brand:wikidata":"Q114496224","operator:wikidata":"Q114417096"},"coordinates":[42.651236,23.379492]},"dist":31.609,"tags_mismatch":true},{"osm":{"type":"node","id":11863080733,"tags":{"amenity":"parcel_locker","brand":"easybox","brand:wikidata":"Q114496224","level":"0","note:opening_hours":"The entrances to the parking lot are locked when Kaufland is closed","opening_hours":"Mo-Su 07:00-22:00","operator:wikidata":"Q114417096"},"wikidata":"Q114496224","coordinates":[42.6703102,23.273899]},"atp":{"id":"UoOqVlHmJh6ewOoPgftu6yfSPSk=","tags":{"amenity":"parcel_locker","parcel_mail_in":"yes","parcel_pickup":"yes","addr:full":"ул. Тодор Каблешков 3","addr:city":"София","addr:state":"София-град","addr:postcode":"1618","addr:country":"BG","name":"easybox 1003 Кауфланд София Витоша","opening_hours":"Mo-Su 00:00-24:00","image":"https://sameday.bg","brand":"easybox","brand:wikidata":"Q114496224","operator:wikidata":"Q114417096"},"coordinates":[42.670641,23.27347]},"dist":50.825,"tags_mismatch":true},{"osm":{"type":"node","id":11867046527,"tags":{"amenity":"parcel_locker","brand":"easybox","brand:wikidata":"Q114496224","indoor":"yes","opening_hours":"24/7","operator:wikidata":"Q114417096"},"wikidata":"Q114496224","coordinates":[42.6610968,27.722795]},"atp":{"id":"Z8Fcj6pAKw_boSzIVyEBORoWagk=","tags":{"amenity":"parcel_locker","parcel_mail_in":"yes","parcel_pickup":"yes","addr:full":"ул. Хан Крум 2Б","addr:city":"Несебър","addr:state":"Бургас","addr:postcode":"8230","addr:country":"BG","name":"easybox 8014 Несебър","opening_hours":"Mo-Su 00:00-24:00","image":"https://sameday.bg","brand":"easybox","brand:wikidata":"Q114496224","operator:wikidata":"Q114417096"},"coordinates":[42.661153,27.722861]},"dist":8.257,"tags_mismatch":true},{"osm":{"type":"node","id":11874184757,"tags":{"amenity":"parcel_locker","brand":"easybox","brand:wikidata":"Q114496224","operator:wikidata":"Q114417096"},"wikidata":"Q114496224","coordinates":[42.1869909,24.34543]},"atp":{"id":"s1g8KZzWgX77m1CZFWFgwbiOcP0=","tags":{"amenity":"parcel_locker","parcel_mail_in":"yes","parcel_pickup":"yes","addr:full":"ул. Черковна 38А ТЦ Арко Вара","addr:city":"София","addr:state":"София-град","addr:postcode":"1505","addr:country":"BG","name":"easybox 1210 София Черковна","opening_hours":"Mo-Su 07:00-22:00","image":"https://sameday.bg/locker/image/12326/small","brand":"easybox","brand:wikidata":"Q114496224","operator:wikidata":"Q114417096"},"coordinates":[42.697278,23.351475]},"tags_mismatch":true},{"osm":{"type":"node","id":11901183697,"tags":{"amenity":"parcel_locker","brand":"easybox","brand:wikidata":"Q114496224","indoor":"yes","operator:wikidata":"Q114417096"},"wikidata":"Q114496224","coordinates":[42.6421762,23.3360117]},"atp":{"id":"D_vqPXd869fQwXe5sBSPK1sY37Q=","tags":{"amenity":"parcel_locker","parcel_mail_in":"yes","parcel_pickup":"yes","addr:full":"ул. Проф. Др. Иван Странски 20 Кауфланд","addr:city":"София","addr:state":"София-град","addr:postcode":"1700","addr:country":"BG","name":"easybox 1209 Кауфланд София 20","opening_hours":"Mo-Su 07:00-22:00","image":"https://sameday.bg/locker/image/12335/small","brand":"easybox","brand:wikidata":"Q114496224","operator:wikidata":"Q114417096"},"coordinates":[42.641899,23.336161]},"dist":33.154,"tags_mismatch":true},{"osm":{"type":"node","id":11953950648,"tags":{"amenity":"parcel_locker","brand":"easybox","brand:wikidata":"Q114496224","operator:wikidata":"Q114417096","parcel_mail_in":"yes","parcel_pickup":"yes"},"wikidata":"Q114496224","coordinates":[42.6509421,23.357453]},"atp":{"id":"VA2bX_lmN4WmumLFoj5RovX4zFI=","tags":{"amenity":"parcel_locker","parcel_mail_in":"yes","parcel_pickup":"yes","addr:full":"ул. 8-ми декември № 3","addr:city":"София","addr:state":"София-град","addr:postcode":"1756","addr:country":"BG","name":"easybox 1175 ОМВ София 8декември","opening_hours":"Mo-Su 00:00-24:00","image":"https://sameday.bg/locker/image/12470/small","brand":"easybox","brand:wikidata":"Q114496224","operator:wikidata":"Q114417096"},"coordinates":[42.650995,23.357596]},"dist":13.091,"tags_mismatch":true},{"osm":{"type":"node","id":11977654310,"tags":{"amenity":"parcel_locker","brand":"easybox","brand:wikidata":"Q114496224","operator:wikidata":"Q114417096","parcel_mail_in":"yes","parcel_pickup":"yes"},"wikidata":"Q114496224","coordinates":[42.6681105,23.329359]},"atp":{"id":"FSGVAyZSiBcEaFoB_Tyg4zmgn-g=","tags":{"amenity":"parcel_locker","parcel_mail_in":"yes","parcel_pickup":"yes","addr:full":"бул. Никола Й. Вапцаров 61","addr:city":"София","addr:state":"София-град","addr:postcode":"1407","addr:country":"BG","name":"easybox 1127 EKO Вапцаров","opening_hours":"Mo-Su 00:00-24:00","image":"https://sameday.bg/locker/image/12667/small","brand":"easybox","brand:wikidata":"Q114496224","operator:wikidata":"Q114417096"},"coordinates":[42.668255,23.328941]},"dist":37.765,"tags_mismatch":true},{"osm":{"type":"node","id":11981047223,"tags":{"amenity":"parcel_locker","brand":"easybox","brand:wikidata":"Q114496224","indoor":"yes","operator:wikidata":"Q114417096","parcel_mail_in":"yes","parcel_pickup":"yes"},"wikidata":"Q114496224","coordinates":[42.6478781,23.3790291]},"atp":{"id":"KpMqxZ_AxLuvaqj3eUCoTRnuxho=","tags":{"amenity":"parcel_locker","parcel_mail_in":"yes","parcel_pickup":"yes","addr:full":"бул. Александър Малинов 35-37","addr:city":"София","addr:state":"София-град","addr:postcode":"1729","addr:country":"BG","name":"easybox 1009 Билла София Младост","opening_hours":"Mo-Su 08:00-22:00","image":"https://sameday.bg","brand":"easybox","brand:wikidata":"Q114496224","operator:wikidata":"Q114417096"},"coordinates":[42.648105,23.379013]},"dist":25.264,"tags_mismatch":true},{"osm":{"type":"node","id":12004003403,"tags":{"amenity":"parcel_locker","brand":"easybox","brand:wikidata":"Q114496224","operator:wikidata":"Q114417096"},"wikidata":"Q114496224","coordinates":[42.6650007,23.2692106]},"atp":{"id":"0HvQHpFifhxCK_CBzXc5dmc8zlo=","tags":{"amenity":"parcel_locker","parcel_mail_in":"yes","parcel_pickup":"yes","addr:full":"ул. Голям Братан 11","addr:city":"София","addr:state":"София-град","addr:postcode":"1618","addr:country":"BG","name":"easybox 1058 Кота 1050","opening_hours":"Mo-Su 00:00-24:00","image":"https://sameday.bg/locker/image/14492/small","brand":"easybox","brand:wikidata":"Q114496224","operator:wikidata":"Q114417096"},"coordinates":[42.665365,23.26918]},"dist":40.586,"tags_mismatch":true},{"osm":{"type":"node","id":12045372071,"tags":{"amenity":"parcel_locker","brand":"easybox","brand:wikidata":"Q114496224","operator:wikidata":"Q114417096","parcel_mail_in":"yes","parcel_pickup":"yes"},"wikidata":"Q114496224","coordinates":[42.6825745,23.3211823]},"atp":{"id":"imYREr8BgnGugpkcduorgTjnQIE=","tags":{"amenity":"parcel_locker","parcel_mail_in":"yes","parcel_pickup":"yes","addr:full":"Бул. Евлоги и Христо Георгиеви 1, подлез към Хилтън","addr:city":"София","addr:state":"София-град","addr:postcode":"1142","addr:country":"BG","name":"easybox 1212 НДК Подлез Хилтън","opening_hours":"Mo-Su 00:00-24:00","image":"https://sameday.bg","brand":"easybox","brand:wikidata":"Q114496224","operator:wikidata":"Q114417096"},"coordinates":[42.682661,23.321185]},"dist":9.621,"tags_mismatch":true},{"osm":{"type":"node","id":12054490246,"tags":{"amenity":"parcel_locker","brand":"easybox","brand:wikidata":"Q114496224","operator:wikidata":"Q114417096","parcel_mail_in":"yes","parcel_pickup":"yes"},"wikidata":"Q114496224","coordinates":[42.6718855,23.2996283]},"atp":{"id":"4QHJ23uH9IYzxsoP1yGtflFa7BE=","tags":{"amenity":"parcel_locker","parcel_mail_in":"yes","parcel_pickup":"yes","addr:full":"ул. Нишава 138","addr:city":"София","addr:state":"София-град","addr:postcode":"1784","addr:country":"BG","name":"easybox 1054 Фантастико Ф18 Стрелбище","opening_hours":"Mo-Su 00:00-24:00","image":"https://sameday.bg","brand":"easybox","brand:wikidata":"Q114496224","operator:wikidata":"Q114417096"},"coordinates":[42.672154,23.299876]},"dist":36.076,"tags_mismatch":true},{"osm":{"type":"node","id":12065052368,"tags":{"amenity":"parcel_locker","brand":"easybox","brand:wikidata":"Q114496224","fixme":"verify position","operator:wikidata":"Q114417096","parcel_mail_in":"yes","parcel_pickup":"yes"},"wikidata":"Q114496224","coordinates":[42.6786239,23.3661249]},"atp":{"id":"EBAHgfpdo8m6ShC-xaHnW_PYbQU=","tags":{"amenity":"parcel_locker","parcel_mail_in":"yes","parcel_pickup":"yes","addr:full":"ул. Шипченски проход 63","addr:city":"София","addr:state":"София-град","addr:postcode":"1574","addr:country":"BG","name":"easybox 1138 Електроника София","opening_hours":"Mo-Su 00:00-24:00","image":"https://sameday.bg/locker/image/12620/small","brand":"easybox","brand:wikidata":"Q114496224","operator:wikidata":"Q114417096"},"coordinates":[42.678728,23.366408]},"dist":25.876,"tags_mismatch":true},{"osm":{"type":"node","id":12067674369,"tags":{"amenity":"parcel_locker","brand":"easybox","brand:wikidata":"Q114496224","indoor":"yes","operator:wikidata":"Q114417096","parcel_mail_in":"yes","parcel_pickup":"yes"},"wikidata":"Q114496224","coordinates":[42.6833292,23.2972491]},"atp":{"id":"rVhld1PSYbQHrhb75K4k2Tl1FFo=","tags":{"amenity":"parcel_locker","parcel_mail_in":"yes","parcel_pickup":"yes","addr:full":"София ул. Софийски герой 4","addr:city":"София","addr:state":"София-град","addr:postcode":"1612","addr:country":"BG","name":"easybox 1188 Билла София Славия","opening_hours":"Mo-Su 07:30-22:00","image":"https://sameday.bg/locker/image/12431/small","brand":"easybox","brand:wikidata":"Q114496224","operator:wikidata":"Q114417096"},"coordinates":[42.683541,23.297165]},"dist":24.534,"tags_mismatch":true},{"osm":{"type":"node","id":12085238135,"tags":{"amenity":"parcel_locker","brand":"easybox","brand:wikidata":"Q114496224","operator:wikidata":"Q114417096","parcel_mail_in":"yes","parcel_pickup":"yes"},"wikidata":"Q114496224","coordinates":[42.6606281,23.272797]},"atp":{"id":"g8P10UTD3IjW-chKc6-9Y9BHm3s=","tags":{"amenity":"parcel_locker","parcel_mail_in":"yes","parcel_pickup":"yes","addr:full":"бул.Бъкстон","addr:city":"София","addr:state":"София-град","addr:postcode":"1000","addr:country":"BG","name":"easybox 1102 ЛУКОЙЛ София Бъкстон","opening_hours":"Mo-Su 00:00-24:00","image":"https://sameday.bg","brand":"easybox","brand:wikidata":"Q114496224","operator:wikidata":"Q114417096"},"coordinates":[42.66072,23.27289]},"dist":12.738,"tags_mismatch":true},{"osm":{"type":"node","id":12090045795,"tags":{"amenity":"parcel_locker","brand":"easybox","brand:wikidata":"Q114496224","operator:wikidata":"Q114417096","parcel_mail_in":"yes","parcel_pickup":"yes"},"wikidata":"Q114496224","coordinates":[41.9450336,25.5556023]},"atp":{"id":"G3i99yxb_ZyCpRZiffG34MlIzos=","tags":{"amenity":"parcel_locker","parcel_mail_in":"yes","parcel_pickup":"yes","addr:full":"Бул. Г.С.Раковски","addr:city":"Хасково","addr:state":"Хасково","addr:postcode":"6300","addr:country":"BG","name":"easybox 6309 EKO Хасково Раковски","opening_hours":"Mo-Su 00:00-24:00","image":"https://sameday.bg/locker/image/12844/small","brand":"easybox","brand:wikidata":"Q114496224","operator:wikidata":"Q114417096"},"coordinates":[41.944924,25.555538]},"dist":13.297,"tags_mismatch":true},{"osm":{"type":"node","id":12090045819,"tags":{"amenity":"parcel_locker","brand":"easybox","brand:wikidata":"Q114496224","operator:wikidata":"Q114417096","parcel_mail_in":"yes","parcel_pickup":"yes"},"wikidata":"Q114496224","coordinates":[41.9397939,25.5586272]},"atp":{"id":"_7IsuQsaWWHUaaTR1vgDLAM0VVs=","tags":{"amenity":"parcel_locker","parcel_mail_in":"yes","parcel_pickup":"yes","addr:full":"ул. Дунав 17В","addr:city":"Хасково","addr:state":"Хасково","addr:postcode":"6303","addr:country":"BG","name":"easybox 6302 Ромпетрол Хасково","opening_hours":"Mo-Su 00:00-24:00","image":"https://sameday.bg","brand":"easybox","brand:wikidata":"Q114496224","operator:wikidata":"Q114417096"},"coordinates":[41.939665,25.55886]},"dist":24.004,"tags_mismatch":true},{"osm":{"type":"node","id":12090074887,"tags":{"amenity":"parcel_locker","brand":"easybox","brand:wikidata":"Q114496224","operator:wikidata":"Q114417096","parcel_mail_in":"yes","parcel_pickup":"yes"},"wikidata":"Q114496224","coordinates":[41.9357652,25.553793]},"atp":{"id":"s8tAcXKM1fYAwDELzswfs8PEDLk=","tags":{"amenity":"parcel_locker","parcel_mail_in":"yes","parcel_pickup":"yes","addr:full":"ул. „Средна Гора“ 2","addr:city":"Хасково","addr:state":"Хасково","addr:postcode":"6300","addr:country":"BG","name":"easybox 6315 Хасково паркинг център","opening_hours":"Mo-Su 00:00-24:00","image":"https://sameday.bg","brand":"easybox","brand:wikidata":"Q114496224","operator:wikidata":"Q114417096"},"coordinates":[41.935674,25.553736]},"dist":11.183,"tags_mismatch":true},{"osm":{"type":"node","id":12091761566,"tags":{"amenity":"parcel_locker","brand":"easybox","brand:wikidata":"Q114496224","operator:wikidata":"Q114417096","parcel_mail_in":"yes","parcel_pickup":"yes"},"wikidata":"Q114496224","coordinates":[41.922339,25.5596111]},"atp":{"id":"FggNGj1TYPuFqAGD0oX9zcmn78k=","tags":{"amenity":"parcel_locker","parcel_mail_in":"yes","parcel_pickup":"yes","addr:full":"бул. Освобождение 51","addr:city":"Хасково","addr:state":"Хасково","addr:postcode":"6302","addr:country":"BG","name":"easybox 6318 Хасково Освобождение","opening_hours":"Mo-Su 00:00-24:00","image":"https://sameday.bg","brand":"easybox","brand:wikidata":"Q114496224","operator:wikidata":"Q114417096"},"coordinates":[41.922382,25.559698]},"dist":8.634,"tags_mismatch":true},{"osm":{"type":"node","id":12091800273,"tags":{"amenity":"parcel_locker","brand":"easybox","brand:wikidata":"Q114496224","operator:wikidata":"Q114417096","parcel_mail_in":"yes","parcel_pickup":"yes"},"wikidata":"Q114496224","coordinates":[41.928339,25.572591]},"atp":{"id":"_8F-VZZrV1q5cWumMPZPT0QJn9w=","tags":{"amenity":"parcel_locker","parcel_mail_in":"yes","parcel_pickup":"yes","addr:full":"бул. Васил Левски 2А","addr:city":"Хасково","addr:state":"Хасково","addr:postcode":"6300","addr:country":"BG","name":"easybox 6316 Вертикал Хасково","opening_hours":"Mo-Su 00:00-24:00","image":"https://sameday.bg","brand":"easybox","brand:wikidata":"Q114496224","operator:wikidata":"Q114417096"},"coordinates":[41.92822,25.57269]},"dist":15.562,"tags_mismatch":true},{"osm":{"type":"node","id":12091800276,"tags":{"amenity":"parcel_locker","brand":"easybox","brand:wikidata":"Q114496224","operator:wikidata":"Q114417096","parcel_mail_in":"yes","parcel_pickup":"yes"},"wikidata":"Q114496224","coordinates":[41.9360239,25.5651709]},"atp":{"id":"S6K3GhVf7hsa9fTJpD_j0W-80I4=","tags":{"amenity":"parcel_locker","parcel_mail_in":"yes","parcel_pickup":"yes","addr:full":"бул. В. Левски","addr:city":"Хасково","addr:state":"Хасково","addr:postcode":"6300","addr:country":"BG","name":"easybox 6311 EKO Хасково Левски","opening_hours":"Mo-Su 00:00-24:00","image":"https://sameday.bg/locker/image/12838/small","brand":"easybox","brand:wikidata":"Q114496224","operator:wikidata":"Q114417096"},"coordinates":[41.935904,25.565379]},"dist":21.773,"tags_mismatch":true},{"osm":{"type":"node","id":12091800278,"tags":{"amenity":"parcel_locker","brand":"easybox","brand:wikidata":"Q114496224","operator:wikidata":"Q114417096","parcel_mail_in":"yes","parcel_pickup":"yes"},"wikidata":"Q114496224","coordinates":[41.931542,25.5531344]},"atp":{"id":"cpG6C_k2zfRhLbYOdQIGQoIoKr0=","tags":{"amenity":"parcel_locker","parcel_mail_in":"yes","parcel_pickup":"yes","addr:full":"бул. България 53","addr:city":"Хасково","addr:state":"Хасково","addr:postcode":"6300","addr:country":"BG","name":"easybox 6319 Хасково България","opening_hours":"Mo-Su 00:00-24:00","image":"https://sameday.bg","brand":"easybox","brand:wikidata":"Q114496224","operator:wikidata":"Q114417096"},"coordinates":[41.931429,25.553248]},"dist":15.69,"tags_mismatch":true},{"osm":{"type":"node","id":12100739594,"tags":{"amenity":"parcel_locker","brand":"easybox","brand:wikidata":"Q114496224","operator:wikidata":"Q114417096","parcel_mail_in":"yes","parcel_pickup":"yes","payment:contactless":"yes","payment:debit_cards":"yes"},"wikidata":"Q114496224","coordinates":[42.4279322,25.6471754]},"atp":{"id":"vRSoZflp7vurljQETG0W_8UVG-U=","tags":{"amenity":"parcel_locker","parcel_mail_in":"yes","parcel_pickup":"yes","addr:full":"бул. Цар Симеон Велики 218","addr:city":"Стара Загора","addr:state":"Стара Загора","addr:postcode":"6009","addr:country":"BG","name":"easybox 6017 Билла Стара Загора","opening_hours":"Mo-Su 07:30-22:00","image":"https://sameday.bg/locker/image/12609/small","brand":"easybox","brand:wikidata":"Q114496224","operator:wikidata":"Q114417096"},"coordinates":[42.427957,25.647248]},"dist":6.566,"tags_mismatch":true},{"osm":{"type":"node","id":12101242344,"tags":{"amenity":"parcel_locker","brand":"easybox","brand:wikidata":"Q114496224","operator:wikidata":"Q114417096","parcel_mail_in":"yes","parcel_pickup":"yes"},"wikidata":"Q114496224","coordinates":[42.7081253,23.1455841]},"atp":{"id":"DrKHE1f7uhB40d4kakpEHc6J_Q4=","tags":{"amenity":"parcel_locker","parcel_mail_in":"yes","parcel_pickup":"yes","addr:full":"ул. Александър Стамболийски 2","addr:city":"Банкя","addr:state":"София-град","addr:postcode":"1320","addr:country":"BG","name":"easybox 1223 Бурлекс Банкя","opening_hours":"Mo-Su 00:00-24:00","image":"https://sameday.bg/locker/image/14485/small","brand":"easybox","brand:wikidata":"Q114496224","operator:wikidata":"Q114417096"},"coordinates":[42.708143,23.145614]},"dist":3.137,"tags_mismatch":true},{"osm":{"type":"node","id":12101332800,"tags":{"amenity":"parcel_locker","brand":"easybox","brand:wikidata":"Q114496224","operator:wikidata":"Q114417096","parcel_mail_in":"yes","parcel_pickup":"yes"},"wikidata":"Q114496224","coordinates":[42.6740894,23.2581257]},"atp":{"id":"xGl_FS_c-60nlxjAdaVr9IdPZ2U=","tags":{"amenity":"parcel_locker","parcel_mail_in":"yes","parcel_pickup":"yes","addr:full":"ул. Боряна 39 (1001)","addr:city":"София","addr:state":"София-град","addr:postcode":"1618","addr:country":"BG","name":"easybox 1113 Боряна 39","opening_hours":"Mo-Su 00:00-24:00","image":"https://sameday.bg/locker/image/12725/small","brand":"easybox","brand:wikidata":"Q114496224","operator:wikidata":"Q114417096"},"coordinates":[42.674073,23.258114]},"dist":2.059,"tags_mismatch":true},{"osm":{"type":"node","id":12105669606,"tags":{"amenity":"parcel_locker","brand":"easybox","brand:wikidata":"Q114496224","operator:wikidata":"Q114417096","parcel_mail_in":"yes","parcel_pickup":"yes"},"wikidata":"Q114496224","coordinates":[43.0805305,25.6304198]},"atp":{"id":"Fp5QakwSV-p4DPJE5g_qj1xUmP8=","tags":{"amenity":"parcel_locker","parcel_mail_in":"yes","parcel_pickup":"yes","addr:full":"ул. Васил Левски 15","addr:city":"Велико Търново","addr:state":"Велико Търново","addr:postcode":"5000","addr:country":"BG","name":"easybox 5008 CBA Магро","opening_hours":"Mo-Su 07:00-22:00","image":"https://sameday.bg/locker/image/14353/small","brand":"easybox","brand:wikidata":"Q114496224","operator:wikidata":"Q114417096"},"coordinates":[43.080498,25.630526]},"dist":9.352,"tags_mismatch":true},{"osm":{"type":"node","id":12112114390,"tags":{"amenity":"parcel_locker","brand":"easybox","brand:wikidata":"Q114496224","covered":"yes","operator:wikidata":"Q114417096","parcel_mail_in":"yes","parcel_pickup":"yes"},"wikidata":"Q114496224","coordinates":[42.7024501,23.3229114]},"atp":{"id":"YLcGXO8ujwob1tDTD2BaOzbLY3g=","tags":{"amenity":"parcel_locker","parcel_mail_in":"yes","parcel_pickup":"yes","addr:full":"бул. Мария Луиза № 61","addr:city":"София","addr:state":"София-град","addr:postcode":"1202","addr:country":"BG","name":"easybox 1280 София Мария Луиза","opening_hours":"Mo-Su 00:00-24:00","image":"https://sameday.bg","brand":"easybox","brand:wikidata":"Q114496224","operator:wikidata":"Q114417096"},"coordinates":[42.702369,23.322914]},"dist":9.02,"tags_mismatch":true},{"osm":{"type":"node","id":12118634438,"tags":{"amenity":"parcel_locker","brand":"easybox","brand:wikidata":"Q114496224","operator:wikidata":"Q114417096","parcel_mail_in":"yes","parcel_pickup":"yes"},"wikidata":"Q114496224","coordinates":[42.7032795,23.3108348]},"atp":{"id":"keIpxxfDgFKUd-d_opDy_4uCxDE=","tags":{"amenity":"parcel_locker","parcel_mail_in":"yes","parcel_pickup":"yes","addr:full":"ул. Опълченска 35","addr:city":"София","addr:state":"София-град","addr:postcode":"1303","addr:country":"BG","name":"easybox 1045 ОМВ София Опълченска","opening_hours":"Mo-Su 00:00-24:00","image":"https://sameday.bg/locker/image/14629/small","brand":"easybox","brand:wikidata":"Q114496224","operator:wikidata":"Q114417096"},"coordinates":[42.703537,23.310849]},"dist":28.656,"tags_mismatch":true},{"osm":{"type":"node","id":12124070370,"tags":{"amenity":"parcel_locker","brand":"easybox","brand:wikidata":"Q114496224","operator:wikidata":"Q114417096","parcel_mail_in":"yes","parcel_pickup":"yes"},"wikidata":"Q114496224","coordinates":[42.6776379,23.3184526]},"atp":{"id":"XG4u-_aJ98CGhj8vHDzfb3yRGT0=","tags":{"amenity":"parcel_locker","parcel_mail_in":"yes","parcel_pickup":"yes","addr:full":"бул. „Арсеналски“ 2","addr:city":"София","addr:state":"София-град","addr:postcode":"1421","addr:country":"BG","name":"easybox 1067 Паркинг Арсеналски","opening_hours":"Mo-Su 00:00-24:00","image":"https://sameday.bg/locker/image/14315/small","brand":"easybox","brand:wikidata":"Q114496224","operator:wikidata":"Q114417096"},"coordinates":[42.677558,23.318369]},"dist":11.209,"tags_mismatch":true},{"osm":{"type":"node","id":12124934867,"tags":{"amenity":"parcel_locker","brand":"easybox","brand:wikidata":"Q114496224","operator:wikidata":"Q114417096","parcel_mail_in":"yes","parcel_pickup":"yes"},"wikidata":"Q114496224","coordinates":[42.4327735,25.638498]},"atp":{"id":"EUioMFqOZQjDZAxjqaR7efiQF8o=","tags":{"amenity":"parcel_locker","parcel_mail_in":"yes","parcel_pickup":"yes","addr:full":"ул. Иван Вазов 2","addr:city":"Стара Загора","addr:state":"Стара Загора","addr:postcode":"6000","addr:country":"BG","name":"easybox 6008 Кауфланд Стара Загора","opening_hours":"Mo-Su 00:00-24:00","image":"https://sameday.bg","brand":"easybox","brand:wikidata":"Q114496224","operator:wikidata":"Q114417096"},"coordinates":[42.432859,25.638988]},"dist":41.323,"tags_mismatch":true},{"osm":{"type":"node","id":12134251633,"tags":{"amenity":"parcel_locker","brand":"easybox","brand:wikidata":"Q114496224","operator:wikidata":"Q114417096","parcel_mail_in":"yes","parcel_pickup":"yes"},"wikidata":"Q114496224","coordinates":[42.6498338,23.2607811]},"atp":{"id":"Sh7B7xl6EQjg5SVC5vQ2nifQDAc=","tags":{"amenity":"parcel_locker","parcel_mail_in":"yes","parcel_pickup":"yes","addr:full":"ул. Севастократор Калоян 77","addr:city":"София","addr:state":"София-град","addr:postcode":"1616","addr:country":"BG","name":"easybox 1074 Бурлекс Бояна","opening_hours":"Mo-Su 00:00-24:00","image":"https://sameday.bg/locker/image/14299/small","brand":"easybox","brand:wikidata":"Q114496224","operator:wikidata":"Q114417096"},"coordinates":[42.649921,23.260663]},"dist":13.686,"tags_mismatch":true},{"osm":{"type":"node","id":12135041382,"tags":{"amenity":"parcel_locker","brand":"easybox","brand:wikidata":"Q114496224","operator:wikidata":"Q114417096","parcel_mail_in":"yes","parcel_pickup":"yes"},"wikidata":"Q114496224","coordinates":[42.6694639,23.3134086]},"atp":{"id":"ACOtIMz2tjPhUztjTebZ3SZ10kg=","tags":{"amenity":"parcel_locker","parcel_mail_in":"yes","parcel_pickup":"yes","addr:full":"София ул. \"Сердикийски събор\" 1","addr:city":"София","addr:state":"София-град","addr:postcode":"1421","addr:country":"BG","name":"easybox 1182 Билла София Козяк","opening_hours":"Mo-Su 07:30-22:00","image":"https://sameday.bg/locker/image/12446/small","brand":"easybox","brand:wikidata":"Q114496224","operator:wikidata":"Q114417096"},"coordinates":[42.669459,23.313618]},"dist":17.129,"tags_mismatch":true},{"osm":{"type":"node","id":12142050217,"tags":{"amenity":"parcel_locker","brand":"easybox","brand:wikidata":"Q114496224","check_date":"2024-08-28","indoor":"no","opening_hours":"24/7","operator:wikidata":"Q114417096","parcel_mail_in":"yes","parcel_pickup":"yes","payment:cash":"no","payment:credit_cards":"yes","payment:debit_cards":"yes","ref":"1090","source":"survey","surveillance":"public","wheelchair":"yes"},"wikidata":"Q114496224","coordinates":[42.6275455,23.3785055]},"atp":{"id":"SNq0XuzYjdtbNQDHSkmCSpmU2cI=","tags":{"amenity":"parcel_locker","parcel_mail_in":"yes","parcel_pickup":"yes","addr:full":"ул. д-р А. Москов15","addr:city":"София","addr:state":"София-град","addr:postcode":"1000","addr:country":"BG","name":"easybox 1090 ФантастикоФ21 Младост 4","opening_hours":"Mo-Su 00:00-24:00","image":"https://sameday.bg/locker/image/14291/small","brand":"easybox","brand:wikidata":"Q114496224","operator:wikidata":"Q114417096"},"coordinates":[42.627526,23.378752]},"dist":20.283,"tags_mismatch":true},{"osm":{"type":"node","id":12146552521,"tags":{"amenity":"parcel_locker","brand":"easybox","brand:wikidata":"Q114496224","indoor":"yes","operator:wikidata":"Q114417096","parcel_mail_in":"yes","parcel_pickup":"yes"},"wikidata":"Q114496224","coordinates":[42.6808549,23.2879385]},"atp":{"id":"YvMbFbWP8j0ZCaclVTChjeqqSzQ=","tags":{"amenity":"parcel_locker","parcel_mail_in":"yes","parcel_pickup":"yes","addr:full":"бул. Цар Борис III 84","addr:city":"София","addr:state":"София-град","addr:postcode":"1612","addr:country":"BG","name":"easybox 1028 Цар Борис III 84","opening_hours":"Mo-Fr 09:30-19:00; Sa 09:30-14:00","image":"https://sameday.bg","brand":"easybox","brand:wikidata":"Q114496224","operator:wikidata":"Q114417096"},"coordinates":[42.680891,23.288018]},"dist":7.638,"tags_mismatch":true},{"osm":{"type":"node","id":12153378351,"tags":{"amenity":"parcel_locker","brand":"easybox","brand:wikidata":"Q114496224","operator:wikidata":"Q114417096","parcel_mail_in":"yes","parcel_pickup":"yes"},"wikidata":"Q114496224","coordinates":[42.6390317,23.3810621]},"atp":{"id":"8YMe5uu9ZsdYG1X2uPYLb1d-vl0=","tags":{"amenity":"parcel_locker","parcel_mail_in":"yes","parcel_pickup":"yes","addr:full":"ул. Филип Аврамов","addr:city":"София","addr:state":"София-град","addr:postcode":"1712","addr:country":"BG","name":"easybox 1301 Петрол София Младост 3","opening_hours":"Mo-Su 00:00-24:00","image":"https://sameday.bg","brand":"easybox","brand:wikidata":"Q114496224","operator:wikidata":"Q114417096"},"coordinates":[42.639222,23.381195]},"dist":23.79,"tags_mismatch":true},{"osm":{"type":"node","id":12159710262,"tags":{"amenity":"parcel_locker","brand":"easybox","brand:wikidata":"Q114496224","operator:wikidata":"Q114417096","parcel_mail_in":"yes","parcel_pickup":"yes"},"wikidata":"Q114496224","coordinates":[42.6922543,23.3122502]},"atp":{"id":"HINYPubHiD2oOafExRLalKEJXd4=","tags":{"amenity":"parcel_locker","parcel_mail_in":"yes","parcel_pickup":"yes","addr:full":"ул. Перущица No. 8 МОЛ Пловдив","addr:city":"Пловдив","addr:state":"Пловдив","addr:postcode":"4002","addr:country":"BG","name":"easybox 4057 Мол Пловдив","opening_hours":"Mo-Su 00:00-24:00","image":"https://sameday.bg/locker/image/14847/small","brand":"easybox","brand:wikidata":"Q114496224","operator:wikidata":"Q114417096"},"coordinates":[42.141525,24.71949]},"tags_mismatch":true},{"osm":false,"atp":{"id":"wAH8E5Ol4I_8T9pJOcYd9Z0-4Qg=","tags":{"amenity":"parcel_locker","parcel_mail_in":"yes","parcel_pickup":"yes","addr:full":"бул. Сливница No. 185 Делта Планет Мол Варна","addr:city":"Варна","addr:state":"Варна","addr:postcode":"9009","addr:country":"BG","name":"easybox 9052 Делта Планет Мол Варна","opening_hours":"Mo-Su 00:00-24:00","image":"https://sameday.bg/locker/image/12331/small","brand":"easybox","brand:wikidata":"Q114496224","operator:wikidata":"Q114417096"},"coordinates":[43.227206,27.87476]},"tags_mismatch":false,"dist":0},{"osm":false,"atp":{"id":"DZFcUmh4JV8OohDJ5yZOg712IuQ=","tags":{"amenity":"parcel_locker","parcel_mail_in":"yes","parcel_pickup":"yes","addr:full":"бул. Асен Йорданов 7","addr:city":"София","addr:state":"София-град","addr:postcode":"1528","addr:country":"BG","name":"easybox 1208 Кауфланд София 7","opening_hours":"Mo-Su 07:00-22:00","image":"https://sameday.bg/locker/image/12338/small","brand":"easybox","brand:wikidata":"Q114496224","operator:wikidata":"Q114417096"},"coordinates":[42.674503,23.383034]},"tags_mismatch":false,"dist":0},{"osm":false,"atp":{"id":"ZKp7DwUa-73ojjtmBpzR4MKWdSE=","tags":{"amenity":"parcel_locker","parcel_mail_in":"yes","parcel_pickup":"yes","addr:full":"ул. Теофан Райнов 72","addr:city":"Карлово","addr:state":"Пловдив","addr:postcode":"4300","addr:country":"BG","name":"easybox 4056 Кауфланд Карлово","opening_hours":"Mo-Su 07:00-21:00","image":"https://sameday.bg","brand":"easybox","brand:wikidata":"Q114496224","operator:wikidata":"Q114417096"},"coordinates":[42.633079,24.817983]},"tags_mismatch":false,"dist":0},{"osm":false,"atp":{"id":"k_SjnVViPjPu5x29DapLNZfH5wI=","tags":{"amenity":"parcel_locker","parcel_mail_in":"yes","parcel_pickup":"yes","addr:full":"Бул. Царица Йоана 15","addr:city":"София","addr:state":"София-град","addr:postcode":"1324","addr:country":"BG","name":"easybox 1207 Мега Мол София 15","opening_hours":"Mo-Fr 06:30-22:00; Sa-Su 07:30-22:00","image":"https://sameday.bg/locker/image/12341/small","brand":"easybox","brand:wikidata":"Q114496224","operator:wikidata":"Q114417096"},"coordinates":[42.710364,23.271632]},"tags_mismatch":false,"dist":0},{"osm":false,"atp":{"id":"uF2d0iCn8ecigcjUmrfyk6mAdq8=","tags":{"amenity":"parcel_locker","parcel_mail_in":"yes","parcel_pickup":"yes","addr:full":"ул. Д-р Георги Странски 3","addr:city":"Пловдив","addr:state":"Пловдив","addr:postcode":"4000","addr:country":"BG","name":"easybox 4055 Пловдив Плаза Мол","opening_hours":"Mo-Su 00:00-24:00","image":"https://sameday.bg/locker/image/12343/small","brand":"easybox","brand:wikidata":"Q114496224","operator:wikidata":"Q114417096"},"coordinates":[42.145089,24.782188]},"tags_mismatch":false,"dist":0},{"osm":false,"atp":{"id":"iWj1rk1DvzuBQ8gyPw_6OSwRJdU=","tags":{"amenity":"parcel_locker","parcel_mail_in":"yes","parcel_pickup":"yes","addr:full":"ул. Акад. Стефан Младенов 90","addr:city":"София","addr:state":"София-град","addr:postcode":"1700","addr:country":"BG","name":"easybox 1206 София Стефан Младенов","opening_hours":"Mo-Su 00:00-24:00","image":"https://sameday.bg/locker/image/12347/small","brand":"easybox","brand:wikidata":"Q114496224","operator:wikidata":"Q114417096"},"coordinates":[42.643443,23.344865]},"tags_mismatch":false,"dist":0},{"osm":false,"atp":{"id":"lQyHkSvLNupWEO-GI4Bz0YZ-yEQ=","tags":{"amenity":"parcel_locker","parcel_mail_in":"yes","parcel_pickup":"yes","addr:full":"ул. Свобода 55","addr:city":"Сандански","addr:state":"Благоевград","addr:postcode":"2800","addr:country":"BG","name":"easybox 2727 Кауфланд Сандански Свобода","opening_hours":"Mo-Su 07:00-22:00","image":"https://sameday.bg/locker/image/12351/small","brand":"easybox","brand:wikidata":"Q114496224","operator:wikidata":"Q114417096"},"coordinates":[41.549987,23.270554]},"tags_mismatch":false,"dist":0},{"osm":false,"atp":{"id":"fbHVsMJmC9H4ohQU4DHT0_Cx2oY=","tags":{"amenity":"parcel_locker","parcel_mail_in":"yes","parcel_pickup":"yes","addr:full":"бул. Трети март 77","addr:city":"Варна","addr:state":"Варна","addr:postcode":"9023","addr:country":"BG","name":"easybox 9051 Кауфланд Варна Трети март","opening_hours":"Mo-Sa 07:00-21:30; Su 08:00-21:00","image":"https://sameday.bg/locker/image/12356/small","brand":"easybox","brand:wikidata":"Q114496224","operator:wikidata":"Q114417096"},"coordinates":[43.242193,27.850409]},"tags_mismatch":false,"dist":0},{"osm":false,"atp":{"id":"mbcfZ_x1Gcx95F92BSNY0BOe9-M=","tags":{"amenity":"parcel_locker","parcel_mail_in":"yes","parcel_pickup":"yes","addr:full":"бул. Черни Връх 100 Ниво минус 2 срещу ескалатори","addr:city":"София","addr:state":"София-град","addr:postcode":"1407","addr:country":"BG","name":"easybox 1205 Парадайс Център София","opening_hours":"Mo-Su 10:00-22:00","image":"https://sameday.bg/locker/image/12359/small","brand":"easybox","brand:wikidata":"Q114496224","operator:wikidata":"Q114417096"},"coordinates":[42.657863,23.315038]},"tags_mismatch":false,"dist":0},{"osm":false,"atp":{"id":"UsOgubDAl2EokOqcuIQB1ckzP6w=","tags":{"amenity":"parcel_locker","parcel_mail_in":"yes","parcel_pickup":"yes","addr:full":"ул. Тинтява 15, от дясно на входа","addr:city":"София","addr:state":"София-град","addr:postcode":"1113","addr:country":"BG","name":"easybox 1204 Нелбо Инженеринг","opening_hours":"Mo-Su 00:00-24:00","image":"https://sameday.bg/locker/image/12363/small","brand":"easybox","brand:wikidata":"Q114496224","operator:wikidata":"Q114417096"},"coordinates":[42.666898,23.351569]},"tags_mismatch":false,"dist":0},{"osm":false,"atp":{"id":"u8X83p0wAbL5yJa7buIHU0dcgt8=","tags":{"amenity":"parcel_locker","parcel_mail_in":"yes","parcel_pickup":"yes","addr:full":"бул. Ситняково 48","addr:city":"София","addr:state":"София-град","addr:postcode":"1505","addr:country":"BG","name":"easybox 1203 Мол Сердика Център София","opening_hours":"Mo-Su 00:00-24:00","image":"https://sameday.bg/locker/image/12365/small","brand":"easybox","brand:wikidata":"Q114496224","operator:wikidata":"Q114417096"},"coordinates":[42.691902,23.353509]},"tags_mismatch":false,"dist":0},{"osm":false,"atp":{"id":"ImQB3lKZwUw_HHx1Q9K1j1DpqBc=","tags":{"amenity":"parcel_locker","parcel_mail_in":"yes","parcel_pickup":"yes","addr:full":"Д-р Петър Скорчевул. 2","addr:city":"Варна","addr:state":"Варна","addr:postcode":"9010","addr:country":"BG","name":"easybox 9050 Кауфланд Варна Бриз","opening_hours":"Mo-Su 00:00-24:00","image":"https://sameday.bg","brand":"easybox","brand:wikidata":"Q114496224","operator:wikidata":"Q114417096"},"coordinates":[43.222271,27.940618]},"tags_mismatch":false,"dist":0},{"osm":false,"atp":{"id":"vOmK1GOew5AnKmKVMdp0OjQfN3M=","tags":{"amenity":"parcel_locker","parcel_mail_in":"yes","parcel_pickup":"yes","addr:full":"Христо Смирненски ул. 2 Кауфланд Трошево ниво 2","addr:city":"Варна","addr:state":"Варна","addr:postcode":"9000","addr:country":"BG","name":"easybox 9049 Кауфланд Варна Смирненски","opening_hours":"Mo-Su 00:00-24:00","image":"https://sameday.bg/locker/image/12369/small","brand":"easybox","brand:wikidata":"Q114496224","operator:wikidata":"Q114417096"},"coordinates":[43.221237,27.890894]},"tags_mismatch":false,"dist":0},{"osm":false,"atp":{"id":"hGYC4WAXozH_E-ws1DyPrHMVQn4=","tags":{"amenity":"parcel_locker","parcel_mail_in":"yes","parcel_pickup":"yes","addr:full":"бул. Шипченски проход 18 ниво партер вдясно от централен вход","addr:city":"София","addr:state":"София-град","addr:postcode":"1113","addr:country":"BG","name":"easybox 1202 Галакси Трейд Център София","opening_hours":"Mo-Su 10:00-22:00","image":"https://sameday.bg/locker/image/12371/small","brand":"easybox","brand:wikidata":"Q114496224","operator:wikidata":"Q114417096"},"coordinates":[42.678721,23.360587]},"tags_mismatch":false,"dist":0},{"osm":false,"atp":{"id":"2eLsBmfa8t-dyDvZwKTTsDzjE8M=","tags":{"amenity":"parcel_locker","parcel_mail_in":"yes","parcel_pickup":"yes","addr:full":"бул. Джавахарлал Неру 29 след централен вход","addr:city":"София","addr:state":"София-град","addr:postcode":"1336","addr:country":"BG","name":"easybox 1201 Мини Мол Люлин София","opening_hours":"Mo-Su 08:00-20:00","image":"https://sameday.bg/locker/image/12375/small","brand":"easybox","brand:wikidata":"Q114496224","operator:wikidata":"Q114417096"},"coordinates":[42.714198,23.255889]},"tags_mismatch":false,"dist":0},{"osm":false,"atp":{"id":"rLt3dNlimd9j9GpkL6wPx5IXTzw=","tags":{"amenity":"parcel_locker","parcel_mail_in":"yes","parcel_pickup":"yes","addr:full":"бул. Никола Петков 52 на входа от страната на паркинга","addr:city":"София","addr:state":"София-град","addr:postcode":"1618","addr:country":"BG","name":"easybox 1199 Трейд Хаус Уест София","opening_hours":"Mo-Su 07:00-22:00","image":"https://sameday.bg/locker/image/12382/small","brand":"easybox","brand:wikidata":"Q114496224","operator:wikidata":"Q114417096"},"coordinates":[42.666007,23.259387]},"tags_mismatch":false,"dist":0},{"osm":false,"atp":{"id":"UN-FqsqIj9vwKgRHA3yhBnlE4j0=","tags":{"amenity":"parcel_locker","parcel_mail_in":"yes","parcel_pickup":"yes","addr:full":"Плевен Площад Свобода 25","addr:city":"Плевен","addr:state":"Плевен","addr:postcode":"5883","addr:country":"BG","name":"easybox 5815 Централ Мол Плевен","opening_hours":"Mo-Fr 07:30-22:00; Sa 08:30-22:00; Su 08:30-21:30","image":"https://sameday.bg/locker/image/12385/small","brand":"easybox","brand:wikidata":"Q114496224","operator:wikidata":"Q114417096"},"coordinates":[43.410072,24.618366]},"tags_mismatch":false,"dist":0},{"osm":false,"atp":{"id":"5gLBXaXCpPz4eNvHGB9GD4bp9YU=","tags":{"amenity":"parcel_locker","parcel_mail_in":"yes","parcel_pickup":"yes","addr:full":"ул. Екзарх Йосиф 115","addr:city":"София","addr:state":"София-град","addr:postcode":"1527","addr:country":"BG","name":"easybox 1198 Гея Дек София Екзарх Йосиф","opening_hours":"Mo-Su 00:00-24:00","image":"https://sameday.bg/locker/image/12388/small","brand":"easybox","brand:wikidata":"Q114496224","operator:wikidata":"Q114417096"},"coordinates":[42.702748,23.334234]},"tags_mismatch":false,"dist":0},{"osm":false,"atp":{"id":"G_ZGk4MJMuyFBlnVJtNOmGu8gfI=","tags":{"amenity":"parcel_locker","parcel_mail_in":"yes","parcel_pickup":"yes","addr:full":"ул. Тодор Александров 47","addr:city":"Благоевград","addr:state":"Благоевград","addr:postcode":"2700","addr:country":"BG","name":"easybox 2726 Мол ъф Благоевград","opening_hours":"Mo-Su 09:00-24:00","image":"https://sameday.bg/locker/image/12395/small","brand":"easybox","brand:wikidata":"Q114496224","operator:wikidata":"Q114417096"},"coordinates":[42.017345,23.095536]},"tags_mismatch":false,"dist":0},{"osm":false,"atp":{"id":"byzNVUEC5VRZjAfrmuSA-fqGq4k=","tags":{"amenity":"parcel_locker","parcel_mail_in":"yes","parcel_pickup":"yes","addr:full":"бул. Ломско шосе 2А","addr:city":"София","addr:state":"София-град","addr:postcode":"1220","addr:country":"BG","name":"easybox 1196 Търговски Център Надежда","opening_hours":"Mo-Su 07:00-24:00","image":"https://sameday.bg/locker/image/12398/small","brand":"easybox","brand:wikidata":"Q114496224","operator:wikidata":"Q114417096"},"coordinates":[42.724006,23.306034]},"tags_mismatch":false,"dist":0},{"osm":false,"atp":{"id":"vGXWGu05NxW6QGKYqzouM4JUrNg=","tags":{"amenity":"parcel_locker","parcel_mail_in":"yes","parcel_pickup":"yes","addr:full":"бул. Цариградско шосе 86","addr:city":"София","addr:state":"София-град","addr:postcode":"1784","addr:country":"BG","name":"easybox 1195 Спейс Тауър","opening_hours":"Mo-Su 00:00-24:00","image":"https://sameday.bg/locker/image/12400/small","brand":"easybox","brand:wikidata":"Q114496224","operator:wikidata":"Q114417096"},"coordinates":[42.648882,23.393587]},"tags_mismatch":false,"dist":0},{"osm":false,"atp":{"id":"c5-wwH2DI98rpS5KW6Cy69yNTcg=","tags":{"amenity":"parcel_locker","parcel_mail_in":"yes","parcel_pickup":"yes","addr:full":"ул. Сан Стефано 80","addr:city":"Плевен","addr:state":"Плевен","addr:postcode":"5800","addr:country":"BG","name":"easybox 5814 Кауфланд Плевен Кайлъка","opening_hours":"Mo-Sa 07:00-21:00; Su 08:00-21:00","image":"https://sameday.bg/locker/image/12403/small","brand":"easybox","brand:wikidata":"Q114496224","operator:wikidata":"Q114417096"},"coordinates":[43.395185,24.620822]},"tags_mismatch":false,"dist":0},{"osm":false,"atp":{"id":"8428w01aZ9T07RU0NS1SZKWN5_4=","tags":{"amenity":"parcel_locker","parcel_mail_in":"yes","parcel_pickup":"yes","addr:full":"бул. Джавахарлал Неру 28 вход между Адмирал и ДМ","addr:city":"София","addr:state":"София-град","addr:postcode":"1324","addr:country":"BG","name":"easybox 1194 Силвър Център Люлин София","opening_hours":"Mo-Su 00:00-24:00","image":"https://sameday.bg/locker/image/12406/small","brand":"easybox","brand:wikidata":"Q114496224","operator:wikidata":"Q114417096"},"coordinates":[42.715169,23.254239]},"tags_mismatch":false,"dist":0},{"osm":false,"atp":{"id":"S2dWXfN9h4OrCDWS8DccQZXhwMM=","tags":{"amenity":"parcel_locker","parcel_mail_in":"yes","parcel_pickup":"yes","addr:full":"бул. Сливница 65","addr:city":"София","addr:state":"София-град","addr:postcode":"1309","addr:country":"BG","name":"easybox 1193 Търговски Център Глобус","opening_hours":"Mo-Su 00:00-24:00","image":"https://sameday.bg/locker/image/12410/small","brand":"easybox","brand:wikidata":"Q114496224","operator:wikidata":"Q114417096"},"coordinates":[42.710651,23.291674]},"tags_mismatch":false,"dist":0},{"osm":false,"atp":{"id":"aV8ErC5WAycqAtjbl8WI2toNru4=","tags":{"amenity":"parcel_locker","parcel_mail_in":"yes","parcel_pickup":"yes","addr:full":"ул Хан Аспарух 30 ниво-2 вход/изход паркинг","addr:city":"Стара Загора","addr:state":"Стара Загора","addr:postcode":"6000","addr:country":"BG","name":"easybox 6018 Мол Галерия Стара Загора","opening_hours":"Mo-Su 10:00-21:00","image":"https://sameday.bg/locker/image/12412/small","brand":"easybox","brand:wikidata":"Q114496224","operator:wikidata":"Q114417096"},"coordinates":[42.438253,25.632129]},"tags_mismatch":false,"dist":0},{"osm":false,"atp":{"id":"Lwue7lafT7SOW1lE9T-bry3dfog=","tags":{"amenity":"parcel_locker","parcel_mail_in":"yes","parcel_pickup":"yes","addr:full":"София бул. Александър Малинов 77 централен вход вдясно от ескалаторите","addr:city":"София","addr:state":"София-град","addr:postcode":"1712","addr:country":"BG","name":"easybox 1192 Принцес Аутлет Център София","opening_hours":"Mo-Su 10:00-21:00","image":"https://sameday.bg/locker/image/12415/small","brand":"easybox","brand:wikidata":"Q114496224","operator:wikidata":"Q114417096"},"coordinates":[42.636666,23.372279]},"tags_mismatch":false,"dist":0},{"osm":false,"atp":{"id":"u55yX-fyrMxGVM6_FjwONMOkYeo=","tags":{"amenity":"parcel_locker","parcel_mail_in":"yes","parcel_pickup":"yes","addr:full":"София бул. Александър Малинов 51 централен вход до ескалаторите","addr:city":"София","addr:state":"София-град","addr:postcode":"1712","addr:country":"BG","name":"easybox 1191 Метро Сити Младост3 София","opening_hours":"Mo-Su 09:00-22:00","image":"https://sameday.bg/locker/image/12419/small","brand":"easybox","brand:wikidata":"Q114496224","operator:wikidata":"Q114417096"},"coordinates":[42.646088,23.376109]},"tags_mismatch":false,"dist":0},{"osm":false,"atp":{"id":"pwvo_eRss_xHE8PsULCNBFmsPJ8=","tags":{"amenity":"parcel_locker","parcel_mail_in":"yes","parcel_pickup":"yes","addr:full":"София бул. Цариградско шосе 139 в магазина","addr:city":"София","addr:state":"София-град","addr:postcode":"1784","addr:country":"BG","name":"easybox 1190 Офис1 София Цариградско шосе","opening_hours":"Mo-Fr 09:00-19:00; Sa-Su 10:00-16:00","image":"https://sameday.bg/locker/image/12422/small","brand":"easybox","brand:wikidata":"Q114496224","operator:wikidata":"Q114417096"},"coordinates":[42.651629,23.392484]},"tags_mismatch":false,"dist":0},{"osm":false,"atp":{"id":"VYvq16YE1bZuADSpgHrfqpO1VSM=","tags":{"amenity":"parcel_locker","parcel_mail_in":"yes","parcel_pickup":"yes","addr:full":"Пловдив бул. Санкт Петербург 48","addr:city":"Пловдив","addr:state":"Пловдив","addr:postcode":"4000","addr:country":"BG","name":"easybox 4054 Офис1 Пловдив Санкт Петербург","opening_hours":"Mo-Su 09:00-19:00","image":"https://sameday.bg/locker/image/12429/small","brand":"easybox","brand:wikidata":"Q114496224","operator:wikidata":"Q114417096"},"coordinates":[42.142345,24.783912]},"tags_mismatch":false,"dist":0},{"osm":false,"atp":{"id":"wE0aB5I8JQSnpGL3yPfNns78ZxQ=","tags":{"amenity":"parcel_locker","parcel_mail_in":"yes","parcel_pickup":"yes","addr:full":"София бул. Ломско шосе 171","addr:city":"София","addr:state":"София-град","addr:postcode":"1229","addr:country":"BG","name":"easybox 1187 Билла София Надежда","opening_hours":"Mo-Su 07:30-22:00","image":"https://sameday.bg/locker/image/12435/small","brand":"easybox","brand:wikidata":"Q114496224","operator:wikidata":"Q114417096"},"coordinates":[42.735524,23.291879]},"tags_mismatch":false,"dist":0},{"osm":false,"atp":{"id":"3P3RTCe5OaHWLaZUa74jerJXYr8=","tags":{"amenity":"parcel_locker","parcel_mail_in":"yes","parcel_pickup":"yes","addr:full":"София ул.Опълченска 35","addr:city":"София","addr:state":"София-град","addr:postcode":"1303","addr:country":"BG","name":"easybox 1186 Билла София Илинден","opening_hours":"Mo-Su 07:30-22:00","image":"https://sameday.bg/locker/image/12437/small","brand":"easybox","brand:wikidata":"Q114496224","operator:wikidata":"Q114417096"},"coordinates":[42.704172,23.310636]},"tags_mismatch":false,"dist":0},{"osm":false,"atp":{"id":"rD5i5_vhvUEvX54uEIxwNKw7FZo=","tags":{"amenity":"parcel_locker","parcel_mail_in":"yes","parcel_pickup":"yes","addr:full":"София бул. Владимир Вазов 20","addr:city":"София","addr:state":"София-град","addr:postcode":"1517","addr:country":"BG","name":"easybox 1185 Билла София Подуене","opening_hours":"Mo-Su 07:30-22:00","image":"https://sameday.bg/locker/image/12439/small","brand":"easybox","brand:wikidata":"Q114496224","operator:wikidata":"Q114417096"},"coordinates":[42.702267,23.353709]},"tags_mismatch":false,"dist":0},{"osm":false,"atp":{"id":"91JLKBYYERslA21JvM3RcD74EyU=","tags":{"amenity":"parcel_locker","parcel_mail_in":"yes","parcel_pickup":"yes","addr:full":"София ул. Копенхаген 22","addr:city":"София","addr:state":"София-град","addr:postcode":"1582","addr:country":"BG","name":"easybox 1183 Билла София Дружба","opening_hours":"Mo-Su 07:30-22:00","image":"https://sameday.bg/locker/image/12444/small","brand":"easybox","brand:wikidata":"Q114496224","operator:wikidata":"Q114417096"},"coordinates":[42.646991,23.403909]},"tags_mismatch":false,"dist":0},{"osm":false,"atp":{"id":"N96Fz3xEQ0G7sm7lt5xP74mD-DM=","tags":{"amenity":"parcel_locker","parcel_mail_in":"yes","parcel_pickup":"yes","addr:full":"София бул. Симеоновско шосе 211","addr:city":"София","addr:state":"София-град","addr:postcode":"1434","addr:country":"BG","name":"easybox 1181 Билла София Симеоново","opening_hours":"Mo-Su 07:00-22:00","image":"https://sameday.bg/locker/image/12448/small","brand":"easybox","brand:wikidata":"Q114496224","operator:wikidata":"Q114417096"},"coordinates":[42.614392,23.339064]},"tags_mismatch":false,"dist":0},{"osm":false,"atp":{"id":"woSib0laHBlyamTep3sZa43N8xs=","tags":{"amenity":"parcel_locker","parcel_mail_in":"yes","parcel_pickup":"yes","addr:full":"София Г.М.Димитров 65 от дясно след входа","addr:city":"София","addr:state":"София-град","addr:postcode":"1172","addr:country":"BG","name":"easybox 1180 Билла София ГМДимитров","opening_hours":"Mo-Sa 07:30-22:00; Su 00:00-24:00","image":"https://sameday.bg/locker/image/12451/small","brand":"easybox","brand:wikidata":"Q114496224","operator:wikidata":"Q114417096"},"coordinates":[42.662854,23.355245]},"tags_mismatch":false,"dist":0},{"osm":false,"atp":{"id":"JYJ-dTeFBqB9zrHM5LfAI5gt6Bg=","tags":{"amenity":"parcel_locker","parcel_mail_in":"yes","parcel_pickup":"yes","addr:full":"Бургас ул. Гочо Иванов 30","addr:city":"Бургас","addr:state":"Бургас","addr:postcode":"8125","addr:country":"BG","name":"easybox 8026 Билла Бургас Г. Иванов","opening_hours":"Mo-Su 07:30-22:00","image":"https://sameday.bg/locker/image/12453/small","brand":"easybox","brand:wikidata":"Q114496224","operator:wikidata":"Q114417096"},"coordinates":[42.503844,27.460383]},"tags_mismatch":false,"dist":0},{"osm":false,"atp":{"id":"B2JSiyYp3xtKEJWphnvHXTXG6M4=","tags":{"amenity":"parcel_locker","parcel_mail_in":"yes","parcel_pickup":"yes","addr:full":"Пловдив бул. 6-ти Септември 221, в дясно след входа","addr:city":"Пловдив","addr:state":"Пловдив","addr:postcode":"4000","addr:country":"BG","name":"easybox 4053 Билла Пловдив 6 септември","opening_hours":"Mo-Su 07:30-22:00","image":"https://sameday.bg/locker/image/12455/small","brand":"easybox","brand:wikidata":"Q114496224","operator:wikidata":"Q114417096"},"coordinates":[42.153647,24.762064]},"tags_mismatch":false,"dist":0},{"osm":false,"atp":{"id":"FXwkdeVez7h4skM_chgI7Z1J0C0=","tags":{"amenity":"parcel_locker","parcel_mail_in":"yes","parcel_pickup":"yes","addr:full":"Русе ул. Стефан Стамболов 99, в дясно след входа","addr:city":"Русе","addr:state":"Русе","addr:postcode":"7001","addr:country":"BG","name":"easybox 7015 Билла Русе Стамболов","opening_hours":"Mo-Su 07:30-22:00","image":"https://sameday.bg/locker/image/12457/small","brand":"easybox","brand:wikidata":"Q114496224","operator:wikidata":"Q114417096"},"coordinates":[43.830799,25.950878]},"tags_mismatch":false,"dist":0},{"osm":false,"atp":{"id":"jikdncHYZRH5e_a1XRgyYsCb97o=","tags":{"amenity":"parcel_locker","parcel_mail_in":"yes","parcel_pickup":"yes","addr:full":"Ямбол ул. Арда 7, в дясно след входа","addr:city":"Ямбол","addr:state":"Ямбол","addr:postcode":"8600","addr:country":"BG","name":"easybox 8605 Билла Ямбол Арда","opening_hours":"Mo-Su 07:30-22:00","image":"https://sameday.bg/locker/image/12459/small","brand":"easybox","brand:wikidata":"Q114496224","operator:wikidata":"Q114417096"},"coordinates":[42.487788,26.501665]},"tags_mismatch":false,"dist":0},{"osm":false,"atp":{"id":"-ypSJ8sb6ty12CnXYKfUDbpYaoA=","tags":{"amenity":"parcel_locker","parcel_mail_in":"yes","parcel_pickup":"yes","addr:full":"бул. Рожен № 20Е","addr:city":"София","addr:state":"София-град","addr:postcode":"1220","addr:country":"BG","name":"easybox 1179 ОМВ София Рожен","opening_hours":"Mo-Su 00:00-24:00","image":"https://sameday.bg/locker/image/12461/small","brand":"easybox","brand:wikidata":"Q114496224","operator:wikidata":"Q114417096"},"coordinates":[42.732653,23.314243]},"tags_mismatch":false,"dist":0},{"osm":false,"atp":{"id":"gIR1KdcQkRRNGhz2Ec836dKhCWo=","tags":{"amenity":"parcel_locker","parcel_mail_in":"yes","parcel_pickup":"yes","addr:full":"бул. Проф. Цветан Лазаров № 63, от ляво на входа","addr:city":"София","addr:state":"София-град","addr:postcode":"1574","addr:country":"BG","name":"easybox 1177 ОМВ София Лазаров","opening_hours":"Mo-Su 00:00-24:00","image":"https://sameday.bg/locker/image/12465/small","brand":"easybox","brand:wikidata":"Q114496224","operator:wikidata":"Q114417096"},"coordinates":[42.66152,23.391759]},"tags_mismatch":false,"dist":0},{"osm":false,"atp":{"id":"hsIVlVC5tc9l5DRWexVs4rtUMoQ=","tags":{"amenity":"parcel_locker","parcel_mail_in":"yes","parcel_pickup":"yes","addr:full":"ул. Резбарска № 1 Б, от ляво на входа","addr:city":"София","addr:state":"София-град","addr:postcode":"1510","addr:country":"BG","name":"easybox 1174 ОМВ София Резбарска","opening_hours":"Mo-Su 00:00-24:00","image":"https://sameday.bg/locker/image/12472/small","brand":"easybox","brand:wikidata":"Q114496224","operator:wikidata":"Q114417096"},"coordinates":[42.707942,23.341871]},"tags_mismatch":false,"dist":0},{"osm":false,"atp":{"id":"qmca1eJVBjGaXahk0Gk-RR5Z0vk=","tags":{"amenity":"parcel_locker","parcel_mail_in":"yes","parcel_pickup":"yes","addr:full":"Ломско шосе № 2, от дясно на входа","addr:city":"София","addr:state":"София-град","addr:postcode":"1220","addr:country":"BG","name":"easybox 1172 ОМВ София Ломско","opening_hours":"Mo-Su 00:00-24:00","image":"https://sameday.bg/locker/image/12476/small","brand":"easybox","brand:wikidata":"Q114496224","operator:wikidata":"Q114417096"},"coordinates":[42.723045,23.306844]},"tags_mismatch":false,"dist":0},{"osm":false,"atp":{"id":"sHOKCYFlVtITTT5I_BSTBdBflu4=","tags":{"amenity":"parcel_locker","parcel_mail_in":"yes","parcel_pickup":"yes","addr:full":"бул. Сливница 258","addr:city":"София","addr:state":"София-град","addr:postcode":"1303","addr:country":"BG","name":"easybox 1171 ОМВ София Сливница","opening_hours":"Mo-Su 00:00-24:00","image":"https://sameday.bg/locker/image/12478/small","brand":"easybox","brand:wikidata":"Q114496224","operator:wikidata":"Q114417096"},"coordinates":[42.716127,23.282269]},"tags_mismatch":false,"dist":0},{"osm":false,"atp":{"id":"dFxsduliPoQDrczJ0kGTFCGcTfA=","tags":{"amenity":"parcel_locker","parcel_mail_in":"yes","parcel_pickup":"yes","addr:full":"бул. Никола Мушанов № 114 Е, от дясно на входа","addr:city":"София","addr:state":"София-град","addr:postcode":"1330","addr:country":"BG","name":"easybox 1170 ОМВ София Мушанов","opening_hours":"Mo-Su 00:00-24:00","image":"https://sameday.bg/locker/image/12480/small","brand":"easybox","brand:wikidata":"Q114496224","operator:wikidata":"Q114417096"},"coordinates":[42.689534,23.276718]},"tags_mismatch":false,"dist":0},{"osm":false,"atp":{"id":"ribLCGcUh4FKoloSOnv9G--iw30=","tags":{"amenity":"parcel_locker","parcel_mail_in":"yes","parcel_pickup":"yes","addr:full":"ул. Бойчо Бойчев № 66, в дясно на входа","addr:city":"София","addr:state":"София-град","addr:postcode":"1632","addr:country":"BG","name":"easybox 1169 ОМВ София Бойчев","opening_hours":"Mo-Su 00:00-24:00","image":"https://sameday.bg/locker/image/12482/small","brand":"easybox","brand:wikidata":"Q114496224","operator:wikidata":"Q114417096"},"coordinates":[42.682409,23.243006]},"tags_mismatch":false,"dist":0},{"osm":false,"atp":{"id":"xXfz15jS1v8MRh6H9-rMjKuAr0I=","tags":{"amenity":"parcel_locker","parcel_mail_in":"yes","parcel_pickup":"yes","addr:full":"бул. Владимир Вазов № 4","addr:city":"София","addr:state":"София-град","addr:postcode":"1505","addr:country":"BG","name":"easybox 1168 ОМВ София Вазов","opening_hours":"Mo-Su 00:00-24:00","image":"https://sameday.bg/locker/image/12484/small","brand":"easybox","brand:wikidata":"Q114496224","operator:wikidata":"Q114417096"},"coordinates":[42.701833,23.351239]},"tags_mismatch":false,"dist":0},{"osm":false,"atp":{"id":"kOMNshUdmNs4gBBSBrfBXJD9GDA=","tags":{"amenity":"parcel_locker","parcel_mail_in":"yes","parcel_pickup":"yes","addr:full":"бул. Пещерско шосе 36","addr:city":"Пловдив","addr:state":"Пловдив","addr:postcode":"4000","addr:country":"BG","name":"easybox 4052 Кауфланд Пловдив Хр. Смирненски","opening_hours":"Mo-Su 07:00-22:00","image":"https://sameday.bg/locker/image/12486/small","brand":"easybox","brand:wikidata":"Q114496224","operator:wikidata":"Q114417096"},"coordinates":[42.140237,24.724372]},"tags_mismatch":false,"dist":0},{"osm":false,"atp":{"id":"0lAvwGtd7QfsXU-jIcMLmTUbqec=","tags":{"amenity":"parcel_locker","parcel_mail_in":"yes","parcel_pickup":"yes","addr:full":"ул. Димитър Стоилов 1","addr:city":"Асеновград","addr:state":"Пловдив","addr:postcode":"4230","addr:country":"BG","name":"easybox 4051 Кауфланд Асеновград","opening_hours":"Mo-Su 07:00-21:00","image":"https://sameday.bg/locker/image/12489/small","brand":"easybox","brand:wikidata":"Q114496224","operator:wikidata":"Q114417096"},"coordinates":[42.019506,24.860647]},"tags_mismatch":false,"dist":0},{"osm":false,"atp":{"id":"w97qR-yLpgFs3KcrJ5ast0KwLGg=","tags":{"amenity":"parcel_locker","parcel_mail_in":"yes","parcel_pickup":"yes","addr:full":"бул. Цариградско шосе 115Л паркинг ниво -3 до магазин Маргел","addr:city":"София","addr:state":"София-град","addr:postcode":"1784","addr:country":"BG","name":"easybox 1166 Европейски Търговски Център София","opening_hours":"Mo-Su 00:00-24:00","image":"https://sameday.bg/locker/image/12496/small","brand":"easybox","brand:wikidata":"Q114496224","operator:wikidata":"Q114417096"},"coordinates":[42.66042,23.383795]},"tags_mismatch":false,"dist":0},{"osm":false,"atp":{"id":"NNCGtcmpRd3uQ7pO_uRv_YcnZZo=","tags":{"amenity":"parcel_locker","parcel_mail_in":"yes","parcel_pickup":"yes","addr:full":"ул.Транспортна 31","addr:city":"Бургас","addr:state":"Бургас","addr:postcode":"8125","addr:country":"BG","name":"easybox 8025 Бургас Плаза Мол","opening_hours":"Mo-Su 00:00-24:00","image":"https://sameday.bg/locker/image/12498/small","brand":"easybox","brand:wikidata":"Q114496224","operator:wikidata":"Q114417096"},"coordinates":[42.530863,27.457394]},"tags_mismatch":false,"dist":0},{"osm":false,"atp":{"id":"txLwJ1-wvj57uGJwfd3POqftqfw=","tags":{"amenity":"parcel_locker","parcel_mail_in":"yes","parcel_pickup":"yes","addr:full":"ул. Сан Стефано 22 ниво -1 срещу Билла","addr:city":"София","addr:state":"София-град","addr:postcode":"1504","addr:country":"BG","name":"easybox 1165 Сан Стефано Плаза София","opening_hours":"Mo-Su 10:00-22:00","image":"https://sameday.bg/locker/image/12500/small","brand":"easybox","brand:wikidata":"Q114496224","operator:wikidata":"Q114417096"},"coordinates":[42.692039,23.337768]},"tags_mismatch":false,"dist":0},{"osm":false,"atp":{"id":"cHmeB5pXk_gTvkd-VlpmZEviECo=","tags":{"amenity":"parcel_locker","parcel_mail_in":"yes","parcel_pickup":"yes","addr:full":"бул. Симеоновско шосе 35","addr:city":"София","addr:state":"София-град","addr:postcode":"1700","addr:country":"BG","name":"easybox 1164 Спорт Бокс София","opening_hours":"Mo-Su 10:30-19:30","image":"https://sameday.bg/locker/image/12504/small","brand":"easybox","brand:wikidata":"Q114496224","operator:wikidata":"Q114417096"},"coordinates":[42.652986,23.336425]},"tags_mismatch":false,"dist":0},{"osm":false,"atp":{"id":"g7hpY0jo9nzta1nzYwUMJB5CMUM=","tags":{"amenity":"parcel_locker","parcel_mail_in":"yes","parcel_pickup":"yes","addr:full":"бул. „Андрей Сахаров“ 14","addr:city":"София","addr:state":"София-град","addr:postcode":"1784","addr:country":"BG","name":"easybox 1163 Метропол Младост 1 София","opening_hours":"Mo-Su 09:00-21:00","image":"https://sameday.bg/locker/image/12506/small","brand":"easybox","brand:wikidata":"Q114496224","operator:wikidata":"Q114417096"},"coordinates":[42.65346,23.37308]},"tags_mismatch":false,"dist":0},{"osm":false,"atp":{"id":"YsdqTHs5hMq-7SWsFEmrjW4kpcc=","tags":{"amenity":"parcel_locker","parcel_mail_in":"yes","parcel_pickup":"yes","addr:full":"Бул България 109 вход от страната на паркинга","addr:city":"София","addr:state":"София-град","addr:postcode":"1404","addr:country":"BG","name":"easybox 1162 Вертиго София","opening_hours":"Mo-Su 08:00-19:00","image":"https://sameday.bg/locker/image/12508/small","brand":"easybox","brand:wikidata":"Q114496224","operator:wikidata":"Q114417096"},"coordinates":[42.657031,23.285649]},"tags_mismatch":false,"dist":0},{"osm":false,"atp":{"id":"3S1O-qPeSnHwQwtgD-fLpBrY294=","tags":{"amenity":"parcel_locker","parcel_mail_in":"yes","parcel_pickup":"yes","addr:full":"ул. Цар Калоян 23","addr:city":"Бургас","addr:state":"Бургас","addr:postcode":"8000","addr:country":"BG","name":"easybox 8024 Болеро Краснодар Бургас","opening_hours":"Mo-Su 07:00-22:00","image":"https://sameday.bg/locker/image/12510/small","brand":"easybox","brand:wikidata":"Q114496224","operator:wikidata":"Q114417096"},"coordinates":[42.493287,27.464163]},"tags_mismatch":false,"dist":0},{"osm":false,"atp":{"id":"Vml8d1taEOT_BH1SU_2p3OOR3Ws=","tags":{"amenity":"parcel_locker","parcel_mail_in":"yes","parcel_pickup":"yes","addr:full":"бул. „Президент Линкълн“ 94A вход от страната на паркинга ет.2","addr:city":"София","addr:state":"София-град","addr:postcode":"1632","addr:country":"BG","name":"easybox 1161 Търговски Център Овча Купел","opening_hours":"Mo-Sa 10:00-19:30; Su 10:00-18:00","image":"https://sameday.bg/locker/image/12512/small","brand":"easybox","brand:wikidata":"Q114496224","operator:wikidata":"Q114417096"},"coordinates":[42.690114,23.254108]},"tags_mismatch":false,"dist":0},{"osm":false,"atp":{"id":"PJ8NGkmlJZd2fwRq_5Qc5hn-ufQ=","tags":{"amenity":"parcel_locker","parcel_mail_in":"yes","parcel_pickup":"yes","addr:full":"Бизнес Парк София, Сграда 11А, от лявата страна на магазин DM","addr:city":"София","addr:state":"София-град","addr:postcode":"1715","addr:country":"BG","name":"easybox 1160 Бизнес Парк София Сграда 11А","opening_hours":"Mo-Su 00:00-24:00","image":"https://sameday.bg/locker/image/12514/small","brand":"easybox","brand:wikidata":"Q114496224","operator:wikidata":"Q114417096"},"coordinates":[42.626681,23.37614]},"tags_mismatch":false,"dist":0},{"osm":false,"atp":{"id":"gHwo2tK4SK3mzHbWLPF477lQZG0=","tags":{"amenity":"parcel_locker","parcel_mail_in":"yes","parcel_pickup":"yes","addr:full":"бул. Ситняково 23, до 23-то училище","addr:city":"София","addr:state":"София-град","addr:postcode":"1505","addr:country":"BG","name":"easybox 1159 Център Ситняково","opening_hours":"Mo-Su 00:00-24:00","image":"https://sameday.bg/locker/image/12516/small","brand":"easybox","brand:wikidata":"Q114496224","operator:wikidata":"Q114417096"},"coordinates":[42.694679,23.355575]},"tags_mismatch":false,"dist":0},{"osm":false,"atp":{"id":"sNv4ql_sC381dR_uAcrE6c8OL_c=","tags":{"amenity":"parcel_locker","parcel_mail_in":"yes","parcel_pickup":"yes","addr:full":"бул. Черни връх 47 административна сграда ПАРТЕР, зад рецепция","addr:city":"София","addr:state":"София-град","addr:postcode":"1407","addr:country":"BG","name":"easybox 1158 Бизнес Център Витоша","opening_hours":"Mo-Su 09:00-21:00","image":"https://sameday.bg/locker/image/12519/small","brand":"easybox","brand:wikidata":"Q114496224","operator:wikidata":"Q114417096"},"coordinates":[42.66165,23.317635]},"tags_mismatch":false,"dist":0},{"osm":false,"atp":{"id":"H1dNHs57y4xKZ_TUVHf4xj1MqK0=","tags":{"amenity":"parcel_locker","parcel_mail_in":"yes","parcel_pickup":"yes","addr:full":"Младост 4 Бл. 438 вх. Б","addr:city":"София","addr:state":"София-град","addr:postcode":"1715","addr:country":"BG","name":"easybox 1157 бл.438 вх.Б Младост 4","opening_hours":"Mo-Su 00:00-24:00","image":"https://sameday.bg/locker/image/12521/small","brand":"easybox","brand:wikidata":"Q114496224","operator:wikidata":"Q114417096"},"coordinates":[42.631747,23.374584]},"tags_mismatch":false,"dist":0},{"osm":false,"atp":{"id":"9ecazULhS0Bfkrc-Mp-qrt4JkDM=","tags":{"amenity":"parcel_locker","parcel_mail_in":"yes","parcel_pickup":"yes","addr:full":"бул. „Цар Борис III“ 375","addr:city":"София","addr:state":"София-град","addr:postcode":"1619","addr:country":"BG","name":"easybox 1156 Читалище Братя Миладинови","opening_hours":"Mo-Su 00:00-24:00","image":"https://sameday.bg/locker/image/12523/small","brand":"easybox","brand:wikidata":"Q114496224","operator:wikidata":"Q114417096"},"coordinates":[42.658502,23.239859]},"tags_mismatch":false,"dist":0},{"osm":false,"atp":{"id":"N-FIstVOrqFJGzCyZv1WMlVJjwU=","tags":{"amenity":"parcel_locker","parcel_mail_in":"yes","parcel_pickup":"yes","addr:full":"бул. БРАТЯ БЪКСТОН 40, до ресторанта","addr:city":"София","addr:state":"София-град","addr:postcode":"1618","addr:country":"BG","name":"easybox 1155 Интрансмаш Инженеринг","opening_hours":"Mo-Sa 09:00-21:00; Su 00:00-24:00","image":"https://sameday.bg/locker/image/12525/small","brand":"easybox","brand:wikidata":"Q114496224","operator:wikidata":"Q114417096"},"coordinates":[42.665829,23.274915]},"tags_mismatch":false,"dist":0},{"osm":false,"atp":{"id":"JDwOtRIS5p2ZkBwLoPhUk3nwwno=","tags":{"amenity":"parcel_locker","parcel_mail_in":"yes","parcel_pickup":"yes","addr:full":"ул. Партений Нишавски 10, до рецепция","addr:city":"София","addr:state":"София-град","addr:postcode":"1303","addr:country":"BG","name":"easybox 1154 БЦ Блу Палас","opening_hours":"Mo-Fr 08:00-21:00; Sa-Su 09:00-20:00","image":"https://sameday.bg/locker/image/12527/small","brand":"easybox","brand:wikidata":"Q114496224","operator:wikidata":"Q114417096"},"coordinates":[42.697095,23.305152]},"tags_mismatch":false,"dist":0},{"osm":false,"atp":{"id":"PlF4gvBYQZnviQxaPqJc57fYkq8=","tags":{"amenity":"parcel_locker","parcel_mail_in":"yes","parcel_pickup":"yes","addr:full":"ул. Коста Лулчев 52, ниво партер","addr:city":"София","addr:state":"София-град","addr:postcode":"1574","addr:country":"BG","name":"easybox 1153 Скай Сити Център","opening_hours":"Mo-Su 10:00-21:00","image":"https://sameday.bg/locker/image/12529/small","brand":"easybox","brand:wikidata":"Q114496224","operator:wikidata":"Q114417096"},"coordinates":[42.679728,23.367271]},"tags_mismatch":false,"dist":0},{"osm":false,"atp":{"id":"9CoL7NWtaTQrdsChVJMlTWzXmM8=","tags":{"amenity":"parcel_locker","parcel_mail_in":"yes","parcel_pickup":"yes","addr:full":"ул. Софроний Врачански 18, във входа","addr:city":"Варна","addr:state":"Варна","addr:postcode":"9000","addr:country":"BG","name":"easybox 9047 КООП Варна Централен офис","opening_hours":"Mo-Fr 06:30-19:00; Sa-Su 08:00-19:00","image":"https://sameday.bg/locker/image/12533/small","brand":"easybox","brand:wikidata":"Q114496224","operator:wikidata":"Q114417096"},"coordinates":[43.199795,27.913654]},"tags_mismatch":false,"dist":0},{"osm":false,"atp":{"id":"r022PkI9kHzMvNN-n7yWHlVcgKk=","tags":{"amenity":"parcel_locker","parcel_mail_in":"yes","parcel_pickup":"yes","addr:full":"ул. Ради Радев 18","addr:city":"София","addr:state":"София-град","addr:postcode":"1700","addr:country":"BG","name":"easybox 1152 Р.М. Мениджмънт","opening_hours":"Mo-Su 00:00-24:00","image":"https://sameday.bg/locker/image/12535/small","brand":"easybox","brand:wikidata":"Q114496224","operator:wikidata":"Q114417096"},"coordinates":[42.653247,23.329461]},"tags_mismatch":false,"dist":0},{"osm":false,"atp":{"id":"YXECWQcxKhsQ6JTmU2MaA9l7K-Y=","tags":{"amenity":"parcel_locker","parcel_mail_in":"yes","parcel_pickup":"yes","addr:full":"ж.к. Изгрев бл. 101, на входа на магазина","addr:city":"Бургас","addr:state":"Бургас","addr:postcode":"8008","addr:country":"BG","name":"easybox 8023 Болеро Бургас Изгрев","opening_hours":"Mo-Sa 07:00-22:00; Su 00:00-22:00","image":"https://sameday.bg/locker/image/12538/small","brand":"easybox","brand:wikidata":"Q114496224","operator:wikidata":"Q114417096"},"coordinates":[42.524786,27.464779]},"tags_mismatch":false,"dist":0},{"osm":false,"atp":{"id":"3_YoupleB7e726KMyLU0hEwQ57g=","tags":{"amenity":"parcel_locker","parcel_mail_in":"yes","parcel_pickup":"yes","addr:full":"бул. Сюрен 29","addr:city":"Търговище","addr:state":"Търговище","addr:postcode":"7702","addr:country":"BG","name":"easybox 7706 Ритейл парк Търговище","opening_hours":"Mo-Sa 08:00-21:00; Su 00:00-24:00","image":"https://sameday.bg/locker/image/12540/small","brand":"easybox","brand:wikidata":"Q114496224","operator:wikidata":"Q114417096"},"coordinates":[43.241802,26.55801]},"tags_mismatch":false,"dist":0},{"osm":false,"atp":{"id":"TnTAFGpCHzKEaY7Updz36Dq-9WU=","tags":{"amenity":"parcel_locker","parcel_mail_in":"yes","parcel_pickup":"yes","addr:full":"ул. Кукуряк 3","addr:city":"София","addr:state":"София-град","addr:postcode":"1618","addr:country":"BG","name":"easybox 1151 Кауфланд София Овча Купел","opening_hours":"Mo-Su 00:00-24:00","image":"https://sameday.bg/locker/image/12543/small","brand":"easybox","brand:wikidata":"Q114496224","operator:wikidata":"Q114417096"},"coordinates":[42.683231,23.2674]},"tags_mismatch":false,"dist":0},{"osm":false,"atp":{"id":"JEdcTGnEEC4HcqF7YJDiSePvkwE=","tags":{"amenity":"parcel_locker","parcel_mail_in":"yes","parcel_pickup":"yes","addr:full":"бул. Александър Малинов 75, на изхода на магазин ХИТ","addr:city":"София","addr:state":"София-град","addr:postcode":"1712","addr:country":"BG","name":"easybox 1150 Хит Макс Младост","opening_hours":"Mo-Su 08:00-22:00","image":"https://sameday.bg/locker/image/12545/small","brand":"easybox","brand:wikidata":"Q114496224","operator:wikidata":"Q114417096"},"coordinates":[42.638146,23.372201]},"tags_mismatch":false,"dist":0},{"osm":false,"atp":{"id":"rYiit0nTnsr1RHmXgaQqFBeAVKY=","tags":{"amenity":"parcel_locker","parcel_mail_in":"yes","parcel_pickup":"yes","addr:full":"ул. „Обелско шосе“ 20, на изхода на магазин ХИТ след касите","addr:city":"София","addr:state":"София-град","addr:postcode":"1360","addr:country":"BG","name":"easybox 1148 Хит Макс Модерно Предградие","opening_hours":"Mo-Sa 08:00-22:00; Su 08:00-24:00","image":"https://sameday.bg/locker/image/12549/small","brand":"easybox","brand:wikidata":"Q114496224","operator:wikidata":"Q114417096"},"coordinates":[42.730915,23.268041]},"tags_mismatch":false,"dist":0},{"osm":false,"atp":{"id":"rfS__FRIASyApus5lamyXEmj9F0=","tags":{"amenity":"parcel_locker","parcel_mail_in":"yes","parcel_pickup":"yes","addr:full":"бул. История славянобългарска 21, до магазин Хиполенд","addr:city":"София","addr:state":"София-град","addr:postcode":"1220","addr:country":"BG","name":"easybox 1147 Ритейл Парк Средец","opening_hours":"Mo-Su 09:00-21:00","image":"https://sameday.bg/locker/image/12551/small","brand":"easybox","brand:wikidata":"Q114496224","operator:wikidata":"Q114417096"},"coordinates":[42.718228,23.314514]},"tags_mismatch":false,"dist":0},{"osm":false,"atp":{"id":"xtCnm552oBnq9pyORfJBbByqU-U=","tags":{"amenity":"parcel_locker","parcel_mail_in":"yes","parcel_pickup":"yes","addr:full":"ул. д-р Стоян Чомаков 20 в магазина","addr:city":"София","addr:state":"София-град","addr:postcode":"1750","addr:country":"BG","name":"easybox 1146 Бакалия  Младост 1","opening_hours":"Mo-Su 08:00-22:00","image":"https://sameday.bg/locker/image/12554/small","brand":"easybox","brand:wikidata":"Q114496224","operator:wikidata":"Q114417096"},"coordinates":[42.660307,23.374446]},"tags_mismatch":false,"dist":0},{"osm":false,"atp":{"id":"JHUBXMs2t56izgU2TRo4Ph9tOyg=","tags":{"amenity":"parcel_locker","parcel_mail_in":"yes","parcel_pickup":"yes","addr:full":"Банкя ул.Александър Стамболийски 30 в магазина","addr:city":"Банкя","addr:state":"София-град","addr:postcode":"1320","addr:country":"BG","name":"easybox 1226 Бакалия Банкя","opening_hours":"Mo-Su 00:00-24:00","image":"https://sameday.bg/locker/image/12558/small","brand":"easybox","brand:wikidata":"Q114496224","operator:wikidata":"Q114417096"},"coordinates":[42.710145,23.140432]},"tags_mismatch":false,"dist":0},{"osm":false,"atp":{"id":"LCD6DI_PTosL_Shu9RBCcyxTZ-s=","tags":{"amenity":"parcel_locker","parcel_mail_in":"yes","parcel_pickup":"yes","addr:full":"Жк . Люлин 7, с/у бл.702","addr:city":"София","addr:state":"София-град","addr:postcode":"1324","addr:country":"BG","name":"easybox 1144 Бакалия  Люлин 7","opening_hours":"Mo-Su 00:00-24:00","image":"https://sameday.bg/locker/image/12560/small","brand":"easybox","brand:wikidata":"Q114496224","operator:wikidata":"Q114417096"},"coordinates":[42.711786,23.266778]},"tags_mismatch":false,"dist":0},{"osm":false,"atp":{"id":"EloqRNrdFyNc0CHLv4HZ-ehhLAw=","tags":{"amenity":"parcel_locker","parcel_mail_in":"yes","parcel_pickup":"yes","addr:full":"ул. Лъчезар Станчев 5","addr:city":"София","addr:state":"София-град","addr:postcode":"1797","addr:country":"BG","name":"easybox 1143 Софарма Бизнес Тауърс","opening_hours":"Mo-Su 00:00-24:00","image":"https://sameday.bg/locker/image/12563/small","brand":"easybox","brand:wikidata":"Q114496224","operator:wikidata":"Q114417096"},"coordinates":[42.666471,23.356987]},"tags_mismatch":false,"dist":0},{"osm":false,"atp":{"id":"Y5TSWbgBHr6q02auFp4G-NyTps4=","tags":{"amenity":"parcel_locker","parcel_mail_in":"yes","parcel_pickup":"yes","addr:full":"ул. Илия Бешков 12 ляво от входа на outlet MANIA","addr:city":"София","addr:state":"София-град","addr:postcode":"1592","addr:country":"BG","name":"easybox 1142 Мания Офис1 Илия Бешков","opening_hours":"Mo-Su 00:00-24:00","image":"https://sameday.bg/locker/image/12565/small","brand":"easybox","brand:wikidata":"Q114496224","operator:wikidata":"Q114417096"},"coordinates":[42.65733,23.401162]},"tags_mismatch":false,"dist":0},{"osm":false,"atp":{"id":"DyMM1JdyDobi9SRnFHHjJBUt5_k=","tags":{"amenity":"parcel_locker","parcel_mail_in":"yes","parcel_pickup":"yes","addr:full":"ул. Гладстон 1","addr:city":"Пловдив","addr:state":"Пловдив","addr:postcode":"4000","addr:country":"BG","name":"easybox 4050 Дом на Науката и Техниката","opening_hours":"Mo-Su 00:00-24:00","image":"https://sameday.bg/locker/image/12567/small","brand":"easybox","brand:wikidata":"Q114496224","operator:wikidata":"Q114417096"},"coordinates":[42.142659,24.745332]},"tags_mismatch":false,"dist":0},{"osm":false,"atp":{"id":"fIOvdzhbEcFADtyXXowfsZVzDW8=","tags":{"amenity":"parcel_locker","parcel_mail_in":"yes","parcel_pickup":"yes","addr:full":"ул. Акад. Андрей Сахаров 2, ниво -1, над хранителния магазин","addr:city":"Варна","addr:state":"Варна","addr:postcode":"9000","addr:country":"BG","name":"easybox 9046 Гранд Мол Варна","opening_hours":"Mo-Su 10:00-22:00","image":"https://sameday.bg/locker/image/12569/small","brand":"easybox","brand:wikidata":"Q114496224","operator:wikidata":"Q114417096"},"coordinates":[43.217948,27.898333]},"tags_mismatch":false,"dist":0},{"osm":false,"atp":{"id":"TaV4mPWLP4VOoLzgmiQCxRvRydo=","tags":{"amenity":"parcel_locker","parcel_mail_in":"yes","parcel_pickup":"yes","addr:full":"бул. 2ри Юни 165, офис на Изипей","addr:city":"Враца","addr:state":"Враца","addr:postcode":"3001","addr:country":"BG","name":"easybox 3004 Враца 2ри Юни","opening_hours":"Mo-Su 00:00-24:00","image":"https://sameday.bg/locker/image/12575/small","brand":"easybox","brand:wikidata":"Q114496224","operator:wikidata":"Q114417096"},"coordinates":[43.195107,23.567764]},"tags_mismatch":false,"dist":0},{"osm":false,"atp":{"id":"bDzh9w-CpfmKcaQouqERmRxfb5U=","tags":{"amenity":"parcel_locker","parcel_mail_in":"yes","parcel_pickup":"yes","addr:full":"пл. Кракра Пернишки № 1, до рецепцията","addr:city":"Перник","addr:state":"Перник","addr:postcode":"2300","addr:country":"BG","name":"easybox 2317 Хотел Струма Перник","opening_hours":"Mo-Su 00:00-24:00","image":"https://sameday.bg/locker/image/12577/small","brand":"easybox","brand:wikidata":"Q114496224","operator:wikidata":"Q114417096"},"coordinates":[42.604934,23.031372]},"tags_mismatch":false,"dist":0},{"osm":false,"atp":{"id":"81ZkeR55OpjTZf2SiWBEDkl4biQ=","tags":{"amenity":"parcel_locker","parcel_mail_in":"yes","parcel_pickup":"yes","addr:full":"бул. св. Климент Охридски 18, Супермаркет Рекорд","addr:city":"София","addr:state":"София-град","addr:postcode":"1700","addr:country":"BG","name":"easybox 1141 магазин Рекорд","opening_hours":"Mo-Su 07:00-22:00","image":"https://sameday.bg/locker/image/12579/small","brand":"easybox","brand:wikidata":"Q114496224","operator:wikidata":"Q114417096"},"coordinates":[42.646816,23.354334]},"tags_mismatch":false,"dist":0},{"osm":false,"atp":{"id":"2IfvleYwil4x0GDUb0OUQKz__Bw=","tags":{"amenity":"parcel_locker","parcel_mail_in":"yes","parcel_pickup":"yes","addr:full":"ул. Търговска","addr:city":"Ловеч","addr:state":"Ловеч","addr:postcode":"5500","addr:country":"BG","name":"easybox 5505 Сити Център Ловеч","opening_hours":"Mo-Su 08:00-22:00","image":"https://sameday.bg/locker/image/12581/small","brand":"easybox","brand:wikidata":"Q114496224","operator:wikidata":"Q114417096"},"coordinates":[43.13635,24.717274]},"tags_mismatch":false,"dist":0},{"osm":false,"atp":{"id":"JUisGLzXhqwi7kPPZaX9wg8F5NQ=","tags":{"amenity":"parcel_locker","parcel_mail_in":"yes","parcel_pickup":"yes","addr:full":"ул. Оборище 18, паркинг долна част","addr:city":"Велико Търново","addr:state":"Велико Търново","addr:postcode":"5000","addr:country":"BG","name":"easybox 5013 Мол Велико Търново","opening_hours":"Mo-Su 10:00-21:00","image":"https://sameday.bg/locker/image/12583/small","brand":"easybox","brand:wikidata":"Q114496224","operator:wikidata":"Q114417096"},"coordinates":[43.078958,25.600133]},"tags_mismatch":false,"dist":0},{"osm":false,"atp":{"id":"TwDxxu9231hPAAI_QBD7iNH4CeQ=","tags":{"amenity":"parcel_locker","parcel_mail_in":"yes","parcel_pickup":"yes","addr:full":"бул. Панчо Владигеров 28","addr:city":"София","addr:state":"София-град","addr:postcode":"1000","addr:country":"BG","name":"easybox 1140 Люлин Трейд Пропъртис","opening_hours":"Mo-Su 00:00-24:00","image":"https://sameday.bg/locker/image/12585/small","brand":"easybox","brand:wikidata":"Q114496224","operator:wikidata":"Q114417096"},"coordinates":[42.713313,23.248146]},"tags_mismatch":false,"dist":0},{"osm":false,"atp":{"id":"LD81yiV4MeNiWX9dkmqYRFPMs8M=","tags":{"amenity":"parcel_locker","parcel_mail_in":"yes","parcel_pickup":"yes","addr:full":"ул. Добри Чинтулов 35","addr:city":"Поморие","addr:state":"Бургас","addr:postcode":"8200","addr:country":"BG","name":"easybox 8022 Болеро Поморие","opening_hours":"Mo-Su 00:00-24:00","image":"https://sameday.bg/locker/image/12587/small","brand":"easybox","brand:wikidata":"Q114496224","operator:wikidata":"Q114417096"},"coordinates":[42.570265,27.61295]},"tags_mismatch":false,"dist":0},{"osm":false,"atp":{"id":"eZpbjui_IKE2jvaOP60T2okxMr0=","tags":{"amenity":"parcel_locker","parcel_mail_in":"yes","parcel_pickup":"yes","addr:full":"бул. Васил Априлов 40 партер срещу хранителен магазин","addr:city":"Габрово","addr:state":"Габрово","addr:postcode":"5300","addr:country":"BG","name":"easybox 5309 Мол Габрово","opening_hours":"Mo-Su 09:00-20:00","image":"https://sameday.bg/locker/image/12589/small","brand":"easybox","brand:wikidata":"Q114496224","operator:wikidata":"Q114417096"},"coordinates":[42.867716,25.316982]},"tags_mismatch":false,"dist":0},{"osm":false,"atp":{"id":"KPysQcF8iRw964aDMyI6sb7nGXk=","tags":{"amenity":"parcel_locker","parcel_mail_in":"yes","parcel_pickup":"yes","addr:full":"ул. Ломско шосе 26","addr:city":"Костинброд","addr:state":"София","addr:postcode":"2230","addr:country":"BG","name":"easybox 2012 ТЦ Резонанс Костинброд","opening_hours":"Mo-Su 00:00-24:00","image":"https://sameday.bg/locker/image/12591/small","brand":"easybox","brand:wikidata":"Q114496224","operator:wikidata":"Q114417096"},"coordinates":[42.810069,23.217392]},"tags_mismatch":false,"dist":0},{"osm":false,"atp":{"id":"vHbT1gXf4P0N2t1ksgKGw2owTp4=","tags":{"amenity":"parcel_locker","parcel_mail_in":"yes","parcel_pickup":"yes","addr:full":"ул.Кракра 73","addr:city":"Перник","addr:state":"Перник","addr:postcode":"2300","addr:country":"BG","name":"easybox 2316 Гризли 1","opening_hours":"Mo-Su 08:00-22:00","image":"https://sameday.bg/locker/image/12593/small","brand":"easybox","brand:wikidata":"Q114496224","operator:wikidata":"Q114417096"},"coordinates":[42.596328,23.023158]},"tags_mismatch":false,"dist":0},{"osm":false,"atp":{"id":"68ne-ESw13Zb1UU3mhxsCITR0UE=","tags":{"amenity":"parcel_locker","parcel_mail_in":"yes","parcel_pickup":"yes","addr:full":"ул. Одрин срещу № 63 Магазин до игрището","addr:city":"Перник","addr:state":"Перник","addr:postcode":"2301","addr:country":"BG","name":"easybox 2315 Гризли 2","opening_hours":"Mo-Su 08:00-22:00","image":"https://sameday.bg/locker/image/12595/small","brand":"easybox","brand:wikidata":"Q114496224","operator:wikidata":"Q114417096"},"coordinates":[42.61653,23.039811]},"tags_mismatch":false,"dist":0},{"osm":false,"atp":{"id":"BcBRLD328wZZ0_K6U1_vreIz0MY=","tags":{"amenity":"parcel_locker","parcel_mail_in":"yes","parcel_pickup":"yes","addr:full":"ул. Каменица 2Б","addr:city":"София","addr:state":"София-град","addr:postcode":"1614","addr:country":"BG","name":"easybox 1139 Нон Стоп Горна Баня","opening_hours":"Mo-Su 00:00-24:00","image":"https://sameday.bg/locker/image/12597/small","brand":"easybox","brand:wikidata":"Q114496224","operator:wikidata":"Q114417096"},"coordinates":[42.67754,23.235722]},"tags_mismatch":false,"dist":0},{"osm":false,"atp":{"id":"Wl-1sQ_TAyt3WdjOxKVgT9YNHMA=","tags":{"amenity":"parcel_locker","parcel_mail_in":"yes","parcel_pickup":"yes","addr:full":"ул. Света Ирина 1","addr:city":"Варна","addr:state":"Варна","addr:postcode":"9010","addr:country":"BG","name":"easybox 9045 ОМВ Варна Св. Ирина","opening_hours":"Mo-Su 00:00-24:00","image":"https://sameday.bg/locker/image/12599/small","brand":"easybox","brand:wikidata":"Q114496224","operator:wikidata":"Q114417096"},"coordinates":[43.219508,27.927155]},"tags_mismatch":false,"dist":0},{"osm":false,"atp":{"id":"8cpY-1KjQv3yWF4U-yM3QGkJP3E=","tags":{"amenity":"parcel_locker","parcel_mail_in":"yes","parcel_pickup":"yes","addr:full":"бул. Сливница 184","addr:city":"Варна","addr:state":"Варна","addr:postcode":"9027","addr:country":"BG","name":"easybox 9044 ОМВ Варна Сливница","opening_hours":"Mo-Su 00:00-24:00","image":"https://sameday.bg/locker/image/12601/small","brand":"easybox","brand:wikidata":"Q114496224","operator:wikidata":"Q114417096"},"coordinates":[43.228422,27.877405]},"tags_mismatch":false,"dist":0},{"osm":false,"atp":{"id":"dE922HiTlO2jAD4FyIoxm9ZxS2A=","tags":{"amenity":"parcel_locker","parcel_mail_in":"yes","parcel_pickup":"yes","addr:full":"бул. Владислав Варненчик 158А","addr:city":"Варна","addr:state":"Варна","addr:postcode":"9009","addr:country":"BG","name":"easybox 9043 ОМВ Варна Варненчик","opening_hours":"Mo-Su 00:00-24:00","image":"https://sameday.bg/locker/image/12603/small","brand":"easybox","brand:wikidata":"Q114496224","operator:wikidata":"Q114417096"},"coordinates":[43.215929,27.896515]},"tags_mismatch":false,"dist":0},{"osm":false,"atp":{"id":"FCGIRYifezJjB7HlFytCQdV-Gkg=","tags":{"amenity":"parcel_locker","parcel_mail_in":"yes","parcel_pickup":"yes","addr:full":"бул. Христо Смирненски 45","addr:city":"Варна","addr:state":"Варна","addr:postcode":"9009","addr:country":"BG","name":"easybox 9042 ОМВ Варна Смирненски","opening_hours":"Mo-Su 00:00-24:00","image":"https://sameday.bg/locker/image/12605/small","brand":"easybox","brand:wikidata":"Q114496224","operator:wikidata":"Q114417096"},"coordinates":[43.228395,27.90289]},"tags_mismatch":false,"dist":0},