{"metadata":{"type":"brand","wikidata":"Q114496224","name":"easybox","compare_keys":["opening_hours"]},"data":[{"osm":{"type":"node","id":10296473897,"tags":{"amenity":"parcel_locker","brand":"easybox","brand:wikidata":"Q114496224","operator:wikidata":"Q114417096"},"wikidata":"Q114496224","coordinates":[42.6897384,23.3024505]},"atp":{"id":"32Q-tagumUjMXtvpkChagxJvW9k=","tags":{"amenity":"parcel_locker","parcel_mail_in":"yes","parcel_pickup":"yes","addr:full":"бул. Ген Тотлебен 36","addr:city":"София","addr:state":"София-град","addr:postcode":"1606","addr:country":"BG","name":"easybox 1149 Кауфланд София Крива Река","opening_hours":"24/7","brand":"easybox","brand:wikidata":"Q114496224","operator:wikidata":"Q114417096"},"coordinates":[42.690221,23.302028]},"dist":63.813,"tags_mismatch":true},{"osm":{"type":"node","id":10757569187,"tags":{"amenity":"parcel_locker","brand":"easybox","brand:wikidata":"Q114496224","indoor":"yes","operator:wikidata":"Q114417096","parcel_mail_in":"yes","parcel_pickup":"yes"},"wikidata":"Q114496224","coordinates":[42.6726992,23.3233564]},"atp":{"id":"iKsH7oYpIt2kLNoI2afdUsPZK3M=","tags":{"amenity":"parcel_locker","parcel_mail_in":"yes","parcel_pickup":"yes","addr:full":"София, бул. Джеймс Баучер 51 в магазина","addr:city":"София","addr:state":"София-град","addr:postcode":"1407","addr:country":"BG","name":"easybox 1189 Офис1 София Дж. Баучер","opening_hours":"Mo-Fr 09:00-19:00; Sa 10:00-18:00; Su 10:00-17:00","brand":"easybox","brand:wikidata":"Q114496224","operator:wikidata":"Q114417096"},"coordinates":[42.672675,23.323139]},"dist":17.976,"tags_mismatch":true},{"osm":{"type":"node","id":10925898680,"tags":{"amenity":"parcel_locker","brand":"easybox","brand:wikidata":"Q114496224","operator:wikidata":"Q114417096"},"wikidata":"Q114496224","coordinates":[43.2198,23.5473819]},"atp":{"id":"1elDnJcuPHTvYL2HaFn95aHM7_o=","tags":{"amenity":"parcel_locker","parcel_mail_in":"yes","parcel_pickup":"yes","addr:full":"ул. Славянска 2, офис на Изипей","addr:city":"Враца","addr:state":"Враца","addr:postcode":"3005","addr:country":"BG","name":"easybox 3006 Враца Славянска 2","opening_hours":"Mo-Fr 09:00-19:00; Sa-Su 09:00-14:00","brand":"easybox","brand:wikidata":"Q114496224","operator:wikidata":"Q114417096"},"coordinates":[43.220238,23.546936]},"dist":60.643,"tags_mismatch":true},{"osm":{"type":"node","id":10925924680,"tags":{"amenity":"parcel_locker","brand":"easybox","brand:wikidata":"Q114496224","operator:wikidata":"Q114417096"},"wikidata":"Q114496224","coordinates":[43.2243555,23.5456621]},"atp":{"id":"uIqmauQ2-Ac3W_ia-tqe03zvNuA=","tags":{"amenity":"parcel_locker","parcel_mail_in":"yes","parcel_pickup":"yes","addr:full":"ж.к. Дъбника м/у бл. 147 и бл. 14, офис на Изипей","addr:city":"Враца","addr:state":"Враца","addr:postcode":"3005","addr:country":"BG","name":"easybox 3005 Враца Дъбника между бл. 147 и бл. 14","opening_hours":"Mo-Su 08:00-20:00","brand":"easybox","brand:wikidata":"Q114496224","operator:wikidata":"Q114417096"},"coordinates":[43.224479,23.545869]},"dist":21.671,"tags_mismatch":true},{"osm":{"type":"node","id":11168903257,"tags":{"amenity":"parcel_locker","brand":"easybox","brand:wikidata":"Q114496224","indoor":"no","operator:wikidata":"Q114417096"},"wikidata":"Q114496224","coordinates":[42.7460878,23.2293424]},"atp":{"id":"J8b8TOrQtWElid5uGnLvB6EHf6I=","tags":{"amenity":"parcel_locker","parcel_mail_in":"yes","parcel_pickup":"yes","addr:full":"бул.Европа 184","addr:city":"София","addr:state":"София-град","addr:postcode":"1331","addr:country":"BG","name":"easybox 1110 ЛУКОЙЛ София Европа","opening_hours":"24/7","brand":"easybox","brand:wikidata":"Q114496224","operator:wikidata":"Q114417096"},"coordinates":[42.745769,23.229407]},"dist":35.839,"tags_mismatch":true},{"osm":{"type":"node","id":11399869165,"tags":{"amenity":"parcel_locker","brand":"easybox","brand:wikidata":"Q114496224","operator:wikidata":"Q114417096"},"wikidata":"Q114496224","coordinates":[42.6903408,23.3155495]},"atp":{"id":"hlo9Q1D3X8pTH2JJWOJYT_2k32w=","tags":{"amenity":"parcel_locker","parcel_mail_in":"yes","parcel_pickup":"yes","addr:full":"ул. 20-ти април 13","addr:city":"София","addr:state":"София-град","addr:postcode":"1606","addr:country":"BG","name":"easybox 1079 Търговски Комплекс Руски паметник","opening_hours":"Mo-Fr 06:00-22:00; Sa-Su 08:00-22:00","brand":"easybox","brand:wikidata":"Q114496224","operator:wikidata":"Q114417096"},"coordinates":[42.692235,23.312197]},"dist":345.6,"tags_mismatch":true},{"osm":{"type":"node","id":11514002345,"tags":{"amenity":"parcel_locker","brand":"easybox","brand:wikidata":"Q114496224","operator:wikidata":"Q114417096"},"wikidata":"Q114496224","coordinates":[42.6667459,23.3700501]},"atp":{"id":"fHJkKx4XOzvM3Ws9Xxr7wSDokL4=","tags":{"amenity":"parcel_locker","parcel_mail_in":"yes","parcel_pickup":"yes","addr:full":"бул. Цариградско шосе 40","addr:city":"София","addr:state":"София-град","addr:postcode":"1750","addr:country":"BG","name":"easybox 1001 Европарк София","opening_hours":"24/7","brand":"easybox","brand:wikidata":"Q114496224","operator:wikidata":"Q114417096"},"coordinates":[42.666621,23.370212]},"dist":19.186,"tags_mismatch":true},{"osm":{"type":"node","id":11727761869,"tags":{"amenity":"parcel_locker","brand":"easybox","brand:wikidata":"Q114496224","operator:wikidata":"Q114417096"},"wikidata":"Q114496224","coordinates":[42.6614709,23.3774701]},"atp":{"id":"n0ahl4MvmTbm7cv0di7E6moDjMo=","tags":{"amenity":"parcel_locker","parcel_mail_in":"yes","parcel_pickup":"yes","addr:full":"бул. Цариградско шосе № 50, от дясно на входа","addr:city":"София","addr:state":"София-град","addr:postcode":"1113","addr:country":"BG","name":"easybox 1173 ОМВ София Цариградско","opening_hours":"24/7","brand":"easybox","brand:wikidata":"Q114496224","operator:wikidata":"Q114417096"},"coordinates":[42.661723,23.377288]},"dist":31.742,"tags_mismatch":true},{"osm":{"type":"node","id":11750601091,"tags":{"amenity":"parcel_locker","brand":"easybox","brand:wikidata":"Q114496224","operator:wikidata":"Q114417096","parcel_mail_in":"yes","parcel_pickup":"yes"},"wikidata":"Q114496224","coordinates":[42.6588367,23.3476506]},"atp":{"id":"r9Zy-AkmJsC9C5Gg6Vd21jg90oo=","tags":{"amenity":"parcel_locker","parcel_mail_in":"yes","parcel_pickup":"yes","addr:full":"бул. Г.М.Димитров 77","addr:city":"София","addr:state":"София-град","addr:postcode":"1000","addr:country":"BG","name":"easybox 1094 ФантастикоФ6 ГМДимитров","opening_hours":"24/7","brand":"easybox","brand:wikidata":"Q114496224","operator:wikidata":"Q114417096"},"coordinates":[42.658908,23.347246]},"dist":34.022,"tags_mismatch":true},{"osm":{"type":"node","id":11816523890,"tags":{"amenity":"parcel_locker","brand":"easybox","brand:wikidata":"Q114496224","operator:wikidata":"Q114417096"},"wikidata":"Q114496224","coordinates":[42.7412687,23.2763342]},"atp":{"id":"WNnf0f6s0bDi6stqYphf4CO7TgI=","tags":{"amenity":"parcel_locker","parcel_mail_in":"yes","parcel_pickup":"yes","addr:full":"ул. 275-та 28","addr:city":"София","addr:state":"София-град","addr:postcode":"1387","addr:country":"BG","name":"easybox 1023 София Обеля 1","opening_hours":"24/7","brand":"easybox","brand:wikidata":"Q114496224","operator:wikidata":"Q114417096"},"coordinates":[42.741255,23.276363]},"dist":2.802,"tags_mismatch":true},{"osm":{"type":"node","id":11816595634,"tags":{"amenity":"parcel_locker","brand":"easybox","brand:wikidata":"Q114496224","operator:wikidata":"Q114417096"},"wikidata":"Q114496224","coordinates":[42.7474064,23.2747109]},"atp":{"id":"37Yoo1OqY4uGEjjQM1tswQspxbo=","tags":{"amenity":"parcel_locker","parcel_mail_in":"yes","parcel_pickup":"yes","addr:full":"ж.к.Обеля 2 ул.104 с/у бл.233","addr:city":"София","addr:state":"София-град","addr:postcode":"1326","addr:country":"BG","name":"easybox 1145 Бакалия Обеля 2","opening_hours":"24/7","brand":"easybox","brand:wikidata":"Q114496224","operator:wikidata":"Q114417096"},"coordinates":[42.747302,23.274665]},"dist":12.199,"tags_mismatch":true},{"osm":{"type":"node","id":11825031037,"tags":{"amenity":"parcel_locker","brand":"easybox","brand:wikidata":"Q114496224","operator:wikidata":"Q114417096"},"wikidata":"Q114496224","coordinates":[42.2034838,24.3263799]},"atp":{"id":"oKnPFrlZi2FZuMWJ4DbRmm1wMe0=","tags":{"amenity":"parcel_locker","parcel_mail_in":"yes","parcel_pickup":"yes","addr:full":"ул. Петър Бонев 52","addr:city":"Пазарджик","addr:state":"Пазарджик","addr:postcode":"4400","addr:country":"BG","name":"easybox 4405 М Маркет Халето","opening_hours":"24/7","brand":"easybox","brand:wikidata":"Q114496224","operator:wikidata":"Q114417096"},"coordinates":[42.203551,24.326486]},"dist":11.498,"tags_mismatch":true},{"osm":{"type":"node","id":11830853130,"tags":{"amenity":"parcel_locker","brand":"easybox","brand:wikidata":"Q114496224","operator:wikidata":"Q114417096"},"wikidata":"Q114496224","coordinates":[42.1959565,24.3348027]},"atp":{"id":"1OSrKbMH0ZJO3uQL41ylJNkjWRg=","tags":{"amenity":"parcel_locker","parcel_mail_in":"yes","parcel_pickup":"yes","addr:full":"ул. Георги Бенковски 12","addr:city":"Пазарджик","addr:state":"Пазарджик","addr:postcode":"4202","addr:country":"BG","name":"easybox 4407 Билла Пазарджик Бенковски","opening_hours":"24/7","brand":"easybox","brand:wikidata":"Q114496224","operator:wikidata":"Q114417096"},"coordinates":[42.195887,24.33454]},"dist":22.979,"tags_mismatch":true},{"osm":{"type":"node","id":11844209928,"tags":{"amenity":"parcel_locker","brand":"easybox","brand:wikidata":"Q114496224","operator:wikidata":"Q114417096"},"wikidata":"Q114496224","coordinates":[42.6561672,23.37471]},"atp":{"id":"V3RVobavKY5Rzrf8SfzZz5d-w1Q=","tags":{"amenity":"parcel_locker","parcel_mail_in":"yes","parcel_pickup":"yes","addr:full":"ул. Йерусалим 22","addr:city":"София","addr:state":"София-град","addr:postcode":"1784","addr:country":"BG","name":"easybox 1055 Фантастико Ф42 Младост1","opening_hours":"24/7","brand":"easybox","brand:wikidata":"Q114496224","operator:wikidata":"Q114417096"},"coordinates":[42.655735,23.373861]},"dist":84.439,"tags_mismatch":true},{"osm":{"type":"node","id":11849547488,"tags":{"amenity":"parcel_locker","brand":"easybox","brand:wikidata":"Q114496224","indoor":"yes","level":"-1","operator:wikidata":"Q114417096","parcel_mail_in":"yes","parcel_pickup":"yes"},"wikidata":"Q114496224","coordinates":[42.6538406,23.3601785]},"atp":{"id":"OpZuFFKrVrMISmza8hS9SGSVoi4=","tags":{"amenity":"parcel_locker","parcel_mail_in":"yes","parcel_pickup":"yes","addr:full":"бул. Св. Климент Охридски 10","addr:city":"София","addr:state":"София-град","addr:postcode":"1000","addr:country":"BG","name":"easybox 1086 ФантастикоФ36 Дървеница","opening_hours":"24/7","brand":"easybox","brand:wikidata":"Q114496224","operator:wikidata":"Q114417096"},"coordinates":[42.653822,23.360413]},"dist":19.288,"tags_mismatch":true},{"osm":{"type":"node","id":11850669500,"tags":{"amenity":"parcel_locker","brand":"easybox","brand:wikidata":"Q114496224","operator:wikidata":"Q114417096","parcel_mail_in":"yes","parcel_pickup":"yes"},"wikidata":"Q114496224","coordinates":[42.651377,23.3798276]},"atp":{"id":"1EZsswYuvP8-3D5ixinh3qm0YDA=","tags":{"amenity":"parcel_locker","parcel_mail_in":"yes","parcel_pickup":"yes","addr:full":"бул. Александър Малинов” № 29 от дясно на входа","addr:city":"София","addr:state":"София-град","addr:postcode":"1729","addr:country":"BG","name":"easybox 1176 ОМВ София Малинов","opening_hours":"24/7","brand":"easybox","brand:wikidata":"Q114496224","operator:wikidata":"Q114417096"},"coordinates":[42.651236,23.379492]},"dist":31.609,"tags_mismatch":true},{"osm":{"type":"node","id":11863080733,"tags":{"amenity":"parcel_locker","brand":"easybox","brand:wikidata":"Q114496224","level":"0","note:opening_hours":"The entrances to the parking lot are locked when Kaufland is closed","opening_hours":"Mo-Su 07:00-22:00","operator:wikidata":"Q114417096"},"wikidata":"Q114496224","coordinates":[42.6703102,23.273899]},"atp":{"id":"2oqOwXPTzeClPnxRG4wjVpb41CM=","tags":{"amenity":"parcel_locker","parcel_mail_in":"yes","parcel_pickup":"yes","addr:full":"ул. Тодор Каблешков 3","addr:city":"София","addr:state":"София-град","addr:postcode":"1618","addr:country":"BG","name":"easybox 1003 Кауфланд София Витоша","opening_hours":"24/7","brand":"easybox","brand:wikidata":"Q114496224","operator:wikidata":"Q114417096"},"coordinates":[42.670641,23.27347]},"dist":50.825,"tags_mismatch":true},{"osm":{"type":"node","id":11874184757,"tags":{"amenity":"parcel_locker","brand":"easybox","brand:wikidata":"Q114496224","operator:wikidata":"Q114417096"},"wikidata":"Q114496224","coordinates":[42.1869909,24.34543]},"atp":false,"tags_mismatch":false},{"osm":{"type":"node","id":11901183697,"tags":{"amenity":"parcel_locker","brand":"easybox","brand:wikidata":"Q114496224","indoor":"yes","operator:wikidata":"Q114417096"},"wikidata":"Q114496224","coordinates":[42.6421762,23.3360117]},"atp":{"id":"h-zwl-v5cOpmdxlycKR7RI5QtJM=","tags":{"amenity":"parcel_locker","parcel_mail_in":"yes","parcel_pickup":"yes","addr:full":"ул. Проф. Др. Иван Странски 20 Кауфланд","addr:city":"София","addr:state":"София-град","addr:postcode":"1700","addr:country":"BG","name":"easybox 1209 Кауфланд София 20","opening_hours":"Mo-Su 07:00-22:00","brand":"easybox","brand:wikidata":"Q114496224","operator:wikidata":"Q114417096"},"coordinates":[42.641899,23.336161]},"dist":33.154,"tags_mismatch":true},{"osm":{"type":"node","id":11953950648,"tags":{"amenity":"parcel_locker","brand":"easybox","brand:wikidata":"Q114496224","operator:wikidata":"Q114417096","parcel_mail_in":"yes","parcel_pickup":"yes"},"wikidata":"Q114496224","coordinates":[42.6509421,23.357453]},"atp":{"id":"rrKLxq6kN4l_67lnFRVvl-kiiVQ=","tags":{"amenity":"parcel_locker","parcel_mail_in":"yes","parcel_pickup":"yes","addr:full":"ул. 8-ми декември № 3","addr:city":"София","addr:state":"София-град","addr:postcode":"1756","addr:country":"BG","name":"easybox 1175 ОМВ София 8декември","opening_hours":"24/7","brand":"easybox","brand:wikidata":"Q114496224","operator:wikidata":"Q114417096"},"coordinates":[42.650995,23.357596]},"dist":13.091,"tags_mismatch":true},{"osm":{"type":"node","id":11977654310,"tags":{"amenity":"parcel_locker","brand":"easybox","brand:wikidata":"Q114496224","operator:wikidata":"Q114417096","parcel_mail_in":"yes","parcel_pickup":"yes"},"wikidata":"Q114496224","coordinates":[42.6681105,23.329359]},"atp":{"id":"SefjiACichaFKFlqekULrW_MSH4=","tags":{"amenity":"parcel_locker","parcel_mail_in":"yes","parcel_pickup":"yes","addr:full":"бул. Никола Й. Вапцаров 61","addr:city":"София","addr:state":"София-град","addr:postcode":"1407","addr:country":"BG","name":"easybox 1127 EKO Вапцаров","opening_hours":"24/7","brand":"easybox","brand:wikidata":"Q114496224","operator:wikidata":"Q114417096"},"coordinates":[42.668255,23.328941]},"dist":37.765,"tags_mismatch":true},{"osm":{"type":"node","id":11981047223,"tags":{"amenity":"parcel_locker","brand":"easybox","brand:wikidata":"Q114496224","indoor":"yes","operator:wikidata":"Q114417096","parcel_mail_in":"yes","parcel_pickup":"yes"},"wikidata":"Q114496224","coordinates":[42.6478781,23.3790291]},"atp":{"id":"QEsu2FoHDWbUg-MK010cZCglPFc=","tags":{"amenity":"parcel_locker","parcel_mail_in":"yes","parcel_pickup":"yes","addr:full":"бул. Александър Малинов 35-37","addr:city":"София","addr:state":"София-град","addr:postcode":"1729","addr:country":"BG","name":"easybox 1009 Билла София Младост","opening_hours":"Mo-Su 08:00-22:00","brand":"easybox","brand:wikidata":"Q114496224","operator:wikidata":"Q114417096"},"coordinates":[42.648105,23.379013]},"dist":25.264,"tags_mismatch":true},{"osm":{"type":"node","id":12045372071,"tags":{"amenity":"parcel_locker","brand":"easybox","brand:wikidata":"Q114496224","operator:wikidata":"Q114417096","parcel_mail_in":"yes","parcel_pickup":"yes"},"wikidata":"Q114496224","coordinates":[42.6825745,23.3211823]},"atp":{"id":"QHQxeix4Q8W00abYU6XU68IRsYk=","tags":{"amenity":"parcel_locker","parcel_mail_in":"yes","parcel_pickup":"yes","addr:full":"Бул. Евлоги и Христо Георгиеви 1, подлез към Хилтън","addr:city":"София","addr:state":"София-град","addr:postcode":"1142","addr:country":"BG","name":"easybox 1212 НДК Подлез Хилтън","opening_hours":"24/7","brand":"easybox","brand:wikidata":"Q114496224","operator:wikidata":"Q114417096"},"coordinates":[42.682661,23.321185]},"dist":9.621,"tags_mismatch":true},{"osm":{"type":"node","id":12054490246,"tags":{"amenity":"parcel_locker","brand":"easybox","brand:wikidata":"Q114496224","operator:wikidata":"Q114417096","parcel_mail_in":"yes","parcel_pickup":"yes"},"wikidata":"Q114496224","coordinates":[42.6718855,23.2996283]},"atp":{"id":"CbDrqfBKd_hLy6Q1a60LcZ2atyI=","tags":{"amenity":"parcel_locker","parcel_mail_in":"yes","parcel_pickup":"yes","addr:full":"ул. Нишава 138","addr:city":"София","addr:state":"София-град","addr:postcode":"1784","addr:country":"BG","name":"easybox 1054 Фантастико Ф18 Стрелбище","opening_hours":"24/7","brand":"easybox","brand:wikidata":"Q114496224","operator:wikidata":"Q114417096"},"coordinates":[42.672154,23.299876]},"dist":36.076,"tags_mismatch":true},{"osm":{"type":"node","id":12065052368,"tags":{"amenity":"parcel_locker","brand":"easybox","brand:wikidata":"Q114496224","fixme":"verify position","operator:wikidata":"Q114417096","parcel_mail_in":"yes","parcel_pickup":"yes"},"wikidata":"Q114496224","coordinates":[42.6786239,23.3661249]},"atp":{"id":"aGQ4pex7eH55HBTtMI1Avj3tLYU=","tags":{"amenity":"parcel_locker","parcel_mail_in":"yes","parcel_pickup":"yes","addr:full":"ул. Шипченски проход 63","addr:city":"София","addr:state":"София-град","addr:postcode":"1574","addr:country":"BG","name":"easybox 1138 Електроника София","opening_hours":"24/7","brand":"easybox","brand:wikidata":"Q114496224","operator:wikidata":"Q114417096"},"coordinates":[42.678728,23.366408]},"dist":25.876,"tags_mismatch":true},{"osm":{"type":"node","id":12067674369,"tags":{"amenity":"parcel_locker","brand":"easybox","brand:wikidata":"Q114496224","indoor":"yes","operator:wikidata":"Q114417096","parcel_mail_in":"yes","parcel_pickup":"yes"},"wikidata":"Q114496224","coordinates":[42.6833292,23.2972491]},"atp":{"id":"krS2qWBGmtQgIWVqD_2u831T07s=","tags":{"amenity":"parcel_locker","parcel_mail_in":"yes","parcel_pickup":"yes","addr:full":"София ул. Софийски герой 4","addr:city":"София","addr:state":"София-град","addr:postcode":"1612","addr:country":"BG","name":"easybox 1188 Билла София Славия","opening_hours":"Mo-Su 07:30-22:00","brand":"easybox","brand:wikidata":"Q114496224","operator:wikidata":"Q114417096"},"coordinates":[42.683541,23.297165]},"dist":24.534,"tags_mismatch":true},{"osm":{"type":"node","id":12085238135,"tags":{"amenity":"parcel_locker","brand":"easybox","brand:wikidata":"Q114496224","operator:wikidata":"Q114417096","parcel_mail_in":"yes","parcel_pickup":"yes"},"wikidata":"Q114496224","coordinates":[42.6606281,23.272797]},"atp":{"id":"j9WIqGvn7WfySNa7iuL3YyfOTR0=","tags":{"amenity":"parcel_locker","parcel_mail_in":"yes","parcel_pickup":"yes","addr:full":"бул.Бъкстон","addr:city":"София","addr:state":"София-град","addr:postcode":"1000","addr:country":"BG","name":"easybox 1102 ЛУКОЙЛ София Бъкстон","opening_hours":"24/7","brand":"easybox","brand:wikidata":"Q114496224","operator:wikidata":"Q114417096"},"coordinates":[42.66072,23.27289]},"dist":12.738,"tags_mismatch":true},{"osm":{"type":"node","id":12090045795,"tags":{"amenity":"parcel_locker","brand":"easybox","brand:wikidata":"Q114496224","operator:wikidata":"Q114417096","parcel_mail_in":"yes","parcel_pickup":"yes"},"wikidata":"Q114496224","coordinates":[41.9450336,25.5556023]},"atp":{"id":"FSMpPV-qIJeShGvlbUeQpDHwRVk=","tags":{"amenity":"parcel_locker","parcel_mail_in":"yes","parcel_pickup":"yes","addr:full":"Бул. Г.С.Раковски","addr:city":"Хасково","addr:state":"Хасково","addr:postcode":"6300","addr:country":"BG","name":"easybox 6309 EKO Хасково Раковски","opening_hours":"24/7","brand":"easybox","brand:wikidata":"Q114496224","operator:wikidata":"Q114417096"},"coordinates":[41.944924,25.555538]},"dist":13.297,"tags_mismatch":true},{"osm":{"type":"node","id":12090045819,"tags":{"amenity":"parcel_locker","brand":"easybox","brand:wikidata":"Q114496224","operator:wikidata":"Q114417096","parcel_mail_in":"yes","parcel_pickup":"yes"},"wikidata":"Q114496224","coordinates":[41.9397939,25.5586272]},"atp":{"id":"UC_pq4WsmtNgJktLwUEXOY8B6k8=","tags":{"amenity":"parcel_locker","parcel_mail_in":"yes","parcel_pickup":"yes","addr:full":"ул. Дунав 17В","addr:city":"Хасково","addr:state":"Хасково","addr:postcode":"6303","addr:country":"BG","name":"easybox 6302 Ромпетрол Хасково","opening_hours":"24/7","brand":"easybox","brand:wikidata":"Q114496224","operator:wikidata":"Q114417096"},"coordinates":[41.939665,25.55886]},"dist":24.004,"tags_mismatch":true},{"osm":{"type":"node","id":12090074887,"tags":{"amenity":"parcel_locker","brand":"easybox","brand:wikidata":"Q114496224","operator:wikidata":"Q114417096","parcel_mail_in":"yes","parcel_pickup":"yes"},"wikidata":"Q114496224","coordinates":[41.9357652,25.553793]},"atp":{"id":"4vbE25cSPEu1SlAJR2kGENh6fgw=","tags":{"amenity":"parcel_locker","parcel_mail_in":"yes","parcel_pickup":"yes","addr:full":"ул. „Средна Гора“ 2","addr:city":"Хасково","addr:state":"Хасково","addr:postcode":"6300","addr:country":"BG","name":"easybox 6315 Хасково паркинг център","opening_hours":"24/7","brand":"easybox","brand:wikidata":"Q114496224","operator:wikidata":"Q114417096"},"coordinates":[41.935674,25.553736]},"dist":11.183,"tags_mismatch":true},{"osm":{"type":"node","id":12091761566,"tags":{"amenity":"parcel_locker","brand":"easybox","brand:wikidata":"Q114496224","operator:wikidata":"Q114417096","parcel_mail_in":"yes","parcel_pickup":"yes"},"wikidata":"Q114496224","coordinates":[41.922339,25.5596111]},"atp":{"id":"MSho5hwk8f4bC2XDdsYBHB5NhsE=","tags":{"amenity":"parcel_locker","parcel_mail_in":"yes","parcel_pickup":"yes","addr:full":"бул. Освобождение 51","addr:city":"Хасково","addr:state":"Хасково","addr:postcode":"6302","addr:country":"BG","name":"easybox 6318 Хасково Освобождение","opening_hours":"24/7","brand":"easybox","brand:wikidata":"Q114496224","operator:wikidata":"Q114417096"},"coordinates":[41.922382,25.559698]},"dist":8.634,"tags_mismatch":true},{"osm":{"type":"node","id":12091800273,"tags":{"amenity":"parcel_locker","brand":"easybox","brand:wikidata":"Q114496224","operator:wikidata":"Q114417096","parcel_mail_in":"yes","parcel_pickup":"yes"},"wikidata":"Q114496224","coordinates":[41.928339,25.572591]},"atp":{"id":"eI7Z0mS-CSEJ7PlZovpjX4K25CM=","tags":{"amenity":"parcel_locker","parcel_mail_in":"yes","parcel_pickup":"yes","addr:full":"бул. Васил Левски 2А","addr:city":"Хасково","addr:state":"Хасково","addr:postcode":"6300","addr:country":"BG","name":"easybox 6316 Вертикал Хасково","opening_hours":"24/7","brand":"easybox","brand:wikidata":"Q114496224","operator:wikidata":"Q114417096"},"coordinates":[41.92822,25.57269]},"dist":15.562,"tags_mismatch":true},{"osm":{"type":"node","id":12091800276,"tags":{"amenity":"parcel_locker","brand":"easybox","brand:wikidata":"Q114496224","operator:wikidata":"Q114417096","parcel_mail_in":"yes","parcel_pickup":"yes"},"wikidata":"Q114496224","coordinates":[41.9360239,25.5651709]},"atp":{"id":"JKv8OROXK7njEBwyJT_QsO_n-bQ=","tags":{"amenity":"parcel_locker","parcel_mail_in":"yes","parcel_pickup":"yes","addr:full":"бул. В. Левски","addr:city":"Хасково","addr:state":"Хасково","addr:postcode":"6300","addr:country":"BG","name":"easybox 6311 EKO Хасково Левски","opening_hours":"24/7","brand":"easybox","brand:wikidata":"Q114496224","operator:wikidata":"Q114417096"},"coordinates":[41.935904,25.565379]},"dist":21.773,"tags_mismatch":true},{"osm":{"type":"node","id":12091800278,"tags":{"amenity":"parcel_locker","brand":"easybox","brand:wikidata":"Q114496224","operator:wikidata":"Q114417096","parcel_mail_in":"yes","parcel_pickup":"yes"},"wikidata":"Q114496224","coordinates":[41.931542,25.5531344]},"atp":{"id":"VqE5Id2clDjbuBrQCg0oiKBiaMQ=","tags":{"amenity":"parcel_locker","parcel_mail_in":"yes","parcel_pickup":"yes","addr:full":"бул. България 53","addr:city":"Хасково","addr:state":"Хасково","addr:postcode":"6300","addr:country":"BG","name":"easybox 6319 Хасково България","opening_hours":"24/7","brand":"easybox","brand:wikidata":"Q114496224","operator:wikidata":"Q114417096"},"coordinates":[41.931429,25.553248]},"dist":15.69,"tags_mismatch":true},{"osm":{"type":"node","id":12100739594,"tags":{"amenity":"parcel_locker","brand":"easybox","brand:wikidata":"Q114496224","operator:wikidata":"Q114417096","parcel_mail_in":"yes","parcel_pickup":"yes","payment:contactless":"yes","payment:debit_cards":"yes"},"wikidata":"Q114496224","coordinates":[42.4279322,25.6471754]},"atp":{"id":"VUbuqjiH_1-xpD9STOz7YPNYplQ=","tags":{"amenity":"parcel_locker","parcel_mail_in":"yes","parcel_pickup":"yes","addr:full":"бул. Цар Симеон Велики 218","addr:city":"Стара Загора","addr:state":"Стара Загора","addr:postcode":"6009","addr:country":"BG","name":"easybox 6017 Билла Стара Загора","opening_hours":"Mo-Su 07:30-22:00","brand":"easybox","brand:wikidata":"Q114496224","operator:wikidata":"Q114417096"},"coordinates":[42.427957,25.647248]},"dist":6.566,"tags_mismatch":true},{"osm":{"type":"node","id":12101242344,"tags":{"amenity":"parcel_locker","brand":"easybox","brand:wikidata":"Q114496224","operator:wikidata":"Q114417096","parcel_mail_in":"yes","parcel_pickup":"yes"},"wikidata":"Q114496224","coordinates":[42.7081253,23.1455841]},"atp":{"id":"aeHECl0uPd14Fa_tVVwyqtULvd4=","tags":{"amenity":"parcel_locker","parcel_mail_in":"yes","parcel_pickup":"yes","addr:full":"ул. Александър Стамболийски 2","addr:city":"Банкя","addr:state":"София-град","addr:postcode":"1320","addr:country":"BG","name":"easybox 1223 Бурлекс Банкя","opening_hours":"24/7","brand":"easybox","brand:wikidata":"Q114496224","operator:wikidata":"Q114417096"},"coordinates":[42.708143,23.145614]},"dist":3.137,"tags_mismatch":true},{"osm":{"type":"node","id":12101332800,"tags":{"amenity":"parcel_locker","brand":"easybox","brand:wikidata":"Q114496224","operator:wikidata":"Q114417096","parcel_mail_in":"yes","parcel_pickup":"yes"},"wikidata":"Q114496224","coordinates":[42.6740894,23.2581257]},"atp":{"id":"XmpIu8TYBYFhPbrpbwXb58pNvGc=","tags":{"amenity":"parcel_locker","parcel_mail_in":"yes","parcel_pickup":"yes","addr:full":"ул. Боряна 39 (1001)","addr:city":"София","addr:state":"София-град","addr:postcode":"1618","addr:country":"BG","name":"easybox 1113 Боряна 39","opening_hours":"24/7","brand":"easybox","brand:wikidata":"Q114496224","operator:wikidata":"Q114417096"},"coordinates":[42.674073,23.258114]},"dist":2.059,"tags_mismatch":true},{"osm":{"type":"node","id":12105669606,"tags":{"amenity":"parcel_locker","brand":"easybox","brand:wikidata":"Q114496224","operator:wikidata":"Q114417096","parcel_mail_in":"yes","parcel_pickup":"yes"},"wikidata":"Q114496224","coordinates":[43.0805305,25.6304198]},"atp":{"id":"-QXWW5u3a96Q0yJP5q0jMPodr5Q=","tags":{"amenity":"parcel_locker","parcel_mail_in":"yes","parcel_pickup":"yes","addr:full":"ул. Васил Левски 15","addr:city":"Велико Търново","addr:state":"Велико Търново","addr:postcode":"5000","addr:country":"BG","name":"easybox 5008 CBA Магро","opening_hours":"Mo-Su 07:00-22:00","brand":"easybox","brand:wikidata":"Q114496224","operator:wikidata":"Q114417096"},"coordinates":[43.080498,25.630526]},"dist":9.352,"tags_mismatch":true},{"osm":{"type":"node","id":12112114390,"tags":{"amenity":"parcel_locker","brand":"easybox","brand:wikidata":"Q114496224","covered":"yes","operator:wikidata":"Q114417096","parcel_mail_in":"yes","parcel_pickup":"yes"},"wikidata":"Q114496224","coordinates":[42.7024501,23.3229114]},"atp":{"id":"Z6D3qkshILGtc_qnrTnQ0g9IRiQ=","tags":{"amenity":"parcel_locker","parcel_mail_in":"yes","parcel_pickup":"yes","addr:full":"бул. Мария Луиза № 61","addr:city":"София","addr:state":"София-град","addr:postcode":"1202","addr:country":"BG","name":"easybox 1280 София Мария Луиза","opening_hours":"24/7","brand":"easybox","brand:wikidata":"Q114496224","operator:wikidata":"Q114417096"},"coordinates":[42.702369,23.322914]},"dist":9.02,"tags_mismatch":true},{"osm":{"type":"node","id":12118634438,"tags":{"amenity":"parcel_locker","brand":"easybox","brand:wikidata":"Q114496224","operator:wikidata":"Q114417096","parcel_mail_in":"yes","parcel_pickup":"yes"},"wikidata":"Q114496224","coordinates":[42.7032795,23.3108348]},"atp":{"id":"a5iA6I6VOrkCKQ3zswCUtdR-C4U=","tags":{"amenity":"parcel_locker","parcel_mail_in":"yes","parcel_pickup":"yes","addr:full":"ул. Опълченска 35","addr:city":"София","addr:state":"София-град","addr:postcode":"1303","addr:country":"BG","name":"easybox 1045 ОМВ София Опълченска","opening_hours":"24/7","brand":"easybox","brand:wikidata":"Q114496224","operator:wikidata":"Q114417096"},"coordinates":[42.703537,23.310849]},"dist":28.656,"tags_mismatch":true},{"osm":{"type":"node","id":12124070370,"tags":{"amenity":"parcel_locker","brand":"easybox","brand:wikidata":"Q114496224","operator:wikidata":"Q114417096","parcel_mail_in":"yes","parcel_pickup":"yes"},"wikidata":"Q114496224","coordinates":[42.6776379,23.3184526]},"atp":{"id":"ahHGMyPizRvqF4jz3RbommI6JqY=","tags":{"amenity":"parcel_locker","parcel_mail_in":"yes","parcel_pickup":"yes","addr:full":"бул. „Арсеналски“ 2","addr:city":"София","addr:state":"София-град","addr:postcode":"1421","addr:country":"BG","name":"easybox 1067 Паркинг Арсеналски","opening_hours":"24/7","brand":"easybox","brand:wikidata":"Q114496224","operator:wikidata":"Q114417096"},"coordinates":[42.677558,23.318369]},"dist":11.209,"tags_mismatch":true},{"osm":{"type":"node","id":12124934867,"tags":{"amenity":"parcel_locker","brand":"easybox","brand:wikidata":"Q114496224","operator:wikidata":"Q114417096","parcel_mail_in":"yes","parcel_pickup":"yes"},"wikidata":"Q114496224","coordinates":[42.4327735,25.638498]},"atp":{"id":"hhXYXHnMfYDRVdkolqlDoJ-EQ30=","tags":{"amenity":"parcel_locker","parcel_mail_in":"yes","parcel_pickup":"yes","addr:full":"ул. Иван Вазов 2","addr:city":"Стара Загора","addr:state":"Стара Загора","addr:postcode":"6000","addr:country":"BG","name":"easybox 6008 Кауфланд Стара Загора","opening_hours":"24/7","brand":"easybox","brand:wikidata":"Q114496224","operator:wikidata":"Q114417096"},"coordinates":[42.432859,25.638988]},"dist":41.323,"tags_mismatch":true},{"osm":{"type":"node","id":12134251633,"tags":{"amenity":"parcel_locker","brand":"easybox","brand:wikidata":"Q114496224","operator:wikidata":"Q114417096","parcel_mail_in":"yes","parcel_pickup":"yes"},"wikidata":"Q114496224","coordinates":[42.6498338,23.2607811]},"atp":{"id":"-cXionScFuzA0l7FDFjuC1QkOkE=","tags":{"amenity":"parcel_locker","parcel_mail_in":"yes","parcel_pickup":"yes","addr:full":"ул. Севастократор Калоян 77","addr:city":"София","addr:state":"София-град","addr:postcode":"1616","addr:country":"BG","name":"easybox 1074 Бурлекс Бояна","opening_hours":"24/7","brand":"easybox","brand:wikidata":"Q114496224","operator:wikidata":"Q114417096"},"coordinates":[42.649921,23.260663]},"dist":13.686,"tags_mismatch":true},{"osm":{"type":"node","id":12135041382,"tags":{"amenity":"parcel_locker","brand":"easybox","brand:wikidata":"Q114496224","indoor":"yes","operator:wikidata":"Q114417096","parcel_mail_in":"yes","parcel_pickup":"yes"},"wikidata":"Q114496224","coordinates":[42.6694758,23.3135294]},"atp":{"id":"KFtXmlugY1PdUEUnL_BZmRFwH_Q=","tags":{"amenity":"parcel_locker","parcel_mail_in":"yes","parcel_pickup":"yes","addr:full":"София ул. \"Сердикийски събор\" 1","addr:city":"София","addr:state":"София-град","addr:postcode":"1421","addr:country":"BG","name":"easybox 1182 Билла София Козяк","opening_hours":"Mo-Su 07:30-22:00","brand":"easybox","brand:wikidata":"Q114496224","operator:wikidata":"Q114417096"},"coordinates":[42.669459,23.313618]},"dist":7.481,"tags_mismatch":true},{"osm":{"type":"node","id":12146552521,"tags":{"amenity":"parcel_locker","brand":"easybox","brand:wikidata":"Q114496224","indoor":"yes","operator:wikidata":"Q114417096","parcel_mail_in":"yes","parcel_pickup":"yes"},"wikidata":"Q114496224","coordinates":[42.6808549,23.2879385]},"atp":{"id":"Lg2Aaj7lEcRj6n4P_G4i9peioDY=","tags":{"amenity":"parcel_locker","parcel_mail_in":"yes","parcel_pickup":"yes","addr:full":"бул. Цар Борис III 84","addr:city":"София","addr:state":"София-град","addr:postcode":"1612","addr:country":"BG","name":"easybox 1028 Цар Борис III 84","opening_hours":"Mo-Fr 09:30-19:00; Sa 09:30-14:00","brand":"easybox","brand:wikidata":"Q114496224","operator:wikidata":"Q114417096"},"coordinates":[42.680891,23.288018]},"dist":7.638,"tags_mismatch":true},{"osm":{"type":"node","id":12153378351,"tags":{"amenity":"parcel_locker","brand":"easybox","brand:wikidata":"Q114496224","operator:wikidata":"Q114417096","parcel_mail_in":"yes","parcel_pickup":"yes"},"wikidata":"Q114496224","coordinates":[42.6390317,23.3810621]},"atp":{"id":"Edd-sWgrH6FZm_t57aMU0FCXYao=","tags":{"amenity":"parcel_locker","parcel_mail_in":"yes","parcel_pickup":"yes","addr:full":"ул. Филип Аврамов","addr:city":"София","addr:state":"София-град","addr:postcode":"1712","addr:country":"BG","name":"easybox 1301 Петрол София Младост 3","opening_hours":"24/7","brand":"easybox","brand:wikidata":"Q114496224","operator:wikidata":"Q114417096"},"coordinates":[42.639222,23.381195]},"dist":23.79,"tags_mismatch":true},{"osm":{"type":"node","id":12159710262,"tags":{"amenity":"parcel_locker","brand":"easybox","brand:wikidata":"Q114496224","operator:wikidata":"Q114417096","parcel_mail_in":"yes","parcel_pickup":"yes"},"wikidata":"Q114496224","coordinates":[42.6922543,23.3122502]},"atp":false,"tags_mismatch":false},{"osm":{"type":"node","id":12196275980,"tags":{"amenity":"parcel_locker","brand":"easybox","brand:wikidata":"Q114496224","operator:wikidata":"Q114417096","parcel_mail_in":"yes","parcel_pickup":"yes"},"wikidata":"Q114496224","coordinates":[42.6778614,23.3096879]},"atp":{"id":"DTAjNhBBtuzBCGcQwciGK94D9xo=","tags":{"amenity":"parcel_locker","parcel_mail_in":"yes","parcel_pickup":"yes","addr:full":"бул. Витоша 180","addr:city":"София","addr:state":"София-град","addr:postcode":"1408","addr:country":"BG","name":"easybox 1036 Витоша 180","opening_hours":"24/7","brand":"easybox","brand:wikidata":"Q114496224","operator:wikidata":"Q114417096"},"coordinates":[42.677812,23.309838]},"dist":13.444,"tags_mismatch":true},{"osm":{"type":"node","id":12252173485,"tags":{"amenity":"parcel_locker","brand":"easybox","brand:wikidata":"Q114496224","operator:wikidata":"Q114417096","parcel_mail_in":"yes","parcel_pickup":"yes"},"wikidata":"Q114496224","coordinates":[42.6145191,23.3392093]},"atp":{"id":"xHb5z3oiZFdN4xyjLnhNbUI-8vY=","tags":{"amenity":"parcel_locker","parcel_mail_in":"yes","parcel_pickup":"yes","addr:full":"София бул. Симеоновско шосе 211","addr:city":"София","addr:state":"София-град","addr:postcode":"1434","addr:country":"BG","name":"easybox 1181 Билла София Симеоново","opening_hours":"Mo-Su 07:00-22:00","brand":"easybox","brand:wikidata":"Q114496224","operator:wikidata":"Q114417096"},"coordinates":[42.614392,23.339064]},"dist":18.469,"tags_mismatch":true},{"osm":{"type":"node","id":12255754446,"tags":{"amenity":"parcel_locker","brand":"easybox","brand:wikidata":"Q114496224","location":"outdoor","opening_hours":"/24/7","operator:wikidata":"Q114417096","parcel_mail_in":"yes","parcel_pickup":"yes"},"wikidata":"Q114496224","coordinates":[42.667002,23.3515277]},"atp":{"id":"rJZnvOPRulBjfmZVQYhnE7ofZE8=","tags":{"amenity":"parcel_locker","parcel_mail_in":"yes","parcel_pickup":"yes","addr:full":"ул. Тинтява 15, от дясно на входа","addr:city":"София","addr:state":"София-град","addr:postcode":"1113","addr:country":"BG","name":"easybox 1204 Нелбо Инженеринг","opening_hours":"24/7","brand":"easybox","brand:wikidata":"Q114496224","operator:wikidata":"Q114417096"},"coordinates":[42.666898,23.351569]},"dist":12.047,"tags_mismatch":true},{"osm":{"type":"node","id":12255760142,"tags":{"amenity":"parcel_locker","brand":"easybox","brand:wikidata":"Q114496224","indoor":"yes","operator:wikidata":"Q114417096","parcel_mail_in":"yes","parcel_pickup":"yes"},"wikidata":"Q114496224","coordinates":[42.6647816,23.3479626]},"atp":{"id":"cWT9iL_0LNVa44QassoYT2Q5DV4=","tags":{"amenity":"parcel_locker","parcel_mail_in":"yes","parcel_pickup":"yes","addr:full":"ул. Пимен Зографски 38","addr:city":"София","addr:state":"София-град","addr:postcode":"1172","addr:country":"BG","name":"easybox 1066 Билла София Дианабад","opening_hours":"24/7","brand":"easybox","brand:wikidata":"Q114496224","operator:wikidata":"Q114417096"},"coordinates":[42.664888,23.34806]},"dist":14.262,"tags_mismatch":true},{"osm":false,"atp":{"id":"33i3kMqX2FALtJJQqhhY10U2ofU=","tags":{"amenity":"parcel_locker","parcel_mail_in":"yes","parcel_pickup":"yes","addr:full":"ул. Черковна 38А ТЦ Арко Вара","addr:city":"София","addr:state":"София-град","addr:postcode":"1505","addr:country":"BG","name":"easybox 1210 София Черковна","opening_hours":"Mo-Su 07:00-22:00","brand":"easybox","brand:wikidata":"Q114496224","operator:wikidata":"Q114417096"},"coordinates":[42.697278,23.351475]},"tags_mismatch":false,"dist":0},{"osm":false,"atp":{"id":"N-63Ogc6Vd9LK8skmZgjvqJGrc4=","tags":{"amenity":"parcel_locker","parcel_mail_in":"yes","parcel_pickup":"yes","addr:full":"ул. Перущица No. 8 МОЛ Пловдив","addr:city":"Пловдив","addr:state":"Пловдив","addr:postcode":"4002","addr:country":"BG","name":"easybox 4057 Мол Пловдив","opening_hours":"24/7","brand":"easybox","brand:wikidata":"Q114496224","operator:wikidata":"Q114417096"},"coordinates":[42.141525,24.71949]},"tags_mismatch":false,"dist":0},{"osm":false,"atp":{"id":"ih4W0mO33hpf-BW4gf5A79akTac=","tags":{"amenity":"parcel_locker","parcel_mail_in":"yes","parcel_pickup":"yes","addr:full":"бул. Сливница No. 185 Делта Планет Мол Варна","addr:city":"Варна","addr:state":"Варна","addr:postcode":"9009","addr:country":"BG","name":"easybox 9052 Делта Планет Мол Варна","opening_hours":"24/7","brand":"easybox","brand:wikidata":"Q114496224","operator:wikidata":"Q114417096"},"coordinates":[43.227206,27.87476]},"tags_mismatch":false,"dist":0},{"osm":false,"atp":{"id":"2IqLG4eiapmiMIejQk3WSt64UHI=","tags":{"amenity":"parcel_locker","parcel_mail_in":"yes","parcel_pickup":"yes","addr:full":"бул. Асен Йорданов 7","addr:city":"София","addr:state":"София-град","addr:postcode":"1528","addr:country":"BG","name":"easybox 1208 Кауфланд София 7","opening_hours":"Mo-Su 07:00-22:00","brand":"easybox","brand:wikidata":"Q114496224","operator:wikidata":"Q114417096"},"coordinates":[42.674503,23.383034]},"tags_mismatch":false,"dist":0},{"osm":false,"atp":{"id":"xdOquny-7HCQ4JqsmiWGHNcYL3M=","tags":{"amenity":"parcel_locker","parcel_mail_in":"yes","parcel_pickup":"yes","addr:full":"ул. Теофан Райнов 72","addr:city":"Карлово","addr:state":"Пловдив","addr:postcode":"4300","addr:country":"BG","name":"easybox 4056 Кауфланд Карлово","opening_hours":"Mo-Su 07:00-21:00","brand":"easybox","brand:wikidata":"Q114496224","operator:wikidata":"Q114417096"},"coordinates":[42.633079,24.817983]},"tags_mismatch":false,"dist":0},{"osm":false,"atp":{"id":"klHgZMQzsYBMj9DD8LXOsLp2DoI=","tags":{"amenity":"parcel_locker","parcel_mail_in":"yes","parcel_pickup":"yes","addr:full":"Бул. Царица Йоана 15","addr:city":"София","addr:state":"София-град","addr:postcode":"1324","addr:country":"BG","name":"easybox 1207 Мега Мол София 15","opening_hours":"Mo-Fr 06:30-22:00; Sa-Su 07:30-22:00","brand":"easybox","brand:wikidata":"Q114496224","operator:wikidata":"Q114417096"},"coordinates":[42.710364,23.271632]},"tags_mismatch":false,"dist":0},{"osm":false,"atp":{"id":"Kqm37hVC2_27yeiMl7bB_kWjKUg=","tags":{"amenity":"parcel_locker","parcel_mail_in":"yes","parcel_pickup":"yes","addr:full":"ул. Д-р Георги Странски 3","addr:city":"Пловдив","addr:state":"Пловдив","addr:postcode":"4000","addr:country":"BG","name":"easybox 4055 Пловдив Плаза Мол","opening_hours":"24/7","brand":"easybox","brand:wikidata":"Q114496224","operator:wikidata":"Q114417096"},"coordinates":[42.145089,24.782188]},"tags_mismatch":false,"dist":0},{"osm":false,"atp":{"id":"nBCecPHHTNkH2VQPkbpnPEuXiS8=","tags":{"amenity":"parcel_locker","parcel_mail_in":"yes","parcel_pickup":"yes","addr:full":"ул. Акад. Стефан Младенов 90","addr:city":"София","addr:state":"София-град","addr:postcode":"1700","addr:country":"BG","name":"easybox 1206 София Стефан Младенов","opening_hours":"24/7","brand":"easybox","brand:wikidata":"Q114496224","operator:wikidata":"Q114417096"},"coordinates":[42.643443,23.344865]},"tags_mismatch":false,"dist":0},{"osm":false,"atp":{"id":"Y4X3on5vP-9tLLmmJfcYYpIHp4E=","tags":{"amenity":"parcel_locker","parcel_mail_in":"yes","parcel_pickup":"yes","addr:full":"ул. Свобода 55","addr:city":"Сандански","addr:state":"Благоевград","addr:postcode":"2800","addr:country":"BG","name":"easybox 2727 Кауфланд Сандански Свобода","opening_hours":"Mo-Su 07:00-22:00","brand":"easybox","brand:wikidata":"Q114496224","operator:wikidata":"Q114417096"},"coordinates":[41.549987,23.270554]},"tags_mismatch":false,"dist":0},{"osm":false,"atp":{"id":"RlNP9DOmhOCfXhSrftp02Bin64Q=","tags":{"amenity":"parcel_locker","parcel_mail_in":"yes","parcel_pickup":"yes","addr:full":"бул. Трети март 77","addr:city":"Варна","addr:state":"Варна","addr:postcode":"9023","addr:country":"BG","name":"easybox 9051 Кауфланд Варна Трети март","opening_hours":"Mo-Sa 07:00-21:30; Su 08:00-21:00","brand":"easybox","brand:wikidata":"Q114496224","operator:wikidata":"Q114417096"},"coordinates":[43.242193,27.850409]},"tags_mismatch":false,"dist":0},{"osm":false,"atp":{"id":"UReysWMlUVuGIKrINU66jk3EV68=","tags":{"amenity":"parcel_locker","parcel_mail_in":"yes","parcel_pickup":"yes","addr:full":"бул. Черни Връх 100 Ниво минус 2 срещу ескалатори","addr:city":"София","addr:state":"София-град","addr:postcode":"1407","addr:country":"BG","name":"easybox 1205 Парадайс Център София","opening_hours":"Mo-Su 10:00-22:00","brand":"easybox","brand:wikidata":"Q114496224","operator:wikidata":"Q114417096"},"coordinates":[42.657863,23.315038]},"tags_mismatch":false,"dist":0},{"osm":false,"atp":{"id":"_MKW28nZz4dLuzYi5jeDAyniIYc=","tags":{"amenity":"parcel_locker","parcel_mail_in":"yes","parcel_pickup":"yes","addr:full":"бул. Ситняково 48","addr:city":"София","addr:state":"София-град","addr:postcode":"1505","addr:country":"BG","name":"easybox 1203 Мол Сердика Център София","opening_hours":"24/7","brand":"easybox","brand:wikidata":"Q114496224","operator:wikidata":"Q114417096"},"coordinates":[42.691902,23.353509]},"tags_mismatch":false,"dist":0},{"osm":false,"atp":{"id":"nlNUDWP3VmVGWnqRHbXH7miBTK8=","tags":{"amenity":"parcel_locker","parcel_mail_in":"yes","parcel_pickup":"yes","addr:full":"Д-р Петър Скорчевул. 2","addr:city":"Варна","addr:state":"Варна","addr:postcode":"9010","addr:country":"BG","name":"easybox 9050 Кауфланд Варна Бриз","opening_hours":"24/7","brand":"easybox","brand:wikidata":"Q114496224","operator:wikidata":"Q114417096"},"coordinates":[43.222271,27.940618]},"tags_mismatch":false,"dist":0},{"osm":false,"atp":{"id":"94PM6pPhQDytyCr_aEQeoLc5uQg=","tags":{"amenity":"parcel_locker","parcel_mail_in":"yes","parcel_pickup":"yes","addr:full":"Христо Смирненски ул. 2 Кауфланд Трошево ниво 2","addr:city":"Варна","addr:state":"Варна","addr:postcode":"9000","addr:country":"BG","name":"easybox 9049 Кауфланд Варна Смирненски","opening_hours":"24/7","brand":"easybox","brand:wikidata":"Q114496224","operator:wikidata":"Q114417096"},"coordinates":[43.221237,27.890894]},"tags_mismatch":false,"dist":0},{"osm":false,"atp":{"id":"V-MhloT-t5SdzWFzrwg6kQUBXT4=","tags":{"amenity":"parcel_locker","parcel_mail_in":"yes","parcel_pickup":"yes","addr:full":"бул. Шипченски проход 18 ниво партер вдясно от централен вход","addr:city":"София","addr:state":"София-град","addr:postcode":"1113","addr:country":"BG","name":"easybox 1202 Галакси Трейд Център София","opening_hours":"Mo-Su 10:00-22:00","brand":"easybox","brand:wikidata":"Q114496224","operator:wikidata":"Q114417096"},"coordinates":[42.678721,23.360587]},"tags_mismatch":false,"dist":0},{"osm":false,"atp":{"id":"eQbHolWkNPeWHgMhFSC8XEoMJR4=","tags":{"amenity":"parcel_locker","parcel_mail_in":"yes","parcel_pickup":"yes","addr:full":"бул. Джавахарлал Неру 29 след централен вход","addr:city":"София","addr:state":"София-град","addr:postcode":"1336","addr:country":"BG","name":"easybox 1201 Мини Мол Люлин София","opening_hours":"Mo-Su 08:00-20:00","brand":"easybox","brand:wikidata":"Q114496224","operator:wikidata":"Q114417096"},"coordinates":[42.714198,23.255889]},"tags_mismatch":false,"dist":0},{"osm":false,"atp":{"id":"f6fKM-hleVLvbxE3c-fEkP7NwI4=","tags":{"amenity":"parcel_locker","parcel_mail_in":"yes","parcel_pickup":"yes","addr:full":"бул. Никола Петков 52 на входа от страната на паркинга","addr:city":"София","addr:state":"София-град","addr:postcode":"1618","addr:country":"BG","name":"easybox 1199 Трейд Хаус Уест София","opening_hours":"Mo-Su 07:00-22:00","brand":"easybox","brand:wikidata":"Q114496224","operator:wikidata":"Q114417096"},"coordinates":[42.666007,23.259387]},"tags_mismatch":false,"dist":0},{"osm":false,"atp":{"id":"9VZMTlgxpS7DaLN99LmQXv4GLyM=","tags":{"amenity":"parcel_locker","parcel_mail_in":"yes","parcel_pickup":"yes","addr:full":"Плевен Площад Свобода 25","addr:city":"Плевен","addr:state":"Плевен","addr:postcode":"5883","addr:country":"BG","name":"easybox 5815 Централ Мол Плевен","opening_hours":"Mo-Fr 07:30-22:00; Sa 08:30-22:00; Su 08:30-21:30","brand":"easybox","brand:wikidata":"Q114496224","operator:wikidata":"Q114417096"},"coordinates":[43.410072,24.618366]},"tags_mismatch":false,"dist":0},{"osm":false,"atp":{"id":"fZBtOHmlZt4hePSy6wQUY6sERHk=","tags":{"amenity":"parcel_locker","parcel_mail_in":"yes","parcel_pickup":"yes","addr:full":"ул. Екзарх Йосиф 115","addr:city":"София","addr:state":"София-град","addr:postcode":"1527","addr:country":"BG","name":"easybox 1198 Гея Дек София Екзарх Йосиф","opening_hours":"24/7","brand":"easybox","brand:wikidata":"Q114496224","operator:wikidata":"Q114417096"},"coordinates":[42.702748,23.334234]},"tags_mismatch":false,"dist":0},{"osm":false,"atp":{"id":"gkGG8_a8EqlQl7q7YbaPwkmQeGo=","tags":{"amenity":"parcel_locker","parcel_mail_in":"yes","parcel_pickup":"yes","addr:full":"ул. Тодор Александров 47","addr:city":"Благоевград","addr:state":"Благоевград","addr:postcode":"2700","addr:country":"BG","name":"easybox 2726 Мол ъф Благоевград","opening_hours":"Mo-Su 09:00-24:00","brand":"easybox","brand:wikidata":"Q114496224","operator:wikidata":"Q114417096"},"coordinates":[42.017345,23.095536]},"tags_mismatch":false,"dist":0},{"osm":false,"atp":{"id":"IcGVB1iNxjrLbYnqpZMALm1Lg3Q=","tags":{"amenity":"parcel_locker","parcel_mail_in":"yes","parcel_pickup":"yes","addr:full":"бул. Ломско шосе 2А","addr:city":"София","addr:state":"София-град","addr:postcode":"1220","addr:country":"BG","name":"easybox 1196 Търговски Център Надежда","opening_hours":"Mo-Su 07:00-24:00","brand":"easybox","brand:wikidata":"Q114496224","operator:wikidata":"Q114417096"},"coordinates":[42.724006,23.306034]},"tags_mismatch":false,"dist":0},{"osm":false,"atp":{"id":"YZVeDNUp3HaLgb5_qbpoZu9Nv6Q=","tags":{"amenity":"parcel_locker","parcel_mail_in":"yes","parcel_pickup":"yes","addr:full":"бул. Цариградско шосе 86","addr:city":"София","addr:state":"София-град","addr:postcode":"1784","addr:country":"BG","name":"easybox 1195 Спейс Тауър","opening_hours":"24/7","brand":"easybox","brand:wikidata":"Q114496224","operator:wikidata":"Q114417096"},"coordinates":[42.648882,23.393587]},"tags_mismatch":false,"dist":0},{"osm":false,"atp":{"id":"pig1FWuAiFRpM2D2qekOzuBcR-c=","tags":{"amenity":"parcel_locker","parcel_mail_in":"yes","parcel_pickup":"yes","addr:full":"ул. Сан Стефано 80","addr:city":"Плевен","addr:state":"Плевен","addr:postcode":"5800","addr:country":"BG","name":"easybox 5814 Кауфланд Плевен Кайлъка","opening_hours":"Mo-Sa 07:00-21:00; Su 08:00-21:00","brand":"easybox","brand:wikidata":"Q114496224","operator:wikidata":"Q114417096"},"coordinates":[43.395185,24.620822]},"tags_mismatch":false,"dist":0},{"osm":false,"atp":{"id":"yVar49xGnAGqmReqzUxgzwggPsk=","tags":{"amenity":"parcel_locker","parcel_mail_in":"yes","parcel_pickup":"yes","addr:full":"бул. Джавахарлал Неру 28 вход между Адмирал и ДМ","addr:city":"София","addr:state":"София-град","addr:postcode":"1324","addr:country":"BG","name":"easybox 1194 Силвър Център Люлин София","opening_hours":"24/7","brand":"easybox","brand:wikidata":"Q114496224","operator:wikidata":"Q114417096"},"coordinates":[42.715169,23.254239]},"tags_mismatch":false,"dist":0},{"osm":false,"atp":{"id":"y7HdGggsQ82ocdO-hCNkw0rq1JA=","tags":{"amenity":"parcel_locker","parcel_mail_in":"yes","parcel_pickup":"yes","addr:full":"бул. Сливница 65","addr:city":"София","addr:state":"София-град","addr:postcode":"1309","addr:country":"BG","name":"easybox 1193 Търговски Център Глобус","opening_hours":"24/7","brand":"easybox","brand:wikidata":"Q114496224","operator:wikidata":"Q114417096"},"coordinates":[42.710651,23.291674]},"tags_mismatch":false,"dist":0},{"osm":false,"atp":{"id":"tpqgL75XYe2wNFhlpp6UuW_P6Tg=","tags":{"amenity":"parcel_locker","parcel_mail_in":"yes","parcel_pickup":"yes","addr:full":"ул Хан Аспарух 30 ниво-2 вход/изход паркинг","addr:city":"Стара Загора","addr:state":"Стара Загора","addr:postcode":"6000","addr:country":"BG","name":"easybox 6018 Мол Галерия Стара Загора","opening_hours":"Mo-Su 10:00-21:00","brand":"easybox","brand:wikidata":"Q114496224","operator:wikidata":"Q114417096"},"coordinates":[42.438253,25.632129]},"tags_mismatch":false,"dist":0},{"osm":false,"atp":{"id":"18xT6GoFkTUUHnu7-eiWIwA73po=","tags":{"amenity":"parcel_locker","parcel_mail_in":"yes","parcel_pickup":"yes","addr:full":"София бул. Александър Малинов 77 централен вход вдясно от ескалаторите","addr:city":"София","addr:state":"София-град","addr:postcode":"1712","addr:country":"BG","name":"easybox 1192 Принцес Аутлет Център София","opening_hours":"Mo-Su 10:00-21:00","brand":"easybox","brand:wikidata":"Q114496224","operator:wikidata":"Q114417096"},"coordinates":[42.636666,23.372279]},"tags_mismatch":false,"dist":0},{"osm":false,"atp":{"id":"6kciNbvKtCXpvywcaaVywjQXcsc=","tags":{"amenity":"parcel_locker","parcel_mail_in":"yes","parcel_pickup":"yes","addr:full":"София бул. Александър Малинов 51 централен вход до ескалаторите","addr:city":"София","addr:state":"София-град","addr:postcode":"1712","addr:country":"BG","name":"easybox 1191 Метро Сити Младост3 София","opening_hours":"Mo-Su 09:00-22:00","brand":"easybox","brand:wikidata":"Q114496224","operator:wikidata":"Q114417096"},"coordinates":[42.646088,23.376109]},"tags_mismatch":false,"dist":0},{"osm":false,"atp":{"id":"cWP-VpqET3CYCs7sqHTte-NCZ2k=","tags":{"amenity":"parcel_locker","parcel_mail_in":"yes","parcel_pickup":"yes","addr:full":"София бул. Цариградско шосе 139 в магазина","addr:city":"София","addr:state":"София-град","addr:postcode":"1784","addr:country":"BG","name":"easybox 1190 Офис1 София Цариградско шосе","opening_hours":"Mo-Fr 09:00-19:00; Sa-Su 10:00-16:00","brand":"easybox","brand:wikidata":"Q114496224","operator:wikidata":"Q114417096"},"coordinates":[42.651629,23.392484]},"tags_mismatch":false,"dist":0},{"osm":false,"atp":{"id":"TzeBeQaZJFq-JHT0_BW-ViqQnrM=","tags":{"amenity":"parcel_locker","parcel_mail_in":"yes","parcel_pickup":"yes","addr:full":"Пловдив бул. Санкт Петербург 48","addr:city":"Пловдив","addr:state":"Пловдив","addr:postcode":"4000","addr:country":"BG","name":"easybox 4054 Офис1 Пловдив Санкт Петербург","opening_hours":"Mo-Su 09:00-19:00","brand":"easybox","brand:wikidata":"Q114496224","operator:wikidata":"Q114417096"},"coordinates":[42.142345,24.783912]},"tags_mismatch":false,"dist":0},{"osm":false,"atp":{"id":"8PHZKAQzbP6xwCGHropSIp-MsTw=","tags":{"amenity":"parcel_locker","parcel_mail_in":"yes","parcel_pickup":"yes","addr:full":"София бул. Ломско шосе 171","addr:city":"София","addr:state":"София-град","addr:postcode":"1229","addr:country":"BG","name":"easybox 1187 Билла София Надежда","opening_hours":"Mo-Su 07:30-22:00","brand":"easybox","brand:wikidata":"Q114496224","operator:wikidata":"Q114417096"},"coordinates":[42.735524,23.291879]},"tags_mismatch":false,"dist":0},{"osm":false,"atp":{"id":"NhCw1o-qS0-sSqyZXMI5scnHXOI=","tags":{"amenity":"parcel_locker","parcel_mail_in":"yes","parcel_pickup":"yes","addr:full":"София ул.Опълченска 35","addr:city":"София","addr:state":"София-град","addr:postcode":"1303","addr:country":"BG","name":"easybox 1186 Билла София Илинден","opening_hours":"Mo-Su 07:30-22:00","brand":"easybox","brand:wikidata":"Q114496224","operator:wikidata":"Q114417096"},"coordinates":[42.704172,23.310636]},"tags_mismatch":false,"dist":0},{"osm":false,"atp":{"id":"ihOCgdVSL16mGJYMf95-yQlYT-8=","tags":{"amenity":"parcel_locker","parcel_mail_in":"yes","parcel_pickup":"yes","addr:full":"София бул. Владимир Вазов 20","addr:city":"София","addr:state":"София-град","addr:postcode":"1517","addr:country":"BG","name":"easybox 1185 Билла София Подуене","opening_hours":"Mo-Su 07:30-22:00","brand":"easybox","brand:wikidata":"Q114496224","operator:wikidata":"Q114417096"},"coordinates":[42.702267,23.353709]},"tags_mismatch":false,"dist":0},{"osm":false,"atp":{"id":"gTfqXsFSmUbaF1WYKz4LqwkDEGM=","tags":{"amenity":"parcel_locker","parcel_mail_in":"yes","parcel_pickup":"yes","addr:full":"София ул. Копенхаген 22","addr:city":"София","addr:state":"София-град","addr:postcode":"1582","addr:country":"BG","name":"easybox 1183 Билла София Дружба","opening_hours":"Mo-Su 07:30-22:00","brand":"easybox","brand:wikidata":"Q114496224","operator:wikidata":"Q114417096"},"coordinates":[42.646991,23.403909]},"tags_mismatch":false,"dist":0},{"osm":false,"atp":{"id":"vO6XOZi5n82oV2b3eCCjBymX5HI=","tags":{"amenity":"parcel_locker","parcel_mail_in":"yes","parcel_pickup":"yes","addr:full":"София Г.М.Димитров 65 от дясно след входа","addr:city":"София","addr:state":"София-град","addr:postcode":"1172","addr:country":"BG","name":"easybox 1180 Билла София ГМДимитров","opening_hours":"Mo-Sa 07:30-22:00; Su 00:00-24:00","brand":"easybox","brand:wikidata":"Q114496224","operator:wikidata":"Q114417096"},"coordinates":[42.662854,23.355245]},"tags_mismatch":false,"dist":0},{"osm":false,"atp":{"id":"GOHpC031DTgxmln47mYHdISQGws=","tags":{"amenity":"parcel_locker","parcel_mail_in":"yes","parcel_pickup":"yes","addr:full":"Бургас ул. Гочо Иванов 30","addr:city":"Бургас","addr:state":"Бургас","addr:postcode":"8125","addr:country":"BG","name":"easybox 8026 Билла Бургас Г. Иванов","opening_hours":"Mo-Su 07:30-22:00","brand":"easybox","brand:wikidata":"Q114496224","operator:wikidata":"Q114417096"},"coordinates":[42.503844,27.460383]},"tags_mismatch":false,"dist":0},{"osm":false,"atp":{"id":"w5WbW3DFaIhYcwHx17NEXqNehBc=","tags":{"amenity":"parcel_locker","parcel_mail_in":"yes","parcel_pickup":"yes","addr:full":"Пловдив бул. 6-ти Септември 221, в дясно след входа","addr:city":"Пловдив","addr:state":"Пловдив","addr:postcode":"4000","addr:country":"BG","name":"easybox 4053 Билла Пловдив 6 септември","opening_hours":"Mo-Su 07:30-22:00","brand":"easybox","brand:wikidata":"Q114496224","operator:wikidata":"Q114417096"},"coordinates":[42.153647,24.762064]},"tags_mismatch":false,"dist":0},{"osm":false,"atp":{"id":"Kgus8oEk5mVTXxZrDs8pySPJgcc=","tags":{"amenity":"parcel_locker","parcel_mail_in":"yes","parcel_pickup":"yes","addr:full":"Русе ул. Стефан Стамболов 99, в дясно след входа","addr:city":"Русе","addr:state":"Русе","addr:postcode":"7001","addr:country":"BG","name":"easybox 7015 Билла Русе Стамболов","opening_hours":"Mo-Su 07:30-22:00","brand":"easybox","brand:wikidata":"Q114496224","operator:wikidata":"Q114417096"},"coordinates":[43.830799,25.950878]},"tags_mismatch":false,"dist":0},{"osm":false,"atp":{"id":"_lB3CAoz-JmzAYmRVfC2pqeTxcs=","tags":{"amenity":"parcel_locker","parcel_mail_in":"yes","parcel_pickup":"yes","addr:full":"Ямбол ул. Арда 7, в дясно след входа","addr:city":"Ямбол","addr:state":"Ямбол","addr:postcode":"8600","addr:country":"BG","name":"easybox 8605 Билла Ямбол Арда","opening_hours":"Mo-Su 07:30-22:00","brand":"easybox","brand:wikidata":"Q114496224","operator:wikidata":"Q114417096"},"coordinates":[42.487788,26.501665]},"tags_mismatch":false,"dist":0},{"osm":false,"atp":{"id":"Df6kKUSfrF171OngGu23QlcSyGs=","tags":{"amenity":"parcel_locker","parcel_mail_in":"yes","parcel_pickup":"yes","addr:full":"бул. Рожен № 20Е","addr:city":"София","addr:state":"София-град","addr:postcode":"1220","addr:country":"BG","name":"easybox 1179 ОМВ София Рожен","opening_hours":"24/7","brand":"easybox","brand:wikidata":"Q114496224","operator:wikidata":"Q114417096"},"coordinates":[42.732653,23.314243]},"tags_mismatch":false,"dist":0},{"osm":false,"atp":{"id":"bN5O6AWHj7-3xS-y-5y4rQMe10Q=","tags":{"amenity":"parcel_locker","parcel_mail_in":"yes","parcel_pickup":"yes","addr:full":"бул. Проф. Цветан Лазаров № 63, от ляво на входа","addr:city":"София","addr:state":"София-град","addr:postcode":"1574","addr:country":"BG","name":"easybox 1177 ОМВ София Лазаров","opening_hours":"24/7","brand":"easybox","brand:wikidata":"Q114496224","operator:wikidata":"Q114417096"},"coordinates":[42.66152,23.391759]},"tags_mismatch":false,"dist":0},{"osm":false,"atp":{"id":"eq22cCIyaILcOYSD2zTPiEt8iqs=","tags":{"amenity":"parcel_locker","parcel_mail_in":"yes","parcel_pickup":"yes","addr:full":"ул. Резбарска № 1 Б, от ляво на входа","addr:city":"София","addr:state":"София-град","addr:postcode":"1510","addr:country":"BG","name":"easybox 1174 ОМВ София Резбарска","opening_hours":"24/7","brand":"easybox","brand:wikidata":"Q114496224","operator:wikidata":"Q114417096"},"coordinates":[42.707942,23.341871]},"tags_mismatch":false,"dist":0},{"osm":false,"atp":{"id":"xpMYGM0RatKRKCDUaryfPWqsuT0=","tags":{"amenity":"parcel_locker","parcel_mail_in":"yes","parcel_pickup":"yes","addr:full":"Ломско шосе № 2, от дясно на входа","addr:city":"София","addr:state":"София-град","addr:postcode":"1220","addr:country":"BG","name":"easybox 1172 ОМВ София Ломско","opening_hours":"24/7","brand":"easybox","brand:wikidata":"Q114496224","operator:wikidata":"Q114417096"},"coordinates":[42.723045,23.306844]},"tags_mismatch":false,"dist":0},{"osm":false,"atp":{"id":"R3mom0Q1Z8267WOokUbUQUyHU2A=","tags":{"amenity":"parcel_locker","parcel_mail_in":"yes","parcel_pickup":"yes","addr:full":"бул. Сливница 258","addr:city":"София","addr:state":"София-град","addr:postcode":"1303","addr:country":"BG","name":"easybox 1171 ОМВ София Сливница","opening_hours":"24/7","brand":"easybox","brand:wikidata":"Q114496224","operator:wikidata":"Q114417096"},"coordinates":[42.716127,23.282269]},"tags_mismatch":false,"dist":0},{"osm":false,"atp":{"id":"v8-NDmvApgV0o6cwU1ohhAT2kak=","tags":{"amenity":"parcel_locker","parcel_mail_in":"yes","parcel_pickup":"yes","addr:full":"бул. Никола Мушанов № 114 Е, от дясно на входа","addr:city":"София","addr:state":"София-град","addr:postcode":"1330","addr:country":"BG","name":"easybox 1170 ОМВ София Мушанов","opening_hours":"24/7","brand":"easybox","brand:wikidata":"Q114496224","operator:wikidata":"Q114417096"},"coordinates":[42.689534,23.276718]},"tags_mismatch":false,"dist":0},{"osm":false,"atp":{"id":"Qw5fl8eud-3yo2ArPn3eac3562Y=","tags":{"amenity":"parcel_locker","parcel_mail_in":"yes","parcel_pickup":"yes","addr:full":"ул. Бойчо Бойчев № 66, в дясно на входа","addr:city":"София","addr:state":"София-град","addr:postcode":"1632","addr:country":"BG","name":"easybox 1169 ОМВ София Бойчев","opening_hours":"24/7","brand":"easybox","brand:wikidata":"Q114496224","operator:wikidata":"Q114417096"},"coordinates":[42.682409,23.243006]},"tags_mismatch":false,"dist":0},{"osm":false,"atp":{"id":"XifAfoUstXk5c21Xe52iIjF2UoQ=","tags":{"amenity":"parcel_locker","parcel_mail_in":"yes","parcel_pickup":"yes","addr:full":"бул. Владимир Вазов № 4","addr:city":"София","addr:state":"София-град","addr:postcode":"1505","addr:country":"BG","name":"easybox 1168 ОМВ София Вазов","opening_hours":"24/7","brand":"easybox","brand:wikidata":"Q114496224","operator:wikidata":"Q114417096"},"coordinates":[42.701833,23.351239]},"tags_mismatch":false,"dist":0},{"osm":false,"atp":{"id":"65mh9PUdlocI5-LA8Shfjc0WzBs=","tags":{"amenity":"parcel_locker","parcel_mail_in":"yes","parcel_pickup":"yes","addr:full":"бул. Пещерско шосе 36","addr:city":"Пловдив","addr:state":"Пловдив","addr:postcode":"4000","addr:country":"BG","name":"easybox 4052 Кауфланд Пловдив Хр. Смирненски","opening_hours":"Mo-Su 07:00-22:00","brand":"easybox","brand:wikidata":"Q114496224","operator:wikidata":"Q114417096"},"coordinates":[42.140237,24.724372]},"tags_mismatch":false,"dist":0},{"osm":false,"atp":{"id":"XuJvOv5dAu7ppiTHHnO4PCyRIl8=","tags":{"amenity":"parcel_locker","parcel_mail_in":"yes","parcel_pickup":"yes","addr:full":"ул. Димитър Стоилов 1","addr:city":"Асеновград","addr:state":"Пловдив","addr:postcode":"4230","addr:country":"BG","name":"easybox 4051 Кауфланд Асеновград","opening_hours":"Mo-Su 07:00-21:00","brand":"easybox","brand:wikidata":"Q114496224","operator:wikidata":"Q114417096"},"coordinates":[42.019506,24.860647]},"tags_mismatch":false,"dist":0},{"osm":false,"atp":{"id":"f3gKYtQR7Azh825Fnc1R4qpMoOQ=","tags":{"amenity":"parcel_locker","parcel_mail_in":"yes","parcel_pickup":"yes","addr:full":"бул. Цариградско шосе 115Л паркинг ниво -3 до магазин Маргел","addr:city":"София","addr:state":"София-град","addr:postcode":"1784","addr:country":"BG","name":"easybox 1166 Европейски Търговски Център София","opening_hours":"24/7","brand":"easybox","brand:wikidata":"Q114496224","operator:wikidata":"Q114417096"},"coordinates":[42.66042,23.383795]},"tags_mismatch":false,"dist":0},{"osm":false,"atp":{"id":"6I0BhrgeSatLlTMSKek5WuosWT8=","tags":{"amenity":"parcel_locker","parcel_mail_in":"yes","parcel_pickup":"yes","addr:full":"ул.Транспортна 31","addr:city":"Бургас","addr:state":"Бургас","addr:postcode":"8125","addr:country":"BG","name":"easybox 8025 Бургас Плаза Мол","opening_hours":"24/7","brand":"easybox","brand:wikidata":"Q114496224","operator:wikidata":"Q114417096"},"coordinates":[42.530863,27.457394]},"tags_mismatch":false,"dist":0},{"osm":false,"atp":{"id":"_c_Dgg5RgI13S-JsAW98a9oK1qk=","tags":{"amenity":"parcel_locker","parcel_mail_in":"yes","parcel_pickup":"yes","addr:full":"ул. Сан Стефано 22 ниво -1 срещу Билла","addr:city":"София","addr:state":"София-град","addr:postcode":"1504","addr:country":"BG","name":"easybox 1165 Сан Стефано Плаза София","opening_hours":"Mo-Su 10:00-22:00","brand":"easybox","brand:wikidata":"Q114496224","operator:wikidata":"Q114417096"},"coordinates":[42.692039,23.337768]},"tags_mismatch":false,"dist":0},{"osm":false,"atp":{"id":"bQ228bmLFS9GkI8u9KYg2XOpyyg=","tags":{"amenity":"parcel_locker","parcel_mail_in":"yes","parcel_pickup":"yes","addr:full":"бул. Симеоновско шосе 35","addr:city":"София","addr:state":"София-град","addr:postcode":"1700","addr:country":"BG","name":"easybox 1164 Спорт Бокс София","opening_hours":"Mo-Su 10:30-19:30","brand":"easybox","brand:wikidata":"Q114496224","operator:wikidata":"Q114417096"},"coordinates":[42.652986,23.336425]},"tags_mismatch":false,"dist":0},{"osm":false,"atp":{"id":"LZD0OedeQfIyxN5DmuD4dX9BABA=","tags":{"amenity":"parcel_locker","parcel_mail_in":"yes","parcel_pickup":"yes","addr:full":"бул. „Андрей Сахаров“ 14","addr:city":"София","addr:state":"София-град","addr:postcode":"1784","addr:country":"BG","name":"easybox 1163 Метропол Младост 1 София","opening_hours":"Mo-Su 09:00-21:00","brand":"easybox","brand:wikidata":"Q114496224","operator:wikidata":"Q114417096"},"coordinates":[42.65346,23.37308]},"tags_mismatch":false,"dist":0},{"osm":false,"atp":{"id":"pIZGlOMw0JoBUKWvpXaDCA0nF5A=","tags":{"amenity":"parcel_locker","parcel_mail_in":"yes","parcel_pickup":"yes","addr:full":"Бул България 109 вход от страната на паркинга","addr:city":"София","addr:state":"София-град","addr:postcode":"1404","addr:country":"BG","name":"easybox 1162 Вертиго София","opening_hours":"Mo-Su 08:00-19:00","brand":"easybox","brand:wikidata":"Q114496224","operator:wikidata":"Q114417096"},"coordinates":[42.657031,23.285649]},"tags_mismatch":false,"dist":0},{"osm":false,"atp":{"id":"WDi8iTpSXqS5Ag24VEhol67kVgs=","tags":{"amenity":"parcel_locker","parcel_mail_in":"yes","parcel_pickup":"yes","addr:full":"ул. Цар Калоян 23","addr:city":"Бургас","addr:state":"Бургас","addr:postcode":"8000","addr:country":"BG","name":"easybox 8024 Болеро Краснодар Бургас","opening_hours":"Mo-Su 07:00-22:00","brand":"easybox","brand:wikidata":"Q114496224","operator:wikidata":"Q114417096"},"coordinates":[42.493287,27.464163]},"tags_mismatch":false,"dist":0},{"osm":false,"atp":{"id":"zUBQsvDAjHTv-dHnpn-f25UKYC0=","tags":{"amenity":"parcel_locker","parcel_mail_in":"yes","parcel_pickup":"yes","addr:full":"бул. „Президент Линкълн“ 94A вход от страната на паркинга ет.2","addr:city":"София","addr:state":"София-град","addr:postcode":"1632","addr:country":"BG","name":"easybox 1161 Търговски Център Овча Купел","opening_hours":"Mo-Sa 10:00-19:30; Su 10:00-18:00","brand":"easybox","brand:wikidata":"Q114496224","operator:wikidata":"Q114417096"},"coordinates":[42.690114,23.254108]},"tags_mismatch":false,"dist":0},{"osm":false,"atp":{"id":"P7HjgTjlVNJ45gGBTh_nIeBUnjM=","tags":{"amenity":"parcel_locker","parcel_mail_in":"yes","parcel_pickup":"yes","addr:full":"Бизнес Парк София, Сграда 11А, от лявата страна на магазин DM","addr:city":"София","addr:state":"София-град","addr:postcode":"1715","addr:country":"BG","name":"easybox 1160 Бизнес Парк София Сграда 11А","opening_hours":"24/7","brand":"easybox","brand:wikidata":"Q114496224","operator:wikidata":"Q114417096"},"coordinates":[42.626681,23.37614]},"tags_mismatch":false,"dist":0},{"osm":false,"atp":{"id":"3dLg0Cs3i1RnX6CQZ4_uPDEZQ-E=","tags":{"amenity":"parcel_locker","parcel_mail_in":"yes","parcel_pickup":"yes","addr:full":"бул. Ситняково 23, до 23-то училище","addr:city":"София","addr:state":"София-град","addr:postcode":"1505","addr:country":"BG","name":"easybox 1159 Център Ситняково","opening_hours":"24/7","brand":"easybox","brand:wikidata":"Q114496224","operator:wikidata":"Q114417096"},"coordinates":[42.694679,23.355575]},"tags_mismatch":false,"dist":0},{"osm":false,"atp":{"id":"Dji8j5BeYAPWjBJnXqYl7xxOTYc=","tags":{"amenity":"parcel_locker","parcel_mail_in":"yes","parcel_pickup":"yes","addr:full":"бул. Черни връх 47 административна сграда ПАРТЕР, зад рецепция","addr:city":"София","addr:state":"София-град","addr:postcode":"1407","addr:country":"BG","name":"easybox 1158 Бизнес Център Витоша","opening_hours":"Mo-Su 09:00-21:00","brand":"easybox","brand:wikidata":"Q114496224","operator:wikidata":"Q114417096"},"coordinates":[42.66165,23.317635]},"tags_mismatch":false,"dist":0},{"osm":false,"atp":{"id":"DX4aiZcvaq7daV30ATLFf7OacWw=","tags":{"amenity":"parcel_locker","parcel_mail_in":"yes","parcel_pickup":"yes","addr:full":"Младост 4 Бл. 438 вх. Б","addr:city":"София","addr:state":"София-град","addr:postcode":"1715","addr:country":"BG","name":"easybox 1157 бл.438 вх.Б Младост 4","opening_hours":"24/7","brand":"easybox","brand:wikidata":"Q114496224","operator:wikidata":"Q114417096"},"coordinates":[42.631747,23.374584]},"tags_mismatch":false,"dist":0},{"osm":false,"atp":{"id":"8SItnKUhRZxZJNo5C_76t7l6YII=","tags":{"amenity":"parcel_locker","parcel_mail_in":"yes","parcel_pickup":"yes","addr:full":"бул. „Цар Борис III“ 375","addr:city":"София","addr:state":"София-град","addr:postcode":"1619","addr:country":"BG","name":"easybox 1156 Читалище Братя Миладинови","opening_hours":"24/7","brand":"easybox","brand:wikidata":"Q114496224","operator:wikidata":"Q114417096"},"coordinates":[42.658502,23.239859]},"tags_mismatch":false,"dist":0},{"osm":false,"atp":{"id":"wND0yl8FMlQs2tuwiuiEdJ2AlS4=","tags":{"amenity":"parcel_locker","parcel_mail_in":"yes","parcel_pickup":"yes","addr:full":"бул. БРАТЯ БЪКСТОН 40, до ресторанта","addr:city":"София","addr:state":"София-град","addr:postcode":"1618","addr:country":"BG","name":"easybox 1155 Интрансмаш Инженеринг","opening_hours":"Mo-Sa 09:00-21:00; Su 00:00-24:00","brand":"easybox","brand:wikidata":"Q114496224","operator:wikidata":"Q114417096"},"coordinates":[42.665829,23.274915]},"tags_mismatch":false,"dist":0},{"osm":false,"atp":{"id":"Fk4TPzFzBunqR7rYZJXDdvDDx5s=","tags":{"amenity":"parcel_locker","parcel_mail_in":"yes","parcel_pickup":"yes","addr:full":"ул. Партений Нишавски 10, до рецепция","addr:city":"София","addr:state":"София-град","addr:postcode":"1303","addr:country":"BG","name":"easybox 1154 БЦ Блу Палас","opening_hours":"Mo-Fr 08:00-21:00; Sa-Su 09:00-20:00","brand":"easybox","brand:wikidata":"Q114496224","operator:wikidata":"Q114417096"},"coordinates":[42.697095,23.305152]},"tags_mismatch":false,"dist":0},{"osm":false,"atp":{"id":"MbIwF4I9Lj2U6WUIJ8zcNJ2bMW8=","tags":{"amenity":"parcel_locker","parcel_mail_in":"yes","parcel_pickup":"yes","addr:full":"ул. Коста Лулчев 52, ниво партер","addr:city":"София","addr:state":"София-град","addr:postcode":"1574","addr:country":"BG","name":"easybox 1153 Скай Сити Център","opening_hours":"Mo-Su 10:00-21:00","brand":"easybox","brand:wikidata":"Q114496224","operator:wikidata":"Q114417096"},"coordinates":[42.679728,23.367271]},"tags_mismatch":false,"dist":0},{"osm":false,"atp":{"id":"c2FUNb1nsFjuAbAK_vPCiEJ8pcY=","tags":{"amenity":"parcel_locker","parcel_mail_in":"yes","parcel_pickup":"yes","addr:full":"ул. Софроний Врачански 18, във входа","addr:city":"Варна","addr:state":"Варна","addr:postcode":"9000","addr:country":"BG","name":"easybox 9047 КООП Варна Централен офис","opening_hours":"Mo-Fr 06:30-19:00; Sa-Su 08:00-19:00","brand":"easybox","brand:wikidata":"Q114496224","operator:wikidata":"Q114417096"},"coordinates":[43.199795,27.913654]},"tags_mismatch":false,"dist":0},{"osm":false,"atp":{"id":"rGHEJA5ojtubHs5Ystqxd8KjDKs=","tags":{"amenity":"parcel_locker","parcel_mail_in":"yes","parcel_pickup":"yes","addr:full":"ул. Ради Радев 18","addr:city":"София","addr:state":"София-град","addr:postcode":"1700","addr:country":"BG","name":"easybox 1152 Р.М. Мениджмънт","opening_hours":"24/7","brand":"easybox","brand:wikidata":"Q114496224","operator:wikidata":"Q114417096"},"coordinates":[42.653247,23.329461]},"tags_mismatch":false,"dist":0},{"osm":false,"atp":{"id":"SYuEkXkauogAmsbHD03C3is49uY=","tags":{"amenity":"parcel_locker","parcel_mail_in":"yes","parcel_pickup":"yes","addr:full":"ж.к. Изгрев бл. 101, на входа на магазина","addr:city":"Бургас","addr:state":"Бургас","addr:postcode":"8008","addr:country":"BG","name":"easybox 8023 Болеро Бургас Изгрев","opening_hours":"Mo-Sa 07:00-22:00; Su 00:00-22:00","brand":"easybox","brand:wikidata":"Q114496224","operator:wikidata":"Q114417096"},"coordinates":[42.524786,27.464779]},"tags_mismatch":false,"dist":0},{"osm":false,"atp":{"id":"Fc-FZGv8d_HVVajVMccK-HDThfw=","tags":{"amenity":"parcel_locker","parcel_mail_in":"yes","parcel_pickup":"yes","addr:full":"бул. Сюрен 29","addr:city":"Търговище","addr:state":"Търговище","addr:postcode":"7702","addr:country":"BG","name":"easybox 7706 Ритейл парк Търговище","opening_hours":"Mo-Sa 08:00-21:00; Su 00:00-24:00","brand":"easybox","brand:wikidata":"Q114496224","operator:wikidata":"Q114417096"},"coordinates":[43.241802,26.55801]},"tags_mismatch":false,"dist":0},{"osm":false,"atp":{"id":"_88MFUS5B09d9fr_2yMUwuGwPEQ=","tags":{"amenity":"parcel_locker","parcel_mail_in":"yes","parcel_pickup":"yes","addr:full":"ул. Кукуряк 3","addr:city":"София","addr:state":"София-град","addr:postcode":"1618","addr:country":"BG","name":"easybox 1151 Кауфланд София Овча Купел","opening_hours":"24/7","brand":"easybox","brand:wikidata":"Q114496224","operator:wikidata":"Q114417096"},"coordinates":[42.683231,23.2674]},"tags_mismatch":false,"dist":0},{"osm":false,"atp":{"id":"4YI6k--qfjJgOevctaqgPDyHyK4=","tags":{"amenity":"parcel_locker","parcel_mail_in":"yes","parcel_pickup":"yes","addr:full":"бул. Александър Малинов 75, на изхода на магазин ХИТ","addr:city":"София","addr:state":"София-град","addr:postcode":"1712","addr:country":"BG","name":"easybox 1150 Хит Макс Младост","opening_hours":"Mo-Su 08:00-22:00","brand":"easybox","brand:wikidata":"Q114496224","operator:wikidata":"Q114417096"},"coordinates":[42.638146,23.372201]},"tags_mismatch":false,"dist":0},{"osm":false,"atp":{"id":"m40Bvxkx1QnYoO6uydk1xHRRg6I=","tags":{"amenity":"parcel_locker","parcel_mail_in":"yes","parcel_pickup":"yes","addr:full":"ул. „Обелско шосе“ 20, на изхода на магазин ХИТ след касите","addr:city":"София","addr:state":"София-град","addr:postcode":"1360","addr:country":"BG","name":"easybox 1148 Хит Макс Модерно Предградие","opening_hours":"Mo-Sa 08:00-22:00; Su 08:00-24:00","brand":"easybox","brand:wikidata":"Q114496224","operator:wikidata":"Q114417096"},"coordinates":[42.730915,23.268041]},"tags_mismatch":false,"dist":0},{"osm":false,"atp":{"id":"sTyaF04kHPXthwuS4n5b_jisIBU=","tags":{"amenity":"parcel_locker","parcel_mail_in":"yes","parcel_pickup":"yes","addr:full":"бул. История славянобългарска 21, до магазин Хиполенд","addr:city":"София","addr:state":"София-град","addr:postcode":"1220","addr:country":"BG","name":"easybox 1147 Ритейл Парк Средец","opening_hours":"Mo-Su 09:00-21:00","brand":"easybox","brand:wikidata":"Q114496224","operator:wikidata":"Q114417096"},"coordinates":[42.718228,23.314514]},"tags_mismatch":false,"dist":0},{"osm":false,"atp":{"id":"BSRXbcxLZLPh3DDj0vTLNRXnlUQ=","tags":{"amenity":"parcel_locker","parcel_mail_in":"yes","parcel_pickup":"yes","addr:full":"ул. д-р Стоян Чомаков 20 в магазина","addr:city":"София","addr:state":"София-град","addr:postcode":"1750","addr:country":"BG","name":"easybox 1146 Бакалия  Младост 1","opening_hours":"Mo-Su 08:00-22:00","brand":"easybox","brand:wikidata":"Q114496224","operator:wikidata":"Q114417096"},"coordinates":[42.660307,23.374446]},"tags_mismatch":false,"dist":0},{"osm":false,"atp":{"id":"VJCDG-adhBc_47M8avpIkjPbBuE=","tags":{"amenity":"parcel_locker","parcel_mail_in":"yes","parcel_pickup":"yes","addr:full":"Банкя ул.Александър Стамболийски 30 в магазина","addr:city":"Банкя","addr:state":"София-град","addr:postcode":"1320","addr:country":"BG","name":"easybox 1226 Бакалия Банкя","opening_hours":"24/7","brand":"easybox","brand:wikidata":"Q114496224","operator:wikidata":"Q114417096"},"coordinates":[42.710145,23.140432]},"tags_mismatch":false,"dist":0},{"osm":false,"atp":{"id":"BKBJVd9qrZ02H2Z5BXbxYh43iJM=","tags":{"amenity":"parcel_locker","parcel_mail_in":"yes","parcel_pickup":"yes","addr:full":"Жк . Люлин 7, с/у бл.702","addr:city":"София","addr:state":"София-град","addr:postcode":"1324","addr:country":"BG","name":"easybox 1144 Бакалия  Люлин 7","opening_hours":"24/7","brand":"easybox","brand:wikidata":"Q114496224","operator:wikidata":"Q114417096"},"coordinates":[42.711786,23.266778]},"tags_mismatch":false,"dist":0},{"osm":false,"atp":{"id":"y982T9EDWkpKskhISD1el8ZTcac=","tags":{"amenity":"parcel_locker","parcel_mail_in":"yes","parcel_pickup":"yes","addr:full":"ул. Лъчезар Станчев 5","addr:city":"София","addr:state":"София-град","addr:postcode":"1797","addr:country":"BG","name":"easybox 1143 Софарма Бизнес Тауърс","opening_hours":"24/7","brand":"easybox","brand:wikidata":"Q114496224","operator:wikidata":"Q114417096"},"coordinates":[42.666471,23.356987]},"tags_mismatch":false,"dist":0},{"osm":false,"atp":{"id":"xEAmqXuSxd6-bZfEscXvkGTshA0=","tags":{"amenity":"parcel_locker","parcel_mail_in":"yes","parcel_pickup":"yes","addr:full":"ул. Илия Бешков 12 ляво от входа на outlet MANIA","addr:city":"София","addr:state":"София-град","addr:postcode":"1592","addr:country":"BG","name":"easybox 1142 Мания Офис1 Илия Бешков","opening_hours":"24/7","brand":"easybox","brand:wikidata":"Q114496224","operator:wikidata":"Q114417096"},"coordinates":[42.65733,23.401162]},"tags_mismatch":false,"dist":0},{"osm":false,"atp":{"id":"sLdbf4YsBxmWlgEPgOAvv_r7QqI=","tags":{"amenity":"parcel_locker","parcel_mail_in":"yes","parcel_pickup":"yes","addr:full":"ул. Гладстон 1","addr:city":"Пловдив","addr:state":"Пловдив","addr:postcode":"4000","addr:country":"BG","name":"easybox 4050 Дом на Науката и Техниката","opening_hours":"24/7","brand":"easybox","brand:wikidata":"Q114496224","operator:wikidata":"Q114417096"},"coordinates":[42.142659,24.745332]},"tags_mismatch":false,"dist":0},{"osm":false,"atp":{"id":"Mk3btIvqfAVHF79Qb_4_4PrN1lg=","tags":{"amenity":"parcel_locker","parcel_mail_in":"yes","parcel_pickup":"yes","addr:full":"ул. Акад. Андрей Сахаров 2, ниво -1, над хранителния магазин","addr:city":"Варна","addr:state":"Варна","addr:postcode":"9000","addr:country":"BG","name":"easybox 9046 Гранд Мол Варна","opening_hours":"Mo-Su 10:00-22:00","brand":"easybox","brand:wikidata":"Q114496224","operator:wikidata":"Q114417096"},"coordinates":[43.217948,27.898333]},"tags_mismatch":false,"dist":0},{"osm":false,"atp":{"id":"sgQBjqGzg6XfeiWKthEy9_G6wUU=","tags":{"amenity":"parcel_locker","parcel_mail_in":"yes","parcel_pickup":"yes","addr:full":"бул. 2ри Юни 165, офис на Изипей","addr:city":"Враца","addr:state":"Враца","addr:postcode":"3001","addr:country":"BG","name":"easybox 3004 Враца 2ри Юни","opening_hours":"24/7","brand":"easybox","brand:wikidata":"Q114496224","operator:wikidata":"Q114417096"},"coordinates":[43.195107,23.567764]},"tags_mismatch":false,"dist":0},{"osm":false,"atp":{"id":"lK1hzpVs6GDGf2QtV5ovevwI1e8=","tags":{"amenity":"parcel_locker","parcel_mail_in":"yes","parcel_pickup":"yes","addr:full":"пл. Кракра Пернишки № 1, до рецепцията","addr:city":"Перник","addr:state":"Перник","addr:postcode":"2300","addr:country":"BG","name":"easybox 2317 Хотел Струма Перник","opening_hours":"24/7","brand":"easybox","brand:wikidata":"Q114496224","operator:wikidata":"Q114417096"},"coordinates":[42.604934,23.031372]},"tags_mismatch":false,"dist":0},{"osm":false,"atp":{"id":"O3J2l9k37T83NOPxvtcUSu1W8Hs=","tags":{"amenity":"parcel_locker","parcel_mail_in":"yes","parcel_pickup":"yes","addr:full":"бул. св. Климент Охридски 18, Супермаркет Рекорд","addr:city":"София","addr:state":"София-град","addr:postcode":"1700","addr:country":"BG","name":"easybox 1141 магазин Рекорд","opening_hours":"Mo-Su 07:00-22:00","brand":"easybox","brand:wikidata":"Q114496224","operator:wikidata":"Q114417096"},"coordinates":[42.646816,23.354334]},"tags_mismatch":false,"dist":0},{"osm":false,"atp":{"id":"2FbSu_iUwIr6YRERvX2t-yaAYfE=","tags":{"amenity":"parcel_locker","parcel_mail_in":"yes","parcel_pickup":"yes","addr:full":"ул. Търговска","addr:city":"Ловеч","addr:state":"Ловеч","addr:postcode":"5500","addr:country":"BG","name":"easybox 5505 Сити Център Ловеч","opening_hours":"Mo-Su 08:00-22:00","brand":"easybox","brand:wikidata":"Q114496224","operator:wikidata":"Q114417096"},"coordinates":[43.13635,24.717274]},"tags_mismatch":false,"dist":0},{"osm":false,"atp":{"id":"D9hNp8w04pT7YBjI6o1Y7wuZJsw=","tags":{"amenity":"parcel_locker","parcel_mail_in":"yes","parcel_pickup":"yes","addr:full":"ул. Оборище 18, паркинг долна част","addr:city":"Велико Търново","addr:state":"Велико Търново","addr:postcode":"5000","addr:country":"BG","name":"easybox 5013 Мол Велико Търново","opening_hours":"Mo-Su 10:00-21:00","brand":"easybox","brand:wikidata":"Q114496224","operator:wikidata":"Q114417096"},"coordinates":[43.078958,25.600133]},"tags_mismatch":false,"dist":0},{"osm":false,"atp":{"id":"slWaBeQ-5i82hnGH2x1mU6-8bpQ=","tags":{"amenity":"parcel_locker","parcel_mail_in":"yes","parcel_pickup":"yes","addr:full":"бул. Панчо Владигеров 28","addr:city":"София","addr:state":"София-град","addr:postcode":"1000","addr:country":"BG","name":"easybox 1140 Люлин Трейд Пропъртис","opening_hours":"24/7","brand":"easybox","brand:wikidata":"Q114496224","operator:wikidata":"Q114417096"},"coordinates":[42.713313,23.248146]},"tags_mismatch":false,"dist":0},{"osm":false,"atp":{"id":"NwhRT60bnxIUjRSpHJK7X-lAUb0=","tags":{"amenity":"parcel_locker","parcel_mail_in":"yes","parcel_pickup":"yes","addr:full":"ул. Добри Чинтулов 35","addr:city":"Поморие","addr:state":"Бургас","addr:postcode":"8200","addr:country":"BG","name":"easybox 8022 Болеро Поморие","opening_hours":"24/7","brand":"easybox","brand:wikidata":"Q114496224","operator:wikidata":"Q114417096"},"coordinates":[42.570265,27.61295]},"tags_mismatch":false,"dist":0},{"osm":false,"atp":{"id":"QMDXQWcxBaqrDVI4cx1qND_xBYA=","tags":{"amenity":"parcel_locker","parcel_mail_in":"yes","parcel_pickup":"yes","addr:full":"бул. Васил Априлов 40 партер срещу хранителен магазин","addr:city":"Габрово","addr:state":"Габрово","addr:postcode":"5300","addr:country":"BG","name":"easybox 5309 Мол Габрово","opening_hours":"Mo-Su 09:00-20:00","brand":"easybox","brand:wikidata":"Q114496224","operator:wikidata":"Q114417096"},"coordinates":[42.867716,25.316982]},"tags_mismatch":false,"dist":0},{"osm":false,"atp":{"id":"UR5YIoanpA8HaTqzOeuZz6PFx5c=","tags":{"amenity":"parcel_locker","parcel_mail_in":"yes","parcel_pickup":"yes","addr:full":"ул. Ломско шосе 26","addr:city":"Костинброд","addr:state":"София","addr:postcode":"2230","addr:country":"BG","name":"easybox 2012 ТЦ Резонанс Костинброд","opening_hours":"24/7","brand":"easybox","brand:wikidata":"Q114496224","operator:wikidata":"Q114417096"},"coordinates":[42.810069,23.217392]},"tags_mismatch":false,"dist":0},{"osm":false,"atp":{"id":"nv3pmGKt-LUHIt2NLWQZDSaVdyg=","tags":{"amenity":"parcel_locker","parcel_mail_in":"yes","parcel_pickup":"yes","addr:full":"ул.Кракра 73","addr:city":"Перник","addr:state":"Перник","addr:postcode":"2300","addr:country":"BG","name":"easybox 2316 Гризли 1","opening_hours":"Mo-Su 08:00-22:00","brand":"easybox","brand:wikidata":"Q114496224","operator:wikidata":"Q114417096"},"coordinates":[42.596328,23.023158]},"tags_mismatch":false,"dist":0},{"osm":false,"atp":{"id":"DCU9J6_coAkm_98Pw27g4kr2w4w=","tags":{"amenity":"parcel_locker","parcel_mail_in":"yes","parcel_pickup":"yes","addr:full":"ул. Одрин срещу № 63 Магазин до игрището","addr:city":"Перник","addr:state":"Перник","addr:postcode":"2301","addr:country":"BG","name":"easybox 2315 Гризли 2","opening_hours":"Mo-Su 08:00-22:00","brand":"easybox","brand:wikidata":"Q114496224","operator:wikidata":"Q114417096"},"coordinates":[42.61653,23.039811]},"tags_mismatch":false,"dist":0},{"osm":false,"atp":{"id":"-vldNNZkbV_ixyn5t6oulAiBkTE=","tags":{"amenity":"parcel_locker","parcel_mail_in":"yes","parcel_pickup":"yes","addr:full":"ул. Каменица 2Б","addr:city":"София","addr:state":"София-град","addr:postcode":"1614","addr:country":"BG","name":"easybox 1139 Нон Стоп Горна Баня","opening_hours":"24/7","brand":"easybox","brand:wikidata":"Q114496224","operator:wikidata":"Q114417096"},"coordinates":[42.67754,23.235722]},"tags_mismatch":false,"dist":0},{"osm":false,"atp":{"id":"enZ7nyuutwZ2mNcpmkP7Gag1F_E=","tags":{"amenity":"parcel_locker","parcel_mail_in":"yes","parcel_pickup":"yes","addr:full":"ул. Света Ирина 1","addr:city":"Варна","addr:state":"Варна","addr:postcode":"9010","addr:country":"BG","name":"easybox 9045 ОМВ Варна Св. Ирина","opening_hours":"24/7","brand":"easybox","brand:wikidata":"Q114496224","operator:wikidata":"Q114417096"},"coordinates":[43.219508,27.927155]},"tags_mismatch":false,"dist":0},{"osm":false,"atp":{"id":"RxoaxfJ-SDHu8-QZ-lOwUeOhk70=","tags":{"amenity":"parcel_locker","parcel_mail_in":"yes","parcel_pickup":"yes","addr:full":"бул. Сливница 184","addr:city":"Варна","addr:state":"Варна","addr:postcode":"9027","addr:country":"BG","name":"easybox 9044 ОМВ Варна Сливница","opening_hours":"24/7","brand":"easybox","brand:wikidata":"Q114496224","operator:wikidata":"Q114417096"},"coordinates":[43.228422,27.877405]},"tags_mismatch":false,"dist":0},{"osm":false,"atp":{"id":"AhdGzQcOlRZR2mCH9wiihLBInK4=","tags":{"amenity":"parcel_locker","parcel_mail_in":"yes","parcel_pickup":"yes","addr:full":"бул. Владислав Варненчик 158А","addr:city":"Варна","addr:state":"Варна","addr:postcode":"9009","addr:country":"BG","name":"easybox 9043 ОМВ Варна Варненчик","opening_hours":"24/7","brand":"easybox","brand:wikidata":"Q114496224","operator:wikidata":"Q114417096"},"coordinates":[43.215929,27.896515]},"tags_mismatch":false,"dist":0},{"osm":false,"atp":{"id":"utFve0o3PaobKJcRA4Ry7neCY7I=","tags":{"amenity":"parcel_locker","parcel_mail_in":"yes","parcel_pickup":"yes","addr:full":"бул. Христо Смирненски 45","addr:city":"Варна","addr:state":"Варна","addr:postcode":"9009","addr:country":"BG","name":"easybox 9042 ОМВ Варна Смирненски","opening_hours":"24/7","brand":"easybox","brand:wikidata":"Q114496224","operator:wikidata":"Q114417096"},"coordinates":[43.228395,27.90289]},"tags_mismatch":false,"dist":0},{"osm":false,"atp":{"id":"z31PYyo4Ti65352UQG3EBRaaT14=","tags":{"amenity":"parcel_locker","parcel_mail_in":"yes","parcel_pickup":"yes","addr:full":"бул. Дунав 1А","addr:city":"Варна","addr:state":"Варна","addr:postcode":"9000","addr:country":"BG","name":"easybox 9041 ОМВ Варна Дунав","opening_hours":"24/7","brand":"easybox","brand:wikidata":"Q114496224","operator:wikidata":"Q114417096"},"coordinates":[43.199343,27.911234]},"tags_mismatch":false,"dist":0},{"osm":false,"atp":{"id":"3rCihKzCsljpTpY1DbSSyEk4qXA=","tags":{"amenity":"parcel_locker","parcel_mail_in":"yes","parcel_pickup":"yes","addr:full":"бул. Васил Левски 42","addr:city":"Варна","addr:state":"Варна","addr:postcode":"9010","addr:country":"BG","name":"easybox 9040 ОМВ Варна Бриз","opening_hours":"24/7","brand":"easybox","brand:wikidata":"Q114496224","operator:wikidata":"Q114417096"},"coordinates":[43.220089,27.938477]},"tags_mismatch":false,"dist":0},{"osm":false,"atp":{"id":"nAm-UYuftc3_sbkvDMggauJduyc=","tags":{"amenity":"parcel_locker","parcel_mail_in":"yes","parcel_pickup":"yes","addr:full":"бул. Кукленско шосе 3Б","addr:city":"Пловдив","addr:state":"Пловдив","addr:postcode":"4000","addr:country":"BG","name":"easybox 4048 ОМВ Пловдив Кукленско","opening_hours":"24/7","brand":"easybox","brand:wikidata":"Q114496224","operator:wikidata":"Q114417096"},"coordinates":[42.129412,24.756084]},"tags_mismatch":false,"dist":0},{"osm":false,"atp":{"id":"QOUNJvTVz5SeUZY-tFKDPF7IJKE=","tags":{"amenity":"parcel_locker","parcel_mail_in":"yes","parcel_pickup":"yes","addr:full":"бул. България 97","addr:city":"Пловдив","addr:state":"Пловдив","addr:postcode":"4000","addr:country":"BG","name":"easybox 4047 ОМВ Пловдив България","opening_hours":"24/7","brand":"easybox","brand:wikidata":"Q114496224","operator:wikidata":"Q114417096"},"coordinates":[42.158328,24.734308]},"tags_mismatch":false,"dist":0},{"osm":false,"atp":{"id":"DpHrevi2JLakXFZsClQTkn2LFC0=","tags":{"amenity":"parcel_locker","parcel_mail_in":"yes","parcel_pickup":"yes","addr:full":"бул. 6-ти Септември 241","addr:city":"Пловдив","addr:state":"Пловдив","addr:postcode":"4000","addr:country":"BG","name":"easybox 4046 ОМВ Пловдив 6-ти Септември","opening_hours":"24/7","brand":"easybox","brand:wikidata":"Q114496224","operator:wikidata":"Q114417096"},"coordinates":[42.149654,24.77781]},"tags_mismatch":false,"dist":0},{"osm":false,"atp":{"id":"59N0xp2sG8Ju9imzrpC5nDm6820=","tags":{"amenity":"parcel_locker","parcel_mail_in":"yes","parcel_pickup":"yes","addr:full":"бул. Сливница 189","addr:city":"Варна","addr:state":"Варна","addr:postcode":"9009","addr:country":"BG","name":"easybox 9039 EKO Варна Сливница","opening_hours":"24/7","brand":"easybox","brand:wikidata":"Q114496224","operator:wikidata":"Q114417096"},"coordinates":[43.221127,27.897063]},"tags_mismatch":false,"dist":0},{"osm":false,"atp":{"id":"7CVHfeN3u05SOUW51pNdiyFOM_M=","tags":{"amenity":"parcel_locker","parcel_mail_in":"yes","parcel_pickup":"yes","addr:full":"бул. Владислав Варненчик 240","addr:city":"Варна","addr:state":"Варна","addr:postcode":"9009","addr:country":"BG","name":"easybox 9038 EKO Варна Ситроен","opening_hours":"24/7","brand":"easybox","brand:wikidata":"Q114496224","operator:wikidata":"Q114417096"},"coordinates":[43.222836,27.871088]},"tags_mismatch":false,"dist":0},{"osm":false,"atp":{"id":"tz3622wMfB76NdWFVTwa6Bqn82U=","tags":{"amenity":"parcel_locker","parcel_mail_in":"yes","parcel_pickup":"yes","addr:full":"ул. Девня 3","addr:city":"Варна","addr:state":"Варна","addr:postcode":"9000","addr:country":"BG","name":"easybox 9037 EKO Варна Порт","opening_hours":"24/7","brand":"easybox","brand:wikidata":"Q114496224","operator:wikidata":"Q114417096"},"coordinates":[43.199854,27.907297]},"tags_mismatch":false,"dist":0},{"osm":false,"atp":{"id":"c1klED8WYkskXdWICbKCoDd6vVs=","tags":{"amenity":"parcel_locker","parcel_mail_in":"yes","parcel_pickup":"yes","addr:full":"бул. Васил Левски под стадион Чайка","addr:city":"Варна","addr:state":"Варна","addr:postcode":"9010","addr:country":"BG","name":"easybox 9036 EKO Варна Газко","opening_hours":"24/7","brand":"easybox","brand:wikidata":"Q114496224","operator:wikidata":"Q114417096"},"coordinates":[43.219824,27.940739]},"tags_mismatch":false,"dist":0},{"osm":false,"atp":{"id":"vC4Wz2bWp495bWS90o5kLwDd-Z0=","tags":{"amenity":"parcel_locker","parcel_mail_in":"yes","parcel_pickup":"yes","addr:full":"ул. Първа 87 Евксиноград","addr:city":"Варна","addr:state":"Варна","addr:postcode":"9000","addr:country":"BG","name":"easybox 9035 EKO Варна Евксиноград","opening_hours":"24/7","brand":"easybox","brand:wikidata":"Q114496224","operator:wikidata":"Q114417096"},"coordinates":[43.224352,27.99399]},"tags_mismatch":false,"dist":0},{"osm":false,"atp":{"id":"D1fCas7A5PNK5X7BNHJd6js3SRI=","tags":{"amenity":"parcel_locker","parcel_mail_in":"yes","parcel_pickup":"yes","addr:full":"бул. Васил Априлов 156Б","addr:city":"Пловдив","addr:state":"Пловдив","addr:postcode":"4027","addr:country":"BG","name":"easybox 4045 EKO Пловдив Априлов","opening_hours":"24/7","brand":"easybox","brand:wikidata":"Q114496224","operator:wikidata":"Q114417096"},"coordinates":[42.166515,24.723708]},"tags_mismatch":false,"dist":0},{"osm":false,"atp":{"id":"zN1yFoniEdz6uW9HkImIJcmslFM=","tags":{"amenity":"parcel_locker","parcel_mail_in":"yes","parcel_pickup":"yes","addr:full":"бул. Кукленско шосе“ 22","addr:city":"Пловдив","addr:state":"Пловдив","addr:postcode":"4004","addr:country":"BG","name":"easybox 4044 EKO Пловдив Кукленско","opening_hours":"24/7","brand":"easybox","brand:wikidata":"Q114496224","operator:wikidata":"Q114417096"},"coordinates":[42.112015,24.759149]},"tags_mismatch":false,"dist":0},{"osm":false,"atp":{"id":"DBhbvYRbIN_i7cViO1MyhvoipRw=","tags":{"amenity":"parcel_locker","parcel_mail_in":"yes","parcel_pickup":"yes","addr:full":"ул. Сергей Румянцев 8","addr:city":"Пловдив","addr:state":"Пловдив","addr:postcode":"4002","addr:country":"BG","name":"easybox 4043 EKO Пловдив Ботев","opening_hours":"24/7","brand":"easybox","brand:wikidata":"Q114496224","operator:wikidata":"Q114417096"},"coordinates":[42.132924,24.731662]},"tags_mismatch":false,"dist":0},{"osm":false,"atp":{"id":"TJxjX701HmLx0VGl_S2ZuukiBcQ=","tags":{"amenity":"parcel_locker","parcel_mail_in":"yes","parcel_pickup":"yes","addr:full":"бул. Пещерско шосе 156","addr:city":"Пловдив","addr:state":"Пловдив","addr:postcode":"4015","addr:country":"BG","name":"easybox 4042 EKO Пловдив Пещерско","opening_hours":"24/7","brand":"easybox","brand:wikidata":"Q114496224","operator:wikidata":"Q114417096"},"coordinates":[42.131017,24.689998]},"tags_mismatch":false,"dist":0},{"osm":false,"atp":{"id":"mrJbj5VCz6z2hlg9xpIQne78hkk=","tags":{"amenity":"parcel_locker","parcel_mail_in":"yes","parcel_pickup":"yes","addr:full":"бул. България 2","addr:city":"Пловдив","addr:state":"Пловдив","addr:postcode":"4021","addr:country":"BG","name":"easybox 4041 EKO Пловдив България","opening_hours":"24/7","brand":"easybox","brand:wikidata":"Q114496224","operator:wikidata":"Q114417096"},"coordinates":[42.160315,24.763244]},"tags_mismatch":false,"dist":0},{"osm":false,"atp":{"id":"fyrImQ3wI_GZeIhpPoNPsy9m8M4=","tags":{"amenity":"parcel_locker","parcel_mail_in":"yes","parcel_pickup":"yes","addr:full":"бул. Цариградско Шосе 1","addr:city":"Пловдив","addr:state":"Пловдив","addr:postcode":"4006","addr:country":"BG","name":"easybox 4040 EKO Пловдив Цариградско","opening_hours":"24/7","brand":"easybox","brand:wikidata":"Q114496224","operator:wikidata":"Q114417096"},"coordinates":[42.149477,24.775385]},"tags_mismatch":false,"dist":0},{"osm":false,"atp":{"id":"MZj4CufalF2ecwMeVLGNDLA-Q8M=","tags":{"amenity":"parcel_locker","parcel_mail_in":"yes","parcel_pickup":"yes","addr:full":"бул. Ал. Стамболийски и ул. Д. Талев","addr:city":"Пловдив","addr:state":"Пловдив","addr:postcode":"4004","addr:country":"BG","name":"easybox 4039 EKO Пловдив Талев","opening_hours":"24/7","brand":"easybox","brand:wikidata":"Q114496224","operator:wikidata":"Q114417096"},"coordinates":[42.119041,24.73599]},"tags_mismatch":false,"dist":0},{"osm":false,"atp":{"id":"WaAzz_ETZ3FUrcgRGkfuq7tKcbI=","tags":{"amenity":"parcel_locker","parcel_mail_in":"yes","parcel_pickup":"yes","addr:full":"ул. Феникс 38","addr:city":"София","addr:state":"София-град","addr:postcode":"1632","addr:country":"BG","name":"easybox 1137 Феникс38 София","opening_hours":"24/7","brand":"easybox","brand:wikidata":"Q114496224","operator:wikidata":"Q114417096"},"coordinates":[42.687122,23.247009]},"tags_mismatch":false,"dist":0},{"osm":false,"atp":{"id":"GLzWcUBdHmxe-i4rQY46tjfTtmM=","tags":{"amenity":"parcel_locker","parcel_mail_in":"yes","parcel_pickup":"yes","addr:full":"Околовръстен път 219","addr:city":"София","addr:state":"София-град","addr:postcode":"1434","addr:country":"BG","name":"easybox 1136 EKO Малинова Долина","opening_hours":"24/7","brand":"easybox","brand:wikidata":"Q114496224","operator:wikidata":"Q114417096"},"coordinates":[42.628451,23.34601]},"tags_mismatch":false,"dist":0},{"osm":false,"atp":{"id":"FmLsYglPllweFdI-3QAqPFQGKe4=","tags":{"amenity":"parcel_locker","parcel_mail_in":"yes","parcel_pickup":"yes","addr:full":"бул. Царица Йоанна","addr:city":"София","addr:state":"София-град","addr:postcode":"1324","addr:country":"BG","name":"easybox 1134 EKO Люлин 7","opening_hours":"24/7","brand":"easybox","brand:wikidata":"Q114496224","operator:wikidata":"Q114417096"},"coordinates":[42.714923,23.263138]},"tags_mismatch":false,"dist":0},{"osm":false,"atp":{"id":"KppNcmOjfopCP0g6ng3LAZ7oqhw=","tags":{"amenity":"parcel_locker","parcel_mail_in":"yes","parcel_pickup":"yes","addr:full":"2 Asenova Krepost str.","addr:city":"София","addr:state":"София-град","addr:postcode":"1505","addr:country":"BG","name":"easybox 1133 Асенова Крепост 2","opening_hours":"24/7","brand":"easybox","brand:wikidata":"Q114496224","operator:wikidata":"Q114417096"},"coordinates":[42.693842,23.364596]},"tags_mismatch":false,"dist":0},{"osm":false,"atp":{"id":"HE-6Py6UxhaS65DrQ-RNqExI53E=","tags":{"amenity":"parcel_locker","parcel_mail_in":"yes","parcel_pickup":"yes","addr:full":"ул. Резбарска и ул. Никола Войновски","addr:city":"София","addr:state":"София-град","addr:postcode":"1510","addr:country":"BG","name":"easybox 1132 EKO Резбарска","opening_hours":"24/7","brand":"easybox","brand:wikidata":"Q114496224","operator:wikidata":"Q114417096"},"coordinates":[42.710568,23.34941]},"tags_mismatch":false,"dist":0},{"osm":false,"atp":{"id":"_cL_hf1odDMtR7RBeBBYSVvZKVw=","tags":{"amenity":"parcel_locker","parcel_mail_in":"yes","parcel_pickup":"yes","addr:full":"бул. Черни връх 67","addr:city":"София","addr:state":"София-град","addr:postcode":"1407","addr:country":"BG","name":"easybox 1131 EKO Черни Връх","opening_hours":"24/7","brand":"easybox","brand:wikidata":"Q114496224","operator:wikidata":"Q114417096"},"coordinates":[42.651409,23.31622]},"tags_mismatch":false,"dist":0},{"osm":false,"atp":{"id":"M2Z_eSd_imHoDmpQ0tOkJbsnPbE=","tags":{"amenity":"parcel_locker","parcel_mail_in":"yes","parcel_pickup":"yes","addr:full":"бул. Сливница 8А","addr:city":"София","addr:state":"София-град","addr:postcode":"1360","addr:country":"BG","name":"easybox 1130 EKO Сливница","opening_hours":"24/7","brand":"easybox","brand:wikidata":"Q114496224","operator:wikidata":"Q114417096"},"coordinates":[42.720298,23.274247]},"tags_mismatch":false,"dist":0},{"osm":false,"atp":{"id":"WYRR_yOSagqAgRBUz6-eJIjSIL8=","tags":{"amenity":"parcel_locker","parcel_mail_in":"yes","parcel_pickup":"yes","addr:full":"бул. Ломско шосе“ 261","addr:city":"София","addr:state":"София-град","addr:postcode":"1326","addr:country":"BG","name":"easybox 1128 EKO Ломско","opening_hours":"24/7","brand":"easybox","brand:wikidata":"Q114496224","operator:wikidata":"Q114417096"},"coordinates":[42.752027,23.274585]},"tags_mismatch":false,"dist":0},{"osm":false,"atp":{"id":"o8hrp7NVJHjh7k959BG9FJu-RFo=","tags":{"amenity":"parcel_locker","parcel_mail_in":"yes","parcel_pickup":"yes","addr:full":"Индустриална зона","addr:city":"Бургас","addr:state":"Бургас","addr:postcode":"8002","addr:country":"BG","name":"easybox 8021 EKO Бургас Езеро","opening_hours":"24/7","brand":"easybox","brand:wikidata":"Q114496224","operator:wikidata":"Q114417096"},"coordinates":[42.480835,27.437885]},"tags_mismatch":false,"dist":0},{"osm":false,"atp":{"id":"LPP6zPy2iNLJWdj-Uf7BMdk7s4I=","tags":{"amenity":"parcel_locker","parcel_mail_in":"yes","parcel_pickup":"yes","addr:full":"ул. Индустриална 31","addr:city":"Бургас","addr:state":"Бургас","addr:postcode":"8002","addr:country":"BG","name":"easybox 8020 EKO Бургас Акациите","opening_hours":"24/7","brand":"easybox","brand:wikidata":"Q114496224","operator:wikidata":"Q114417096"},"coordinates":[42.482521,27.442342]},"tags_mismatch":false,"dist":0},{"osm":false,"atp":{"id":"h3jAV4XaWqt5JH-67yIXSDLUkWQ=","tags":{"amenity":"parcel_locker","parcel_mail_in":"yes","parcel_pickup":"yes","addr:full":"ул. Банско шосе\" срещу ТЕЦ","addr:city":"Сливен","addr:state":"Сливен","addr:postcode":"8800","addr:country":"BG","name":"easybox 8808 EKO Сливен","opening_hours":"24/7","brand":"easybox","brand:wikidata":"Q114496224","operator:wikidata":"Q114417096"},"coordinates":[42.654963,26.323172]},"tags_mismatch":false,"dist":0},{"osm":false,"atp":{"id":"NaBpN0pX7GgOHKexLwmsSRBMh00=","tags":{"amenity":"parcel_locker","parcel_mail_in":"yes","parcel_pickup":"yes","addr:full":"бул. П. Владигеров и ул. 701","addr:city":"София","addr:state":"София-град","addr:postcode":"1324","addr:country":"BG","name":"easybox 1125 EKO Люлин","opening_hours":"24/7","brand":"easybox","brand:wikidata":"Q114496224","operator:wikidata":"Q114417096"},"coordinates":[42.718378,23.254308]},"tags_mismatch":false,"dist":0},{"osm":false,"atp":{"id":"g7pxSs1jRIRAnR32Wh9CSqJTvzI=","tags":{"amenity":"parcel_locker","parcel_mail_in":"yes","parcel_pickup":"yes","addr:full":"ул. Хенрик Ибсен","addr:city":"София","addr:state":"София-град","addr:postcode":"1407","addr:country":"BG","name":"easybox 1122 EKO Сребърна","opening_hours":"24/7","brand":"easybox","brand:wikidata":"Q114496224","operator:wikidata":"Q114417096"},"coordinates":[42.659261,23.305855]},"tags_mismatch":false,"dist":0},{"osm":false,"atp":{"id":"4RNtllYs1QyLES-DzTWLK462PxQ=","tags":{"amenity":"parcel_locker","parcel_mail_in":"yes","parcel_pickup":"yes","addr:full":"ул. Пражка пролет","addr:city":"София","addr:state":"София-град","addr:postcode":"1233","addr:country":"BG","name":"easybox 1121 EKO Кирил Николов","opening_hours":"24/7","brand":"easybox","brand:wikidata":"Q114496224","operator:wikidata":"Q114417096"},"coordinates":[42.714661,23.305744]},"tags_mismatch":false,"dist":0},{"osm":false,"atp":{"id":"xVIc5MZSdZXULrGG2nBTzWqxF-g=","tags":{"amenity":"parcel_locker","parcel_mail_in":"yes","parcel_pickup":"yes","addr:full":"Чепинци Околовръстен път","addr:city":"София","addr:state":"София-град","addr:postcode":"1554","addr:country":"BG","name":"easybox 1119 EKO Чепинци","opening_hours":"24/7","brand":"easybox","brand:wikidata":"Q114496224","operator:wikidata":"Q114417096"},"coordinates":[42.753518,23.442041]},"tags_mismatch":false,"dist":0},{"osm":false,"atp":{"id":"xZ0WtkpZs2I8cPKTzQSQaKYZf6s=","tags":{"amenity":"parcel_locker","parcel_mail_in":"yes","parcel_pickup":"yes","addr:full":"ул. Димитър Пешев 6","addr:city":"София","addr:state":"София-град","addr:postcode":"1528","addr:country":"BG","name":"easybox 1118 EKO Дружба 2","opening_hours":"24/7","brand":"easybox","brand:wikidata":"Q114496224","operator:wikidata":"Q114417096"},"coordinates":[42.645123,23.412237]},"tags_mismatch":false,"dist":0},