{"metadata":{"type":"brand","wikidata":"Q114496224","name":"easybox","compare_keys":["opening_hours"]},"data":[{"osm":{"type":"node","id":10296473897,"tags":{"amenity":"parcel_locker","brand":"easybox","brand:wikidata":"Q114496224","operator:wikidata":"Q114417096"},"wikidata":"Q114496224","coordinates":[42.6897384,23.3024505]},"atp":{"id":"C3iu-8JWxV-ed9bND0Z6WfrWi1Y=","tags":{"amenity":"parcel_locker","parcel_mail_in":"yes","parcel_pickup":"yes","addr:full":"бул. Ген Тотлебен 36","addr:city":"София","addr:state":"София-град","addr:postcode":"1606","addr:country":"BG","name":"easybox 1149 Кауфланд София Крива Река","opening_hours":"24/7","image":"https://sameday.bg/locker/image/12547/small","brand":"easybox","brand:wikidata":"Q114496224","operator:wikidata":"Q114417096"},"coordinates":[42.690221,23.302028]},"dist":63.813,"tags_mismatch":true},{"osm":{"type":"node","id":10757569187,"tags":{"amenity":"parcel_locker","brand":"easybox","brand:wikidata":"Q114496224","indoor":"yes","operator:wikidata":"Q114417096","parcel_mail_in":"yes","parcel_pickup":"yes"},"wikidata":"Q114496224","coordinates":[42.6726992,23.3233564]},"atp":{"id":"llaEUOxdGlJkKlcBsec-FfFIXJo=","tags":{"amenity":"parcel_locker","parcel_mail_in":"yes","parcel_pickup":"yes","addr:full":"София, бул. Джеймс Баучер 51 в магазина","addr:city":"София","addr:state":"София-град","addr:postcode":"1407","addr:country":"BG","name":"easybox 1189 Офис1 София Дж. Баучер","opening_hours":"Mo-Fr 09:00-19:00; Sa 10:00-18:00; Su 10:00-17:00","image":"https://sameday.bg/locker/image/12425/small","brand":"easybox","brand:wikidata":"Q114496224","operator:wikidata":"Q114417096"},"coordinates":[42.672675,23.323139]},"dist":17.976,"tags_mismatch":true},{"osm":{"type":"node","id":10925898680,"tags":{"amenity":"parcel_locker","brand":"easybox","brand:wikidata":"Q114496224","operator:wikidata":"Q114417096"},"wikidata":"Q114496224","coordinates":[43.2198,23.5473819]},"atp":{"id":"aD_tuWuKf_p2GT6fO5osQTuvqWs=","tags":{"amenity":"parcel_locker","parcel_mail_in":"yes","parcel_pickup":"yes","addr:full":"ул. Славянска 2, офис на Изипей","addr:city":"Враца","addr:state":"Враца","addr:postcode":"3005","addr:country":"BG","name":"easybox 3006 Враца Славянска 2","opening_hours":"Mo-Fr 09:00-19:00; Sa-Su 09:00-14:00","image":"https://sameday.bg/locker/image/12571/small","brand":"easybox","brand:wikidata":"Q114496224","operator:wikidata":"Q114417096"},"coordinates":[43.220238,23.546936]},"dist":60.643,"tags_mismatch":true},{"osm":{"type":"node","id":10925924680,"tags":{"amenity":"parcel_locker","brand":"easybox","brand:wikidata":"Q114496224","operator:wikidata":"Q114417096"},"wikidata":"Q114496224","coordinates":[43.2243555,23.5456621]},"atp":{"id":"NThJOFOPL0EI5G1NxxrhtJz8YPo=","tags":{"amenity":"parcel_locker","parcel_mail_in":"yes","parcel_pickup":"yes","addr:full":"ж.к. Дъбника м/у бл. 147 и бл. 14, офис на Изипей","addr:city":"Враца","addr:state":"Враца","addr:postcode":"3005","addr:country":"BG","name":"easybox 3005 Враца Дъбника между бл. 147 и бл. 14","opening_hours":"Mo-Su 08:00-20:00","image":"https://sameday.bg/locker/image/12573/small","brand":"easybox","brand:wikidata":"Q114496224","operator:wikidata":"Q114417096"},"coordinates":[43.224479,23.545869]},"dist":21.671,"tags_mismatch":true},{"osm":{"type":"node","id":11168903257,"tags":{"amenity":"parcel_locker","brand":"easybox","brand:wikidata":"Q114496224","indoor":"no","operator:wikidata":"Q114417096"},"wikidata":"Q114496224","coordinates":[42.7460878,23.2293424]},"atp":{"id":"ISw0kJtCtzTol_zr9FHqw-gy_2I=","tags":{"amenity":"parcel_locker","parcel_mail_in":"yes","parcel_pickup":"yes","addr:full":"бул.Европа 184","addr:city":"София","addr:state":"София-град","addr:postcode":"1331","addr:country":"BG","name":"easybox 1110 ЛУКОЙЛ София Европа","opening_hours":"24/7","image":"https://sameday.bg/locker/image/12731/small","brand":"easybox","brand:wikidata":"Q114496224","operator:wikidata":"Q114417096"},"coordinates":[42.745769,23.229407]},"dist":35.839,"tags_mismatch":true},{"osm":{"type":"node","id":11399869165,"tags":{"amenity":"parcel_locker","brand":"easybox","brand:wikidata":"Q114496224","operator:wikidata":"Q114417096"},"wikidata":"Q114496224","coordinates":[42.6903408,23.3155495]},"atp":{"id":"gvw2CluzMuBbz_aQWIknT8aefCQ=","tags":{"amenity":"parcel_locker","parcel_mail_in":"yes","parcel_pickup":"yes","addr:full":"ул. 20-ти април 13","addr:city":"София","addr:state":"София-град","addr:postcode":"1606","addr:country":"BG","name":"easybox 1079 Търговски Комплекс Руски паметник","opening_hours":"Mo-Fr 06:00-22:00; Sa-Su 08:00-22:00","image":"https://sameday.bg/locker/image/14236/small","brand":"easybox","brand:wikidata":"Q114496224","operator:wikidata":"Q114417096"},"coordinates":[42.692235,23.312197]},"dist":345.6,"tags_mismatch":true},{"osm":{"type":"node","id":11514002345,"tags":{"amenity":"parcel_locker","brand":"easybox","brand:wikidata":"Q114496224","operator:wikidata":"Q114417096"},"wikidata":"Q114496224","coordinates":[42.6667459,23.3700501]},"atp":{"id":"i-TdBnceTEAhBs6DWzoU6ob7Hro=","tags":{"amenity":"parcel_locker","parcel_mail_in":"yes","parcel_pickup":"yes","addr:full":"бул. Цариградско шосе 40","addr:city":"София","addr:state":"София-град","addr:postcode":"1750","addr:country":"BG","name":"easybox 1001 Европарк София","opening_hours":"24/7","image":"https://sameday.bg/locker/image/12617/small","brand":"easybox","brand:wikidata":"Q114496224","operator:wikidata":"Q114417096"},"coordinates":[42.666621,23.370212]},"dist":19.186,"tags_mismatch":true},{"osm":{"type":"node","id":11727761869,"tags":{"amenity":"parcel_locker","brand":"easybox","brand:wikidata":"Q114496224","operator:wikidata":"Q114417096"},"wikidata":"Q114496224","coordinates":[42.6614709,23.3774701]},"atp":{"id":"hCWiVUB99nMMAiKWijkTngGs7JE=","tags":{"amenity":"parcel_locker","parcel_mail_in":"yes","parcel_pickup":"yes","addr:full":"бул. Цариградско шосе № 50, от дясно на входа","addr:city":"София","addr:state":"София-град","addr:postcode":"1113","addr:country":"BG","name":"easybox 1173 ОМВ София Цариградско","opening_hours":"24/7","image":"https://sameday.bg/locker/image/12474/small","brand":"easybox","brand:wikidata":"Q114496224","operator:wikidata":"Q114417096"},"coordinates":[42.661723,23.377288]},"dist":31.742,"tags_mismatch":true},{"osm":{"type":"node","id":11750601091,"tags":{"amenity":"parcel_locker","brand":"easybox","brand:wikidata":"Q114496224","operator:wikidata":"Q114417096","parcel_mail_in":"yes","parcel_pickup":"yes"},"wikidata":"Q114496224","coordinates":[42.6588367,23.3476506]},"atp":{"id":"2TafX56RTW1KbtkkZ0kXMX5AyjU=","tags":{"amenity":"parcel_locker","parcel_mail_in":"yes","parcel_pickup":"yes","addr:full":"бул. Г.М.Димитров 77","addr:city":"София","addr:state":"София-град","addr:postcode":"1000","addr:country":"BG","name":"easybox 1094 ФантастикоФ6 ГМДимитров","opening_hours":"24/7","image":"https://sameday.bg/locker/image/14290/small","brand":"easybox","brand:wikidata":"Q114496224","operator:wikidata":"Q114417096"},"coordinates":[42.658908,23.347246]},"dist":34.022,"tags_mismatch":true},{"osm":{"type":"node","id":11816523890,"tags":{"amenity":"parcel_locker","brand":"easybox","brand:wikidata":"Q114496224","operator:wikidata":"Q114417096"},"wikidata":"Q114496224","coordinates":[42.7412687,23.2763342]},"atp":{"id":"IuJN4xY-45suyKmlSuYu3OdaOyQ=","tags":{"amenity":"parcel_locker","parcel_mail_in":"yes","parcel_pickup":"yes","addr:full":"ул. 275-та 28","addr:city":"София","addr:state":"София-град","addr:postcode":"1387","addr:country":"BG","name":"easybox 1023 София Обеля 1","opening_hours":"24/7","image":"https://sameday.bg","brand":"easybox","brand:wikidata":"Q114496224","operator:wikidata":"Q114417096"},"coordinates":[42.741255,23.276363]},"dist":2.802,"tags_mismatch":true},{"osm":{"type":"node","id":11816595634,"tags":{"amenity":"parcel_locker","brand":"easybox","brand:wikidata":"Q114496224","operator:wikidata":"Q114417096"},"wikidata":"Q114496224","coordinates":[42.7474064,23.2747109]},"atp":{"id":"izheS1ezZoZFgSVP2XZl_3SDBlM=","tags":{"amenity":"parcel_locker","parcel_mail_in":"yes","parcel_pickup":"yes","addr:full":"ж.к.Обеля 2 ул.104 с/у бл.233","addr:city":"София","addr:state":"София-град","addr:postcode":"1326","addr:country":"BG","name":"easybox 1145 Бакалия Обеля 2","opening_hours":"24/7","image":"https://sameday.bg/locker/image/12556/small","brand":"easybox","brand:wikidata":"Q114496224","operator:wikidata":"Q114417096"},"coordinates":[42.747302,23.274665]},"dist":12.199,"tags_mismatch":true},{"osm":{"type":"node","id":11825031037,"tags":{"amenity":"parcel_locker","brand":"easybox","brand:wikidata":"Q114496224","operator:wikidata":"Q114417096"},"wikidata":"Q114496224","coordinates":[42.2034838,24.3263799]},"atp":{"id":"MhFBMrWwrqtgj128WvGyuK6dJMo=","tags":{"amenity":"parcel_locker","parcel_mail_in":"yes","parcel_pickup":"yes","addr:full":"ул. Петър Бонев 52","addr:city":"Пазарджик","addr:state":"Пазарджик","addr:postcode":"4400","addr:country":"BG","name":"easybox 4405 М Маркет Халето","opening_hours":"24/7","image":"https://sameday.bg","brand":"easybox","brand:wikidata":"Q114496224","operator:wikidata":"Q114417096"},"coordinates":[42.203551,24.326486]},"dist":11.498,"tags_mismatch":true},{"osm":{"type":"node","id":11830853130,"tags":{"amenity":"parcel_locker","brand":"easybox","brand:wikidata":"Q114496224","operator:wikidata":"Q114417096"},"wikidata":"Q114496224","coordinates":[42.1959565,24.3348027]},"atp":{"id":"5xoSFJpOS1Wy6-Q_aQtjZc6CmCo=","tags":{"amenity":"parcel_locker","parcel_mail_in":"yes","parcel_pickup":"yes","addr:full":"ул. Георги Бенковски 12","addr:city":"Пазарджик","addr:state":"Пазарджик","addr:postcode":"4202","addr:country":"BG","name":"easybox 4407 Билла Пазарджик Бенковски","opening_hours":"24/7","image":"https://sameday.bg","brand":"easybox","brand:wikidata":"Q114496224","operator:wikidata":"Q114417096"},"coordinates":[42.195887,24.33454]},"dist":22.979,"tags_mismatch":true},{"osm":{"type":"node","id":11844209928,"tags":{"amenity":"parcel_locker","brand":"easybox","brand:wikidata":"Q114496224","operator:wikidata":"Q114417096"},"wikidata":"Q114496224","coordinates":[42.6561672,23.37471]},"atp":{"id":"Kv71qYMD2CjAtEcu6r9Wngc8sMQ=","tags":{"amenity":"parcel_locker","parcel_mail_in":"yes","parcel_pickup":"yes","addr:full":"ул. Йерусалим 22","addr:city":"София","addr:state":"София-град","addr:postcode":"1784","addr:country":"BG","name":"easybox 1055 Фантастико Ф42 Младост1","opening_hours":"24/7","image":"https://sameday.bg/locker/image/14591/small","brand":"easybox","brand:wikidata":"Q114496224","operator:wikidata":"Q114417096"},"coordinates":[42.655735,23.373861]},"dist":84.439,"tags_mismatch":true},{"osm":{"type":"node","id":11849547488,"tags":{"amenity":"parcel_locker","brand":"easybox","brand:wikidata":"Q114496224","indoor":"yes","level":"-1","operator:wikidata":"Q114417096","parcel_mail_in":"yes","parcel_pickup":"yes"},"wikidata":"Q114496224","coordinates":[42.6538406,23.3601785]},"atp":{"id":"pw0h2bJPwoLUnyz2Dxi_5B9OUcQ=","tags":{"amenity":"parcel_locker","parcel_mail_in":"yes","parcel_pickup":"yes","addr:full":"бул. Св. Климент Охридски 10","addr:city":"София","addr:state":"София-град","addr:postcode":"1000","addr:country":"BG","name":"easybox 1086 ФантастикоФ36 Дървеница","opening_hours":"24/7","image":"https://sameday.bg/locker/image/14165/small","brand":"easybox","brand:wikidata":"Q114496224","operator:wikidata":"Q114417096"},"coordinates":[42.653822,23.360413]},"dist":19.288,"tags_mismatch":true},{"osm":{"type":"node","id":11850669500,"tags":{"amenity":"parcel_locker","brand":"easybox","brand:wikidata":"Q114496224","operator:wikidata":"Q114417096","parcel_mail_in":"yes","parcel_pickup":"yes"},"wikidata":"Q114496224","coordinates":[42.651377,23.3798276]},"atp":{"id":"veGcEBbwshCScMRdB--6-WoNTA0=","tags":{"amenity":"parcel_locker","parcel_mail_in":"yes","parcel_pickup":"yes","addr:full":"бул. Александър Малинов” № 29 от дясно на входа","addr:city":"София","addr:state":"София-град","addr:postcode":"1729","addr:country":"BG","name":"easybox 1176 ОМВ София Малинов","opening_hours":"24/7","image":"https://sameday.bg/locker/image/12467/small","brand":"easybox","brand:wikidata":"Q114496224","operator:wikidata":"Q114417096"},"coordinates":[42.651236,23.379492]},"dist":31.609,"tags_mismatch":true},{"osm":{"type":"node","id":11863080733,"tags":{"amenity":"parcel_locker","brand":"easybox","brand:wikidata":"Q114496224","level":"0","note:opening_hours":"The entrances to the parking lot are locked when Kaufland is closed","opening_hours":"Mo-Su 07:00-22:00","operator:wikidata":"Q114417096"},"wikidata":"Q114496224","coordinates":[42.6703102,23.273899]},"atp":{"id":"nOHmC_qDs7w_jW_w3SqwH6rIB2I=","tags":{"amenity":"parcel_locker","parcel_mail_in":"yes","parcel_pickup":"yes","addr:full":"ул. Тодор Каблешков 3","addr:city":"София","addr:state":"София-град","addr:postcode":"1618","addr:country":"BG","name":"easybox 1003 Кауфланд София Витоша","opening_hours":"24/7","image":"https://sameday.bg","brand":"easybox","brand:wikidata":"Q114496224","operator:wikidata":"Q114417096"},"coordinates":[42.670641,23.27347]},"dist":50.825,"tags_mismatch":true},{"osm":{"type":"node","id":11874184757,"tags":{"amenity":"parcel_locker","brand":"easybox","brand:wikidata":"Q114496224","operator:wikidata":"Q114417096"},"wikidata":"Q114496224","coordinates":[42.1869909,24.34543]},"atp":{"id":"9Ah4Hvh7aSeohtNGhcbxilhVZUg=","tags":{"amenity":"parcel_locker","parcel_mail_in":"yes","parcel_pickup":"yes","addr:full":"ул. Черковна 38А ТЦ Арко Вара","addr:city":"София","addr:state":"София-град","addr:postcode":"1505","addr:country":"BG","name":"easybox 1210 София Черковна","opening_hours":"Mo-Su 07:00-22:00","image":"https://sameday.bg/locker/image/12326/small","brand":"easybox","brand:wikidata":"Q114496224","operator:wikidata":"Q114417096"},"coordinates":[42.697278,23.351475]},"tags_mismatch":true},{"osm":{"type":"node","id":11901183697,"tags":{"amenity":"parcel_locker","brand":"easybox","brand:wikidata":"Q114496224","indoor":"yes","operator:wikidata":"Q114417096"},"wikidata":"Q114496224","coordinates":[42.6421762,23.3360117]},"atp":{"id":"7JnFRJWSqD-722wEl07xSH1XM8M=","tags":{"amenity":"parcel_locker","parcel_mail_in":"yes","parcel_pickup":"yes","addr:full":"ул. Проф. Др. Иван Странски 20 Кауфланд","addr:city":"София","addr:state":"София-град","addr:postcode":"1700","addr:country":"BG","name":"easybox 1209 Кауфланд София 20","opening_hours":"Mo-Su 07:00-22:00","image":"https://sameday.bg/locker/image/12335/small","brand":"easybox","brand:wikidata":"Q114496224","operator:wikidata":"Q114417096"},"coordinates":[42.641899,23.336161]},"dist":33.154,"tags_mismatch":true},{"osm":{"type":"node","id":11953950648,"tags":{"amenity":"parcel_locker","brand":"easybox","brand:wikidata":"Q114496224","operator:wikidata":"Q114417096","parcel_mail_in":"yes","parcel_pickup":"yes"},"wikidata":"Q114496224","coordinates":[42.6509421,23.357453]},"atp":{"id":"7pm3fXzcm37Al988PO_DPeO5X1g=","tags":{"amenity":"parcel_locker","parcel_mail_in":"yes","parcel_pickup":"yes","addr:full":"ул. 8-ми декември № 3","addr:city":"София","addr:state":"София-град","addr:postcode":"1756","addr:country":"BG","name":"easybox 1175 ОМВ София 8декември","opening_hours":"24/7","image":"https://sameday.bg/locker/image/12470/small","brand":"easybox","brand:wikidata":"Q114496224","operator:wikidata":"Q114417096"},"coordinates":[42.650995,23.357596]},"dist":13.091,"tags_mismatch":true},{"osm":{"type":"node","id":11977654310,"tags":{"amenity":"parcel_locker","brand":"easybox","brand:wikidata":"Q114496224","operator:wikidata":"Q114417096","parcel_mail_in":"yes","parcel_pickup":"yes"},"wikidata":"Q114496224","coordinates":[42.6681105,23.329359]},"atp":{"id":"xfL7bxMmkZIubP-b1aXkE-qhnNE=","tags":{"amenity":"parcel_locker","parcel_mail_in":"yes","parcel_pickup":"yes","addr:full":"бул. Никола Й. Вапцаров 61","addr:city":"София","addr:state":"София-град","addr:postcode":"1407","addr:country":"BG","name":"easybox 1127 EKO Вапцаров","opening_hours":"24/7","image":"https://sameday.bg/locker/image/12667/small","brand":"easybox","brand:wikidata":"Q114496224","operator:wikidata":"Q114417096"},"coordinates":[42.668255,23.328941]},"dist":37.765,"tags_mismatch":true},{"osm":{"type":"node","id":11981047223,"tags":{"amenity":"parcel_locker","brand":"easybox","brand:wikidata":"Q114496224","indoor":"yes","operator:wikidata":"Q114417096","parcel_mail_in":"yes","parcel_pickup":"yes"},"wikidata":"Q114496224","coordinates":[42.6478781,23.3790291]},"atp":{"id":"WMol4a69_lSDocl4ugKihrViAv0=","tags":{"amenity":"parcel_locker","parcel_mail_in":"yes","parcel_pickup":"yes","addr:full":"бул. Александър Малинов 35-37","addr:city":"София","addr:state":"София-град","addr:postcode":"1729","addr:country":"BG","name":"easybox 1009 Билла София Младост","opening_hours":"Mo-Su 08:00-22:00","image":"https://sameday.bg","brand":"easybox","brand:wikidata":"Q114496224","operator:wikidata":"Q114417096"},"coordinates":[42.648105,23.379013]},"dist":25.264,"tags_mismatch":true},{"osm":{"type":"node","id":12045372071,"tags":{"amenity":"parcel_locker","brand":"easybox","brand:wikidata":"Q114496224","operator:wikidata":"Q114417096","parcel_mail_in":"yes","parcel_pickup":"yes"},"wikidata":"Q114496224","coordinates":[42.6825745,23.3211823]},"atp":{"id":"KLObFnLhDd0pZGHL2mEyw4rY2dk=","tags":{"amenity":"parcel_locker","parcel_mail_in":"yes","parcel_pickup":"yes","addr:full":"Бул. Евлоги и Христо Георгиеви 1, подлез към Хилтън","addr:city":"София","addr:state":"София-град","addr:postcode":"1142","addr:country":"BG","name":"easybox 1212 НДК Подлез Хилтън","opening_hours":"24/7","image":"https://sameday.bg","brand":"easybox","brand:wikidata":"Q114496224","operator:wikidata":"Q114417096"},"coordinates":[42.682661,23.321185]},"dist":9.621,"tags_mismatch":true},{"osm":{"type":"node","id":12054490246,"tags":{"amenity":"parcel_locker","brand":"easybox","brand:wikidata":"Q114496224","operator:wikidata":"Q114417096","parcel_mail_in":"yes","parcel_pickup":"yes"},"wikidata":"Q114496224","coordinates":[42.6718855,23.2996283]},"atp":{"id":"Wl9fP0k0NFBFz19rA4W0b_13NNA=","tags":{"amenity":"parcel_locker","parcel_mail_in":"yes","parcel_pickup":"yes","addr:full":"ул. Нишава 138","addr:city":"София","addr:state":"София-град","addr:postcode":"1784","addr:country":"BG","name":"easybox 1054 Фантастико Ф18 Стрелбище","opening_hours":"24/7","image":"https://sameday.bg","brand":"easybox","brand:wikidata":"Q114496224","operator:wikidata":"Q114417096"},"coordinates":[42.672154,23.299876]},"dist":36.076,"tags_mismatch":true},{"osm":{"type":"node","id":12065052368,"tags":{"amenity":"parcel_locker","brand":"easybox","brand:wikidata":"Q114496224","fixme":"verify position","operator:wikidata":"Q114417096","parcel_mail_in":"yes","parcel_pickup":"yes"},"wikidata":"Q114496224","coordinates":[42.6786239,23.3661249]},"atp":{"id":"Xy6MgaYygUV4nmRffnCabOeVtEE=","tags":{"amenity":"parcel_locker","parcel_mail_in":"yes","parcel_pickup":"yes","addr:full":"ул. Шипченски проход 63","addr:city":"София","addr:state":"София-град","addr:postcode":"1574","addr:country":"BG","name":"easybox 1138 Електроника София","opening_hours":"24/7","image":"https://sameday.bg/locker/image/12620/small","brand":"easybox","brand:wikidata":"Q114496224","operator:wikidata":"Q114417096"},"coordinates":[42.678728,23.366408]},"dist":25.876,"tags_mismatch":true},{"osm":{"type":"node","id":12067674369,"tags":{"amenity":"parcel_locker","brand":"easybox","brand:wikidata":"Q114496224","indoor":"yes","operator:wikidata":"Q114417096","parcel_mail_in":"yes","parcel_pickup":"yes"},"wikidata":"Q114496224","coordinates":[42.6833292,23.2972491]},"atp":{"id":"nzV9FIdCwKOSMUQmcm4zG6FzOQo=","tags":{"amenity":"parcel_locker","parcel_mail_in":"yes","parcel_pickup":"yes","addr:full":"София ул. Софийски герой 4","addr:city":"София","addr:state":"София-град","addr:postcode":"1612","addr:country":"BG","name":"easybox 1188 Билла София Славия","opening_hours":"Mo-Su 07:30-22:00","image":"https://sameday.bg/locker/image/12431/small","brand":"easybox","brand:wikidata":"Q114496224","operator:wikidata":"Q114417096"},"coordinates":[42.683541,23.297165]},"dist":24.534,"tags_mismatch":true},{"osm":{"type":"node","id":12085238135,"tags":{"amenity":"parcel_locker","brand":"easybox","brand:wikidata":"Q114496224","operator:wikidata":"Q114417096","parcel_mail_in":"yes","parcel_pickup":"yes"},"wikidata":"Q114496224","coordinates":[42.6606281,23.272797]},"atp":{"id":"_8tQ59y_NoinN4IRtfMF9tVVl-c=","tags":{"amenity":"parcel_locker","parcel_mail_in":"yes","parcel_pickup":"yes","addr:full":"бул.Бъкстон","addr:city":"София","addr:state":"София-град","addr:postcode":"1000","addr:country":"BG","name":"easybox 1102 ЛУКОЙЛ София Бъкстон","opening_hours":"24/7","image":"https://sameday.bg","brand":"easybox","brand:wikidata":"Q114496224","operator:wikidata":"Q114417096"},"coordinates":[42.66072,23.27289]},"dist":12.738,"tags_mismatch":true},{"osm":{"type":"node","id":12090045795,"tags":{"amenity":"parcel_locker","brand":"easybox","brand:wikidata":"Q114496224","operator:wikidata":"Q114417096","parcel_mail_in":"yes","parcel_pickup":"yes"},"wikidata":"Q114496224","coordinates":[41.9450336,25.5556023]},"atp":{"id":"orLdivqj26ngkCbCXcLT6P-Pis4=","tags":{"amenity":"parcel_locker","parcel_mail_in":"yes","parcel_pickup":"yes","addr:full":"Бул. Г.С.Раковски","addr:city":"Хасково","addr:state":"Хасково","addr:postcode":"6300","addr:country":"BG","name":"easybox 6309 EKO Хасково Раковски","opening_hours":"24/7","image":"https://sameday.bg/locker/image/12844/small","brand":"easybox","brand:wikidata":"Q114496224","operator:wikidata":"Q114417096"},"coordinates":[41.944924,25.555538]},"dist":13.297,"tags_mismatch":true},{"osm":{"type":"node","id":12090045819,"tags":{"amenity":"parcel_locker","brand":"easybox","brand:wikidata":"Q114496224","operator:wikidata":"Q114417096","parcel_mail_in":"yes","parcel_pickup":"yes"},"wikidata":"Q114496224","coordinates":[41.9397939,25.5586272]},"atp":{"id":"L3laOQ_0P-jRn2DNSeLtnZo5304=","tags":{"amenity":"parcel_locker","parcel_mail_in":"yes","parcel_pickup":"yes","addr:full":"ул. Дунав 17В","addr:city":"Хасково","addr:state":"Хасково","addr:postcode":"6303","addr:country":"BG","name":"easybox 6302 Ромпетрол Хасково","opening_hours":"24/7","image":"https://sameday.bg","brand":"easybox","brand:wikidata":"Q114496224","operator:wikidata":"Q114417096"},"coordinates":[41.939665,25.55886]},"dist":24.004,"tags_mismatch":true},{"osm":{"type":"node","id":12090074887,"tags":{"amenity":"parcel_locker","brand":"easybox","brand:wikidata":"Q114496224","operator:wikidata":"Q114417096","parcel_mail_in":"yes","parcel_pickup":"yes"},"wikidata":"Q114496224","coordinates":[41.9357652,25.553793]},"atp":{"id":"Bc88uotAKvXO_1NFVaMybZ6zLWA=","tags":{"amenity":"parcel_locker","parcel_mail_in":"yes","parcel_pickup":"yes","addr:full":"ул. „Средна Гора“ 2","addr:city":"Хасково","addr:state":"Хасково","addr:postcode":"6300","addr:country":"BG","name":"easybox 6315 Хасково паркинг център","opening_hours":"24/7","image":"https://sameday.bg","brand":"easybox","brand:wikidata":"Q114496224","operator:wikidata":"Q114417096"},"coordinates":[41.935674,25.553736]},"dist":11.183,"tags_mismatch":true},{"osm":{"type":"node","id":12091761566,"tags":{"amenity":"parcel_locker","brand":"easybox","brand:wikidata":"Q114496224","operator:wikidata":"Q114417096","parcel_mail_in":"yes","parcel_pickup":"yes"},"wikidata":"Q114496224","coordinates":[41.922339,25.5596111]},"atp":{"id":"HANcVFfwSy1wjG_47N4r_LTMyY4=","tags":{"amenity":"parcel_locker","parcel_mail_in":"yes","parcel_pickup":"yes","addr:full":"бул. Освобождение 51","addr:city":"Хасково","addr:state":"Хасково","addr:postcode":"6302","addr:country":"BG","name":"easybox 6318 Хасково Освобождение","opening_hours":"24/7","image":"https://sameday.bg","brand":"easybox","brand:wikidata":"Q114496224","operator:wikidata":"Q114417096"},"coordinates":[41.922382,25.559698]},"dist":8.634,"tags_mismatch":true},{"osm":{"type":"node","id":12091800273,"tags":{"amenity":"parcel_locker","brand":"easybox","brand:wikidata":"Q114496224","operator:wikidata":"Q114417096","parcel_mail_in":"yes","parcel_pickup":"yes"},"wikidata":"Q114496224","coordinates":[41.928339,25.572591]},"atp":{"id":"3swGLr3GFhZcif6c9DXVZQcn3g8=","tags":{"amenity":"parcel_locker","parcel_mail_in":"yes","parcel_pickup":"yes","addr:full":"бул. Васил Левски 2А","addr:city":"Хасково","addr:state":"Хасково","addr:postcode":"6300","addr:country":"BG","name":"easybox 6316 Вертикал Хасково","opening_hours":"24/7","image":"https://sameday.bg","brand":"easybox","brand:wikidata":"Q114496224","operator:wikidata":"Q114417096"},"coordinates":[41.92822,25.57269]},"dist":15.562,"tags_mismatch":true},{"osm":{"type":"node","id":12091800276,"tags":{"amenity":"parcel_locker","brand":"easybox","brand:wikidata":"Q114496224","operator:wikidata":"Q114417096","parcel_mail_in":"yes","parcel_pickup":"yes"},"wikidata":"Q114496224","coordinates":[41.9360239,25.5651709]},"atp":{"id":"7hSQ3w53WS7Q1BimfU9AGeml6j0=","tags":{"amenity":"parcel_locker","parcel_mail_in":"yes","parcel_pickup":"yes","addr:full":"бул. В. Левски","addr:city":"Хасково","addr:state":"Хасково","addr:postcode":"6300","addr:country":"BG","name":"easybox 6311 EKO Хасково Левски","opening_hours":"24/7","image":"https://sameday.bg/locker/image/12838/small","brand":"easybox","brand:wikidata":"Q114496224","operator:wikidata":"Q114417096"},"coordinates":[41.935904,25.565379]},"dist":21.773,"tags_mismatch":true},{"osm":{"type":"node","id":12091800278,"tags":{"amenity":"parcel_locker","brand":"easybox","brand:wikidata":"Q114496224","operator:wikidata":"Q114417096","parcel_mail_in":"yes","parcel_pickup":"yes"},"wikidata":"Q114496224","coordinates":[41.931542,25.5531344]},"atp":{"id":"wBRmGp-uU-iUJ8vmzYljSbpSpjc=","tags":{"amenity":"parcel_locker","parcel_mail_in":"yes","parcel_pickup":"yes","addr:full":"бул. България 53","addr:city":"Хасково","addr:state":"Хасково","addr:postcode":"6300","addr:country":"BG","name":"easybox 6319 Хасково България","opening_hours":"24/7","image":"https://sameday.bg","brand":"easybox","brand:wikidata":"Q114496224","operator:wikidata":"Q114417096"},"coordinates":[41.931429,25.553248]},"dist":15.69,"tags_mismatch":true},{"osm":{"type":"node","id":12100739594,"tags":{"amenity":"parcel_locker","brand":"easybox","brand:wikidata":"Q114496224","operator:wikidata":"Q114417096","parcel_mail_in":"yes","parcel_pickup":"yes","payment:contactless":"yes","payment:debit_cards":"yes"},"wikidata":"Q114496224","coordinates":[42.4279322,25.6471754]},"atp":{"id":"ZCe2S92PzXMwELDd3rUFxKLuzbE=","tags":{"amenity":"parcel_locker","parcel_mail_in":"yes","parcel_pickup":"yes","addr:full":"бул. Цар Симеон Велики 218","addr:city":"Стара Загора","addr:state":"Стара Загора","addr:postcode":"6009","addr:country":"BG","name":"easybox 6017 Билла Стара Загора","opening_hours":"Mo-Su 07:30-22:00","image":"https://sameday.bg/locker/image/12609/small","brand":"easybox","brand:wikidata":"Q114496224","operator:wikidata":"Q114417096"},"coordinates":[42.427957,25.647248]},"dist":6.566,"tags_mismatch":true},{"osm":{"type":"node","id":12101242344,"tags":{"amenity":"parcel_locker","brand":"easybox","brand:wikidata":"Q114496224","operator:wikidata":"Q114417096","parcel_mail_in":"yes","parcel_pickup":"yes"},"wikidata":"Q114496224","coordinates":[42.7081253,23.1455841]},"atp":{"id":"-XpnPQBWJjVAEJlt3buwxWDs4jw=","tags":{"amenity":"parcel_locker","parcel_mail_in":"yes","parcel_pickup":"yes","addr:full":"ул. Александър Стамболийски 2","addr:city":"Банкя","addr:state":"София-град","addr:postcode":"1320","addr:country":"BG","name":"easybox 1223 Бурлекс Банкя","opening_hours":"24/7","image":"https://sameday.bg/locker/image/14485/small","brand":"easybox","brand:wikidata":"Q114496224","operator:wikidata":"Q114417096"},"coordinates":[42.708143,23.145614]},"dist":3.137,"tags_mismatch":true},{"osm":{"type":"node","id":12101332800,"tags":{"amenity":"parcel_locker","brand":"easybox","brand:wikidata":"Q114496224","operator:wikidata":"Q114417096","parcel_mail_in":"yes","parcel_pickup":"yes"},"wikidata":"Q114496224","coordinates":[42.6740894,23.2581257]},"atp":{"id":"Vaq3ffLz1r_cVU_lN3Zm67SJ1KQ=","tags":{"amenity":"parcel_locker","parcel_mail_in":"yes","parcel_pickup":"yes","addr:full":"ул. Боряна 39 (1001)","addr:city":"София","addr:state":"София-град","addr:postcode":"1618","addr:country":"BG","name":"easybox 1113 Боряна 39","opening_hours":"24/7","image":"https://sameday.bg/locker/image/12725/small","brand":"easybox","brand:wikidata":"Q114496224","operator:wikidata":"Q114417096"},"coordinates":[42.674073,23.258114]},"dist":2.059,"tags_mismatch":true},{"osm":{"type":"node","id":12105669606,"tags":{"amenity":"parcel_locker","brand":"easybox","brand:wikidata":"Q114496224","operator:wikidata":"Q114417096","parcel_mail_in":"yes","parcel_pickup":"yes"},"wikidata":"Q114496224","coordinates":[43.0805305,25.6304198]},"atp":{"id":"Vzb9zvXESbyn2nlfE9ivW9Zl-Kc=","tags":{"amenity":"parcel_locker","parcel_mail_in":"yes","parcel_pickup":"yes","addr:full":"ул. Васил Левски 15","addr:city":"Велико Търново","addr:state":"Велико Търново","addr:postcode":"5000","addr:country":"BG","name":"easybox 5008 CBA Магро","opening_hours":"Mo-Su 07:00-22:00","image":"https://sameday.bg/locker/image/14353/small","brand":"easybox","brand:wikidata":"Q114496224","operator:wikidata":"Q114417096"},"coordinates":[43.080498,25.630526]},"dist":9.352,"tags_mismatch":true},{"osm":{"type":"node","id":12112114390,"tags":{"amenity":"parcel_locker","brand":"easybox","brand:wikidata":"Q114496224","covered":"yes","operator:wikidata":"Q114417096","parcel_mail_in":"yes","parcel_pickup":"yes"},"wikidata":"Q114496224","coordinates":[42.7024501,23.3229114]},"atp":{"id":"5-eCI_igJsy0lTunIJAqFY796W8=","tags":{"amenity":"parcel_locker","parcel_mail_in":"yes","parcel_pickup":"yes","addr:full":"бул. Мария Луиза № 61","addr:city":"София","addr:state":"София-град","addr:postcode":"1202","addr:country":"BG","name":"easybox 1280 София Мария Луиза","opening_hours":"24/7","image":"https://sameday.bg","brand":"easybox","brand:wikidata":"Q114496224","operator:wikidata":"Q114417096"},"coordinates":[42.702369,23.322914]},"dist":9.02,"tags_mismatch":true},{"osm":{"type":"node","id":12118634438,"tags":{"amenity":"parcel_locker","brand":"easybox","brand:wikidata":"Q114496224","operator:wikidata":"Q114417096","parcel_mail_in":"yes","parcel_pickup":"yes"},"wikidata":"Q114496224","coordinates":[42.7032795,23.3108348]},"atp":{"id":"ryPfcGwitkrWQM-xa8fNX39P_wE=","tags":{"amenity":"parcel_locker","parcel_mail_in":"yes","parcel_pickup":"yes","addr:full":"ул. Опълченска 35","addr:city":"София","addr:state":"София-град","addr:postcode":"1303","addr:country":"BG","name":"easybox 1045 ОМВ София Опълченска","opening_hours":"24/7","image":"https://sameday.bg/locker/image/14629/small","brand":"easybox","brand:wikidata":"Q114496224","operator:wikidata":"Q114417096"},"coordinates":[42.703537,23.310849]},"dist":28.656,"tags_mismatch":true},{"osm":{"type":"node","id":12124070370,"tags":{"amenity":"parcel_locker","brand":"easybox","brand:wikidata":"Q114496224","operator:wikidata":"Q114417096","parcel_mail_in":"yes","parcel_pickup":"yes"},"wikidata":"Q114496224","coordinates":[42.6776379,23.3184526]},"atp":{"id":"pI-Hp5zD2j1orPVTNwf0sTnbh40=","tags":{"amenity":"parcel_locker","parcel_mail_in":"yes","parcel_pickup":"yes","addr:full":"бул. „Арсеналски“ 2","addr:city":"София","addr:state":"София-град","addr:postcode":"1421","addr:country":"BG","name":"easybox 1067 Паркинг Арсеналски","opening_hours":"24/7","image":"https://sameday.bg/locker/image/14315/small","brand":"easybox","brand:wikidata":"Q114496224","operator:wikidata":"Q114417096"},"coordinates":[42.677558,23.318369]},"dist":11.209,"tags_mismatch":true},{"osm":{"type":"node","id":12124934867,"tags":{"amenity":"parcel_locker","brand":"easybox","brand:wikidata":"Q114496224","operator:wikidata":"Q114417096","parcel_mail_in":"yes","parcel_pickup":"yes"},"wikidata":"Q114496224","coordinates":[42.4327735,25.638498]},"atp":{"id":"3D6HO5dFEryg7XECAsRks_FvM6U=","tags":{"amenity":"parcel_locker","parcel_mail_in":"yes","parcel_pickup":"yes","addr:full":"ул. Иван Вазов 2","addr:city":"Стара Загора","addr:state":"Стара Загора","addr:postcode":"6000","addr:country":"BG","name":"easybox 6008 Кауфланд Стара Загора","opening_hours":"24/7","image":"https://sameday.bg","brand":"easybox","brand:wikidata":"Q114496224","operator:wikidata":"Q114417096"},"coordinates":[42.432859,25.638988]},"dist":41.323,"tags_mismatch":true},{"osm":{"type":"node","id":12134251633,"tags":{"amenity":"parcel_locker","brand":"easybox","brand:wikidata":"Q114496224","operator:wikidata":"Q114417096","parcel_mail_in":"yes","parcel_pickup":"yes"},"wikidata":"Q114496224","coordinates":[42.6498338,23.2607811]},"atp":{"id":"tOIy4RGKdr8U6LF7Sy4daW_3ca0=","tags":{"amenity":"parcel_locker","parcel_mail_in":"yes","parcel_pickup":"yes","addr:full":"ул. Севастократор Калоян 77","addr:city":"София","addr:state":"София-град","addr:postcode":"1616","addr:country":"BG","name":"easybox 1074 Бурлекс Бояна","opening_hours":"24/7","image":"https://sameday.bg/locker/image/14299/small","brand":"easybox","brand:wikidata":"Q114496224","operator:wikidata":"Q114417096"},"coordinates":[42.649921,23.260663]},"dist":13.686,"tags_mismatch":true},{"osm":{"type":"node","id":12135041382,"tags":{"amenity":"parcel_locker","brand":"easybox","brand:wikidata":"Q114496224","operator:wikidata":"Q114417096","parcel_mail_in":"yes","parcel_pickup":"yes"},"wikidata":"Q114496224","coordinates":[42.6694639,23.3134086]},"atp":{"id":"KHjfWQf6x2F-9_NbLQHVn9Ei9mE=","tags":{"amenity":"parcel_locker","parcel_mail_in":"yes","parcel_pickup":"yes","addr:full":"София ул. \"Сердикийски събор\" 1","addr:city":"София","addr:state":"София-град","addr:postcode":"1421","addr:country":"BG","name":"easybox 1182 Билла София Козяк","opening_hours":"Mo-Su 07:30-22:00","image":"https://sameday.bg/locker/image/12446/small","brand":"easybox","brand:wikidata":"Q114496224","operator:wikidata":"Q114417096"},"coordinates":[42.669459,23.313618]},"dist":17.129,"tags_mismatch":true},{"osm":{"type":"node","id":12146552521,"tags":{"amenity":"parcel_locker","brand":"easybox","brand:wikidata":"Q114496224","indoor":"yes","operator:wikidata":"Q114417096","parcel_mail_in":"yes","parcel_pickup":"yes"},"wikidata":"Q114496224","coordinates":[42.6808549,23.2879385]},"atp":{"id":"Ln3BsHPxuJeiruy_3NWnm76WI4k=","tags":{"amenity":"parcel_locker","parcel_mail_in":"yes","parcel_pickup":"yes","addr:full":"бул. Цар Борис III 84","addr:city":"София","addr:state":"София-град","addr:postcode":"1612","addr:country":"BG","name":"easybox 1028 Цар Борис III 84","opening_hours":"Mo-Fr 09:30-19:00; Sa 09:30-14:00","image":"https://sameday.bg","brand":"easybox","brand:wikidata":"Q114496224","operator:wikidata":"Q114417096"},"coordinates":[42.680891,23.288018]},"dist":7.638,"tags_mismatch":true},{"osm":{"type":"node","id":12153378351,"tags":{"amenity":"parcel_locker","brand":"easybox","brand:wikidata":"Q114496224","operator:wikidata":"Q114417096","parcel_mail_in":"yes","parcel_pickup":"yes"},"wikidata":"Q114496224","coordinates":[42.6390317,23.3810621]},"atp":{"id":"VvayIlPn1hSAa-jBfXmJ-ovzUcg=","tags":{"amenity":"parcel_locker","parcel_mail_in":"yes","parcel_pickup":"yes","addr:full":"ул. Филип Аврамов","addr:city":"София","addr:state":"София-град","addr:postcode":"1712","addr:country":"BG","name":"easybox 1301 Петрол София Младост 3","opening_hours":"24/7","image":"https://sameday.bg","brand":"easybox","brand:wikidata":"Q114496224","operator:wikidata":"Q114417096"},"coordinates":[42.639222,23.381195]},"dist":23.79,"tags_mismatch":true},{"osm":{"type":"node","id":12159710262,"tags":{"amenity":"parcel_locker","brand":"easybox","brand:wikidata":"Q114496224","operator:wikidata":"Q114417096","parcel_mail_in":"yes","parcel_pickup":"yes"},"wikidata":"Q114496224","coordinates":[42.6922543,23.3122502]},"atp":{"id":"WwhPYjmq8UNv7GDZ4Xy3VqCn-fA=","tags":{"amenity":"parcel_locker","parcel_mail_in":"yes","parcel_pickup":"yes","addr:full":"ул. Перущица No. 8 МОЛ Пловдив","addr:city":"Пловдив","addr:state":"Пловдив","addr:postcode":"4002","addr:country":"BG","name":"easybox 4057 Мол Пловдив","opening_hours":"24/7","image":"https://sameday.bg/locker/image/14847/small","brand":"easybox","brand:wikidata":"Q114496224","operator:wikidata":"Q114417096"},"coordinates":[42.141525,24.71949]},"tags_mismatch":true},{"osm":false,"atp":{"id":"cLIVOzolSXTcUW9bP9A5oMaCnlE=","tags":{"amenity":"parcel_locker","parcel_mail_in":"yes","parcel_pickup":"yes","addr:full":"бул. Сливница No. 185 Делта Планет Мол Варна","addr:city":"Варна","addr:state":"Варна","addr:postcode":"9009","addr:country":"BG","name":"easybox 9052 Делта Планет Мол Варна","opening_hours":"24/7","image":"https://sameday.bg/locker/image/12331/small","brand":"easybox","brand:wikidata":"Q114496224","operator:wikidata":"Q114417096"},"coordinates":[43.227206,27.87476]},"tags_mismatch":false,"dist":0},{"osm":false,"atp":{"id":"EgfjpSJsMWrbLpU-KbzxULgbqIo=","tags":{"amenity":"parcel_locker","parcel_mail_in":"yes","parcel_pickup":"yes","addr:full":"бул. Асен Йорданов 7","addr:city":"София","addr:state":"София-град","addr:postcode":"1528","addr:country":"BG","name":"easybox 1208 Кауфланд София 7","opening_hours":"Mo-Su 07:00-22:00","image":"https://sameday.bg/locker/image/12338/small","brand":"easybox","brand:wikidata":"Q114496224","operator:wikidata":"Q114417096"},"coordinates":[42.674503,23.383034]},"tags_mismatch":false,"dist":0},{"osm":false,"atp":{"id":"oZBXy5trho8mwMiXLD1c8OwFLNE=","tags":{"amenity":"parcel_locker","parcel_mail_in":"yes","parcel_pickup":"yes","addr:full":"ул. Теофан Райнов 72","addr:city":"Карлово","addr:state":"Пловдив","addr:postcode":"4300","addr:country":"BG","name":"easybox 4056 Кауфланд Карлово","opening_hours":"Mo-Su 07:00-21:00","image":"https://sameday.bg","brand":"easybox","brand:wikidata":"Q114496224","operator:wikidata":"Q114417096"},"coordinates":[42.633079,24.817983]},"tags_mismatch":false,"dist":0},{"osm":false,"atp":{"id":"QeLJ--EBoSxrfX_BWooLVMR8IZE=","tags":{"amenity":"parcel_locker","parcel_mail_in":"yes","parcel_pickup":"yes","addr:full":"Бул. Царица Йоана 15","addr:city":"София","addr:state":"София-град","addr:postcode":"1324","addr:country":"BG","name":"easybox 1207 Мега Мол София 15","opening_hours":"Mo-Fr 06:30-22:00; Sa-Su 07:30-22:00","image":"https://sameday.bg/locker/image/12341/small","brand":"easybox","brand:wikidata":"Q114496224","operator:wikidata":"Q114417096"},"coordinates":[42.710364,23.271632]},"tags_mismatch":false,"dist":0},{"osm":false,"atp":{"id":"VRxQ3QebbTRy_jkX1hyS1jiUrow=","tags":{"amenity":"parcel_locker","parcel_mail_in":"yes","parcel_pickup":"yes","addr:full":"ул. Д-р Георги Странски 3","addr:city":"Пловдив","addr:state":"Пловдив","addr:postcode":"4000","addr:country":"BG","name":"easybox 4055 Пловдив Плаза Мол","opening_hours":"24/7","image":"https://sameday.bg/locker/image/12343/small","brand":"easybox","brand:wikidata":"Q114496224","operator:wikidata":"Q114417096"},"coordinates":[42.145089,24.782188]},"tags_mismatch":false,"dist":0},{"osm":false,"atp":{"id":"QEU0Nb8BQUj6F_eXiNPCTlfhnvA=","tags":{"amenity":"parcel_locker","parcel_mail_in":"yes","parcel_pickup":"yes","addr:full":"ул. Акад. Стефан Младенов 90","addr:city":"София","addr:state":"София-град","addr:postcode":"1700","addr:country":"BG","name":"easybox 1206 София Стефан Младенов","opening_hours":"24/7","image":"https://sameday.bg/locker/image/12347/small","brand":"easybox","brand:wikidata":"Q114496224","operator:wikidata":"Q114417096"},"coordinates":[42.643443,23.344865]},"tags_mismatch":false,"dist":0},{"osm":false,"atp":{"id":"AUM8c7UHmhkVactV7XTnCyd3L1Y=","tags":{"amenity":"parcel_locker","parcel_mail_in":"yes","parcel_pickup":"yes","addr:full":"ул. Свобода 55","addr:city":"Сандански","addr:state":"Благоевград","addr:postcode":"2800","addr:country":"BG","name":"easybox 2727 Кауфланд Сандански Свобода","opening_hours":"Mo-Su 07:00-22:00","image":"https://sameday.bg/locker/image/12351/small","brand":"easybox","brand:wikidata":"Q114496224","operator:wikidata":"Q114417096"},"coordinates":[41.549987,23.270554]},"tags_mismatch":false,"dist":0},{"osm":false,"atp":{"id":"GXeDG4a2ogZi1JQSJbvi-NfTUVk=","tags":{"amenity":"parcel_locker","parcel_mail_in":"yes","parcel_pickup":"yes","addr:full":"бул. Трети март 77","addr:city":"Варна","addr:state":"Варна","addr:postcode":"9023","addr:country":"BG","name":"easybox 9051 Кауфланд Варна Трети март","opening_hours":"Mo-Sa 07:00-21:30; Su 08:00-21:00","image":"https://sameday.bg/locker/image/12356/small","brand":"easybox","brand:wikidata":"Q114496224","operator:wikidata":"Q114417096"},"coordinates":[43.242193,27.850409]},"tags_mismatch":false,"dist":0},{"osm":false,"atp":{"id":"mWPMuWNMpkJUVe3H9VodO-AIHkE=","tags":{"amenity":"parcel_locker","parcel_mail_in":"yes","parcel_pickup":"yes","addr:full":"бул. Черни Връх 100 Ниво минус 2 срещу ескалатори","addr:city":"София","addr:state":"София-град","addr:postcode":"1407","addr:country":"BG","name":"easybox 1205 Парадайс Център София","opening_hours":"Mo-Su 10:00-22:00","image":"https://sameday.bg/locker/image/12359/small","brand":"easybox","brand:wikidata":"Q114496224","operator:wikidata":"Q114417096"},"coordinates":[42.657863,23.315038]},"tags_mismatch":false,"dist":0},{"osm":false,"atp":{"id":"O98dcLhnRhsSvI8u63wJx_hfgJ4=","tags":{"amenity":"parcel_locker","parcel_mail_in":"yes","parcel_pickup":"yes","addr:full":"ул. Тинтява 15, от дясно на входа","addr:city":"София","addr:state":"София-град","addr:postcode":"1113","addr:country":"BG","name":"easybox 1204 Нелбо Инженеринг","opening_hours":"24/7","image":"https://sameday.bg/locker/image/12363/small","brand":"easybox","brand:wikidata":"Q114496224","operator:wikidata":"Q114417096"},"coordinates":[42.666898,23.351569]},"tags_mismatch":false,"dist":0},{"osm":false,"atp":{"id":"XFVBThLhfPCHRiDAQiIkl0_1xas=","tags":{"amenity":"parcel_locker","parcel_mail_in":"yes","parcel_pickup":"yes","addr:full":"бул. Ситняково 48","addr:city":"София","addr:state":"София-град","addr:postcode":"1505","addr:country":"BG","name":"easybox 1203 Мол Сердика Център София","opening_hours":"24/7","image":"https://sameday.bg/locker/image/12365/small","brand":"easybox","brand:wikidata":"Q114496224","operator:wikidata":"Q114417096"},"coordinates":[42.691902,23.353509]},"tags_mismatch":false,"dist":0},{"osm":false,"atp":{"id":"3q9ek8U4jgXunCapqym_HceLiUY=","tags":{"amenity":"parcel_locker","parcel_mail_in":"yes","parcel_pickup":"yes","addr:full":"Д-р Петър Скорчевул. 2","addr:city":"Варна","addr:state":"Варна","addr:postcode":"9010","addr:country":"BG","name":"easybox 9050 Кауфланд Варна Бриз","opening_hours":"24/7","image":"https://sameday.bg","brand":"easybox","brand:wikidata":"Q114496224","operator:wikidata":"Q114417096"},"coordinates":[43.222271,27.940618]},"tags_mismatch":false,"dist":0},{"osm":false,"atp":{"id":"F4TQP73uSvLugdm_vtsfBp87lHk=","tags":{"amenity":"parcel_locker","parcel_mail_in":"yes","parcel_pickup":"yes","addr:full":"Христо Смирненски ул. 2 Кауфланд Трошево ниво 2","addr:city":"Варна","addr:state":"Варна","addr:postcode":"9000","addr:country":"BG","name":"easybox 9049 Кауфланд Варна Смирненски","opening_hours":"24/7","image":"https://sameday.bg/locker/image/12369/small","brand":"easybox","brand:wikidata":"Q114496224","operator:wikidata":"Q114417096"},"coordinates":[43.221237,27.890894]},"tags_mismatch":false,"dist":0},{"osm":false,"atp":{"id":"UH51O2KsKCospdAUDGvLXRPOQG8=","tags":{"amenity":"parcel_locker","parcel_mail_in":"yes","parcel_pickup":"yes","addr:full":"бул. Шипченски проход 18 ниво партер вдясно от централен вход","addr:city":"София","addr:state":"София-град","addr:postcode":"1113","addr:country":"BG","name":"easybox 1202 Галакси Трейд Център София","opening_hours":"Mo-Su 10:00-22:00","image":"https://sameday.bg/locker/image/12371/small","brand":"easybox","brand:wikidata":"Q114496224","operator:wikidata":"Q114417096"},"coordinates":[42.678721,23.360587]},"tags_mismatch":false,"dist":0},{"osm":false,"atp":{"id":"gynThZjMYB3ZzPEaPSnC3QWF1xM=","tags":{"amenity":"parcel_locker","parcel_mail_in":"yes","parcel_pickup":"yes","addr:full":"бул. Джавахарлал Неру 29 след централен вход","addr:city":"София","addr:state":"София-град","addr:postcode":"1336","addr:country":"BG","name":"easybox 1201 Мини Мол Люлин София","opening_hours":"Mo-Su 08:00-20:00","image":"https://sameday.bg/locker/image/12375/small","brand":"easybox","brand:wikidata":"Q114496224","operator:wikidata":"Q114417096"},"coordinates":[42.714198,23.255889]},"tags_mismatch":false,"dist":0},{"osm":false,"atp":{"id":"Ug_aPn5Bv-9G2cww7CT10ouYyzw=","tags":{"amenity":"parcel_locker","parcel_mail_in":"yes","parcel_pickup":"yes","addr:full":"бул. Никола Петков 52 на входа от страната на паркинга","addr:city":"София","addr:state":"София-град","addr:postcode":"1618","addr:country":"BG","name":"easybox 1199 Трейд Хаус Уест София","opening_hours":"Mo-Su 07:00-22:00","image":"https://sameday.bg/locker/image/12382/small","brand":"easybox","brand:wikidata":"Q114496224","operator:wikidata":"Q114417096"},"coordinates":[42.666007,23.259387]},"tags_mismatch":false,"dist":0},{"osm":false,"atp":{"id":"PJ3fzRSEcS0oRxUFWppPgchybmY=","tags":{"amenity":"parcel_locker","parcel_mail_in":"yes","parcel_pickup":"yes","addr:full":"Плевен Площад Свобода 25","addr:city":"Плевен","addr:state":"Плевен","addr:postcode":"5883","addr:country":"BG","name":"easybox 5815 Централ Мол Плевен","opening_hours":"Mo-Fr 07:30-22:00; Sa 08:30-22:00; Su 08:30-21:30","image":"https://sameday.bg/locker/image/12385/small","brand":"easybox","brand:wikidata":"Q114496224","operator:wikidata":"Q114417096"},"coordinates":[43.410072,24.618366]},"tags_mismatch":false,"dist":0},{"osm":false,"atp":{"id":"lh8NFZx4rsune-ciQ-TH9QK_fr4=","tags":{"amenity":"parcel_locker","parcel_mail_in":"yes","parcel_pickup":"yes","addr:full":"ул. Екзарх Йосиф 115","addr:city":"София","addr:state":"София-град","addr:postcode":"1527","addr:country":"BG","name":"easybox 1198 Гея Дек София Екзарх Йосиф","opening_hours":"24/7","image":"https://sameday.bg/locker/image/12388/small","brand":"easybox","brand:wikidata":"Q114496224","operator:wikidata":"Q114417096"},"coordinates":[42.702748,23.334234]},"tags_mismatch":false,"dist":0},{"osm":false,"atp":{"id":"CvZVE2roNdj_f6gm-znsvLzs8Y4=","tags":{"amenity":"parcel_locker","parcel_mail_in":"yes","parcel_pickup":"yes","addr:full":"ул. Тодор Александров 47","addr:city":"Благоевград","addr:state":"Благоевград","addr:postcode":"2700","addr:country":"BG","name":"easybox 2726 Мол ъф Благоевград","opening_hours":"Mo-Su 09:00-24:00","image":"https://sameday.bg/locker/image/12395/small","brand":"easybox","brand:wikidata":"Q114496224","operator:wikidata":"Q114417096"},"coordinates":[42.017345,23.095536]},"tags_mismatch":false,"dist":0},{"osm":false,"atp":{"id":"RPwMdcV89xR2iaTzrNctmCIXotA=","tags":{"amenity":"parcel_locker","parcel_mail_in":"yes","parcel_pickup":"yes","addr:full":"бул. Ломско шосе 2А","addr:city":"София","addr:state":"София-град","addr:postcode":"1220","addr:country":"BG","name":"easybox 1196 Търговски Център Надежда","opening_hours":"Mo-Su 07:00-24:00","image":"https://sameday.bg/locker/image/12398/small","brand":"easybox","brand:wikidata":"Q114496224","operator:wikidata":"Q114417096"},"coordinates":[42.724006,23.306034]},"tags_mismatch":false,"dist":0},{"osm":false,"atp":{"id":"5LH2OyLU0dm79VgfT6mRel-yHBs=","tags":{"amenity":"parcel_locker","parcel_mail_in":"yes","parcel_pickup":"yes","addr:full":"бул. Цариградско шосе 86","addr:city":"София","addr:state":"София-град","addr:postcode":"1784","addr:country":"BG","name":"easybox 1195 Спейс Тауър","opening_hours":"24/7","image":"https://sameday.bg/locker/image/12400/small","brand":"easybox","brand:wikidata":"Q114496224","operator:wikidata":"Q114417096"},"coordinates":[42.648882,23.393587]},"tags_mismatch":false,"dist":0},{"osm":false,"atp":{"id":"oykXcJY9BVs4rMaUBkoMX9LExlc=","tags":{"amenity":"parcel_locker","parcel_mail_in":"yes","parcel_pickup":"yes","addr:full":"ул. Сан Стефано 80","addr:city":"Плевен","addr:state":"Плевен","addr:postcode":"5800","addr:country":"BG","name":"easybox 5814 Кауфланд Плевен Кайлъка","opening_hours":"Mo-Sa 07:00-21:00; Su 08:00-21:00","image":"https://sameday.bg/locker/image/12403/small","brand":"easybox","brand:wikidata":"Q114496224","operator:wikidata":"Q114417096"},"coordinates":[43.395185,24.620822]},"tags_mismatch":false,"dist":0},{"osm":false,"atp":{"id":"ajh-jg24SUnUuOvhhSx9q4Ol1XE=","tags":{"amenity":"parcel_locker","parcel_mail_in":"yes","parcel_pickup":"yes","addr:full":"бул. Джавахарлал Неру 28 вход между Адмирал и ДМ","addr:city":"София","addr:state":"София-град","addr:postcode":"1324","addr:country":"BG","name":"easybox 1194 Силвър Център Люлин София","opening_hours":"24/7","image":"https://sameday.bg/locker/image/12406/small","brand":"easybox","brand:wikidata":"Q114496224","operator:wikidata":"Q114417096"},"coordinates":[42.715169,23.254239]},"tags_mismatch":false,"dist":0},{"osm":false,"atp":{"id":"rtVblpDjyaA94o-6f7MdV6KCdHQ=","tags":{"amenity":"parcel_locker","parcel_mail_in":"yes","parcel_pickup":"yes","addr:full":"бул. Сливница 65","addr:city":"София","addr:state":"София-град","addr:postcode":"1309","addr:country":"BG","name":"easybox 1193 Търговски Център Глобус","opening_hours":"24/7","image":"https://sameday.bg/locker/image/12410/small","brand":"easybox","brand:wikidata":"Q114496224","operator:wikidata":"Q114417096"},"coordinates":[42.710651,23.291674]},"tags_mismatch":false,"dist":0},{"osm":false,"atp":{"id":"VusW__GFwI5eKoGtTQQWi4mGfUQ=","tags":{"amenity":"parcel_locker","parcel_mail_in":"yes","parcel_pickup":"yes","addr:full":"ул Хан Аспарух 30 ниво-2 вход/изход паркинг","addr:city":"Стара Загора","addr:state":"Стара Загора","addr:postcode":"6000","addr:country":"BG","name":"easybox 6018 Мол Галерия Стара Загора","opening_hours":"Mo-Su 10:00-21:00","image":"https://sameday.bg/locker/image/12412/small","brand":"easybox","brand:wikidata":"Q114496224","operator:wikidata":"Q114417096"},"coordinates":[42.438253,25.632129]},"tags_mismatch":false,"dist":0},{"osm":false,"atp":{"id":"oFZpMo0N6d10hDIboJHBD5aAwbg=","tags":{"amenity":"parcel_locker","parcel_mail_in":"yes","parcel_pickup":"yes","addr:full":"София бул. Александър Малинов 77 централен вход вдясно от ескалаторите","addr:city":"София","addr:state":"София-град","addr:postcode":"1712","addr:country":"BG","name":"easybox 1192 Принцес Аутлет Център София","opening_hours":"Mo-Su 10:00-21:00","image":"https://sameday.bg/locker/image/12415/small","brand":"easybox","brand:wikidata":"Q114496224","operator:wikidata":"Q114417096"},"coordinates":[42.636666,23.372279]},"tags_mismatch":false,"dist":0},{"osm":false,"atp":{"id":"P7QeUlyFUN_meaBzRR_GuOEwExg=","tags":{"amenity":"parcel_locker","parcel_mail_in":"yes","parcel_pickup":"yes","addr:full":"София бул. Александър Малинов 51 централен вход до ескалаторите","addr:city":"София","addr:state":"София-град","addr:postcode":"1712","addr:country":"BG","name":"easybox 1191 Метро Сити Младост3 София","opening_hours":"Mo-Su 09:00-22:00","image":"https://sameday.bg/locker/image/12419/small","brand":"easybox","brand:wikidata":"Q114496224","operator:wikidata":"Q114417096"},"coordinates":[42.646088,23.376109]},"tags_mismatch":false,"dist":0},{"osm":false,"atp":{"id":"kIVlzpxlyNFTCxRFCjxFns-rYJA=","tags":{"amenity":"parcel_locker","parcel_mail_in":"yes","parcel_pickup":"yes","addr:full":"София бул. Цариградско шосе 139 в магазина","addr:city":"София","addr:state":"София-град","addr:postcode":"1784","addr:country":"BG","name":"easybox 1190 Офис1 София Цариградско шосе","opening_hours":"Mo-Fr 09:00-19:00; Sa-Su 10:00-16:00","image":"https://sameday.bg/locker/image/12422/small","brand":"easybox","brand:wikidata":"Q114496224","operator:wikidata":"Q114417096"},"coordinates":[42.651629,23.392484]},"tags_mismatch":false,"dist":0},{"osm":false,"atp":{"id":"fo5HMaBUTR0ePXwqWvZK6UaVFHU=","tags":{"amenity":"parcel_locker","parcel_mail_in":"yes","parcel_pickup":"yes","addr:full":"Пловдив бул. Санкт Петербург 48","addr:city":"Пловдив","addr:state":"Пловдив","addr:postcode":"4000","addr:country":"BG","name":"easybox 4054 Офис1 Пловдив Санкт Петербург","opening_hours":"Mo-Su 09:00-19:00","image":"https://sameday.bg/locker/image/12429/small","brand":"easybox","brand:wikidata":"Q114496224","operator:wikidata":"Q114417096"},"coordinates":[42.142345,24.783912]},"tags_mismatch":false,"dist":0},{"osm":false,"atp":{"id":"dQ7xw-4x1RQ3hAbRE_idUMOO2WY=","tags":{"amenity":"parcel_locker","parcel_mail_in":"yes","parcel_pickup":"yes","addr:full":"София бул. Ломско шосе 171","addr:city":"София","addr:state":"София-град","addr:postcode":"1229","addr:country":"BG","name":"easybox 1187 Билла София Надежда","opening_hours":"Mo-Su 07:30-22:00","image":"https://sameday.bg/locker/image/12435/small","brand":"easybox","brand:wikidata":"Q114496224","operator:wikidata":"Q114417096"},"coordinates":[42.735524,23.291879]},"tags_mismatch":false,"dist":0},{"osm":false,"atp":{"id":"vRV5LL2dO3lwshJveEw1IGTjey4=","tags":{"amenity":"parcel_locker","parcel_mail_in":"yes","parcel_pickup":"yes","addr:full":"София ул.Опълченска 35","addr:city":"София","addr:state":"София-град","addr:postcode":"1303","addr:country":"BG","name":"easybox 1186 Билла София Илинден","opening_hours":"Mo-Su 07:30-22:00","image":"https://sameday.bg/locker/image/12437/small","brand":"easybox","brand:wikidata":"Q114496224","operator:wikidata":"Q114417096"},"coordinates":[42.704172,23.310636]},"tags_mismatch":false,"dist":0},{"osm":false,"atp":{"id":"dFwqo76aeO5eXR67eAzghimPy_A=","tags":{"amenity":"parcel_locker","parcel_mail_in":"yes","parcel_pickup":"yes","addr:full":"София бул. Владимир Вазов 20","addr:city":"София","addr:state":"София-град","addr:postcode":"1517","addr:country":"BG","name":"easybox 1185 Билла София Подуене","opening_hours":"Mo-Su 07:30-22:00","image":"https://sameday.bg/locker/image/12439/small","brand":"easybox","brand:wikidata":"Q114496224","operator:wikidata":"Q114417096"},"coordinates":[42.702267,23.353709]},"tags_mismatch":false,"dist":0},{"osm":false,"atp":{"id":"_Vo3qNb6bQGJOtOCV3BFQpXZsUM=","tags":{"amenity":"parcel_locker","parcel_mail_in":"yes","parcel_pickup":"yes","addr:full":"София ул. Копенхаген 22","addr:city":"София","addr:state":"София-град","addr:postcode":"1582","addr:country":"BG","name":"easybox 1183 Билла София Дружба","opening_hours":"Mo-Su 07:30-22:00","image":"https://sameday.bg/locker/image/12444/small","brand":"easybox","brand:wikidata":"Q114496224","operator:wikidata":"Q114417096"},"coordinates":[42.646991,23.403909]},"tags_mismatch":false,"dist":0},{"osm":false,"atp":{"id":"GIC3TmZO3Rh1DZmYCnqUJsP9aAU=","tags":{"amenity":"parcel_locker","parcel_mail_in":"yes","parcel_pickup":"yes","addr:full":"София бул. Симеоновско шосе 211","addr:city":"София","addr:state":"София-град","addr:postcode":"1434","addr:country":"BG","name":"easybox 1181 Билла София Симеоново","opening_hours":"Mo-Su 07:00-22:00","image":"https://sameday.bg/locker/image/12448/small","brand":"easybox","brand:wikidata":"Q114496224","operator:wikidata":"Q114417096"},"coordinates":[42.614392,23.339064]},"tags_mismatch":false,"dist":0},{"osm":false,"atp":{"id":"PgytQrjbZTh9106Fy-Q8VIbt5A4=","tags":{"amenity":"parcel_locker","parcel_mail_in":"yes","parcel_pickup":"yes","addr:full":"София Г.М.Димитров 65 от дясно след входа","addr:city":"София","addr:state":"София-град","addr:postcode":"1172","addr:country":"BG","name":"easybox 1180 Билла София ГМДимитров","opening_hours":"Mo-Sa 07:30-22:00; Su 00:00-24:00","image":"https://sameday.bg/locker/image/12451/small","brand":"easybox","brand:wikidata":"Q114496224","operator:wikidata":"Q114417096"},"coordinates":[42.662854,23.355245]},"tags_mismatch":false,"dist":0},{"osm":false,"atp":{"id":"IDgCMNS56ayZxDyOpS-4wIoKmy4=","tags":{"amenity":"parcel_locker","parcel_mail_in":"yes","parcel_pickup":"yes","addr:full":"Бургас ул. Гочо Иванов 30","addr:city":"Бургас","addr:state":"Бургас","addr:postcode":"8125","addr:country":"BG","name":"easybox 8026 Билла Бургас Г. Иванов","opening_hours":"Mo-Su 07:30-22:00","image":"https://sameday.bg/locker/image/12453/small","brand":"easybox","brand:wikidata":"Q114496224","operator:wikidata":"Q114417096"},"coordinates":[42.503844,27.460383]},"tags_mismatch":false,"dist":0},{"osm":false,"atp":{"id":"VjUju_lpcp2jr-4kQbe8Cvg_t6k=","tags":{"amenity":"parcel_locker","parcel_mail_in":"yes","parcel_pickup":"yes","addr:full":"Пловдив бул. 6-ти Септември 221, в дясно след входа","addr:city":"Пловдив","addr:state":"Пловдив","addr:postcode":"4000","addr:country":"BG","name":"easybox 4053 Билла Пловдив 6 септември","opening_hours":"Mo-Su 07:30-22:00","image":"https://sameday.bg/locker/image/12455/small","brand":"easybox","brand:wikidata":"Q114496224","operator:wikidata":"Q114417096"},"coordinates":[42.153647,24.762064]},"tags_mismatch":false,"dist":0},{"osm":false,"atp":{"id":"qOnijzW27kGHWLlHg8FCdFkynCI=","tags":{"amenity":"parcel_locker","parcel_mail_in":"yes","parcel_pickup":"yes","addr:full":"Русе ул. Стефан Стамболов 99, в дясно след входа","addr:city":"Русе","addr:state":"Русе","addr:postcode":"7001","addr:country":"BG","name":"easybox 7015 Билла Русе Стамболов","opening_hours":"Mo-Su 07:30-22:00","image":"https://sameday.bg/locker/image/12457/small","brand":"easybox","brand:wikidata":"Q114496224","operator:wikidata":"Q114417096"},"coordinates":[43.830799,25.950878]},"tags_mismatch":false,"dist":0},{"osm":false,"atp":{"id":"Vom7_k87_YDAnOW9XNn3sWpIMYI=","tags":{"amenity":"parcel_locker","parcel_mail_in":"yes","parcel_pickup":"yes","addr:full":"Ямбол ул. Арда 7, в дясно след входа","addr:city":"Ямбол","addr:state":"Ямбол","addr:postcode":"8600","addr:country":"BG","name":"easybox 8605 Билла Ямбол Арда","opening_hours":"Mo-Su 07:30-22:00","image":"https://sameday.bg/locker/image/12459/small","brand":"easybox","brand:wikidata":"Q114496224","operator:wikidata":"Q114417096"},"coordinates":[42.487788,26.501665]},"tags_mismatch":false,"dist":0},{"osm":false,"atp":{"id":"nkm5ZwPbvF3lS92TmyYxuUvFbac=","tags":{"amenity":"parcel_locker","parcel_mail_in":"yes","parcel_pickup":"yes","addr:full":"бул. Рожен № 20Е","addr:city":"София","addr:state":"София-град","addr:postcode":"1220","addr:country":"BG","name":"easybox 1179 ОМВ София Рожен","opening_hours":"24/7","image":"https://sameday.bg/locker/image/12461/small","brand":"easybox","brand:wikidata":"Q114496224","operator:wikidata":"Q114417096"},"coordinates":[42.732653,23.314243]},"tags_mismatch":false,"dist":0},{"osm":false,"atp":{"id":"aUIWgRmvmsrBVq_eGt5FdtlHTp4=","tags":{"amenity":"parcel_locker","parcel_mail_in":"yes","parcel_pickup":"yes","addr:full":"бул. Проф. Цветан Лазаров № 63, от ляво на входа","addr:city":"София","addr:state":"София-град","addr:postcode":"1574","addr:country":"BG","name":"easybox 1177 ОМВ София Лазаров","opening_hours":"24/7","image":"https://sameday.bg/locker/image/12465/small","brand":"easybox","brand:wikidata":"Q114496224","operator:wikidata":"Q114417096"},"coordinates":[42.66152,23.391759]},"tags_mismatch":false,"dist":0},{"osm":false,"atp":{"id":"faja_NBPUgcksjG-fYz0mKX1cLM=","tags":{"amenity":"parcel_locker","parcel_mail_in":"yes","parcel_pickup":"yes","addr:full":"ул. Резбарска № 1 Б, от ляво на входа","addr:city":"София","addr:state":"София-град","addr:postcode":"1510","addr:country":"BG","name":"easybox 1174 ОМВ София Резбарска","opening_hours":"24/7","image":"https://sameday.bg/locker/image/12472/small","brand":"easybox","brand:wikidata":"Q114496224","operator:wikidata":"Q114417096"},"coordinates":[42.707942,23.341871]},"tags_mismatch":false,"dist":0},{"osm":false,"atp":{"id":"uLpwGTDfsbX2LKBOrjrVw-h3s8A=","tags":{"amenity":"parcel_locker","parcel_mail_in":"yes","parcel_pickup":"yes","addr:full":"Ломско шосе № 2, от дясно на входа","addr:city":"София","addr:state":"София-град","addr:postcode":"1220","addr:country":"BG","name":"easybox 1172 ОМВ София Ломско","opening_hours":"24/7","image":"https://sameday.bg/locker/image/12476/small","brand":"easybox","brand:wikidata":"Q114496224","operator:wikidata":"Q114417096"},"coordinates":[42.723045,23.306844]},"tags_mismatch":false,"dist":0},{"osm":false,"atp":{"id":"7C2t26tt5VKOG2ynWpMf6J2hDtI=","tags":{"amenity":"parcel_locker","parcel_mail_in":"yes","parcel_pickup":"yes","addr:full":"бул. Сливница 258","addr:city":"София","addr:state":"София-град","addr:postcode":"1303","addr:country":"BG","name":"easybox 1171 ОМВ София Сливница","opening_hours":"24/7","image":"https://sameday.bg/locker/image/12478/small","brand":"easybox","brand:wikidata":"Q114496224","operator:wikidata":"Q114417096"},"coordinates":[42.716127,23.282269]},"tags_mismatch":false,"dist":0},{"osm":false,"atp":{"id":"-2NEAIdP-VNuFdKLoIocQX-Iruk=","tags":{"amenity":"parcel_locker","parcel_mail_in":"yes","parcel_pickup":"yes","addr:full":"бул. Никола Мушанов № 114 Е, от дясно на входа","addr:city":"София","addr:state":"София-град","addr:postcode":"1330","addr:country":"BG","name":"easybox 1170 ОМВ София Мушанов","opening_hours":"24/7","image":"https://sameday.bg/locker/image/12480/small","brand":"easybox","brand:wikidata":"Q114496224","operator:wikidata":"Q114417096"},"coordinates":[42.689534,23.276718]},"tags_mismatch":false,"dist":0},{"osm":false,"atp":{"id":"qDypT4Cqs3D5HJKsw6eDm-p9hZE=","tags":{"amenity":"parcel_locker","parcel_mail_in":"yes","parcel_pickup":"yes","addr:full":"ул. Бойчо Бойчев № 66, в дясно на входа","addr:city":"София","addr:state":"София-град","addr:postcode":"1632","addr:country":"BG","name":"easybox 1169 ОМВ София Бойчев","opening_hours":"24/7","image":"https://sameday.bg/locker/image/12482/small","brand":"easybox","brand:wikidata":"Q114496224","operator:wikidata":"Q114417096"},"coordinates":[42.682409,23.243006]},"tags_mismatch":false,"dist":0},{"osm":false,"atp":{"id":"USQ06aDOJaaBD7cTkKVafDSxA8w=","tags":{"amenity":"parcel_locker","parcel_mail_in":"yes","parcel_pickup":"yes","addr:full":"бул. Владимир Вазов № 4","addr:city":"София","addr:state":"София-град","addr:postcode":"1505","addr:country":"BG","name":"easybox 1168 ОМВ София Вазов","opening_hours":"24/7","image":"https://sameday.bg/locker/image/12484/small","brand":"easybox","brand:wikidata":"Q114496224","operator:wikidata":"Q114417096"},"coordinates":[42.701833,23.351239]},"tags_mismatch":false,"dist":0},{"osm":false,"atp":{"id":"ET7GagEgiQrDhK-tp64U7CmoM3M=","tags":{"amenity":"parcel_locker","parcel_mail_in":"yes","parcel_pickup":"yes","addr:full":"бул. Пещерско шосе 36","addr:city":"Пловдив","addr:state":"Пловдив","addr:postcode":"4000","addr:country":"BG","name":"easybox 4052 Кауфланд Пловдив Хр. Смирненски","opening_hours":"Mo-Su 07:00-22:00","image":"https://sameday.bg/locker/image/12486/small","brand":"easybox","brand:wikidata":"Q114496224","operator:wikidata":"Q114417096"},"coordinates":[42.140237,24.724372]},"tags_mismatch":false,"dist":0},{"osm":false,"atp":{"id":"vspcwgGf8wyUIzcXVKzH7ityYWU=","tags":{"amenity":"parcel_locker","parcel_mail_in":"yes","parcel_pickup":"yes","addr:full":"ул. Димитър Стоилов 1","addr:city":"Асеновград","addr:state":"Пловдив","addr:postcode":"4230","addr:country":"BG","name":"easybox 4051 Кауфланд Асеновград","opening_hours":"Mo-Su 07:00-21:00","image":"https://sameday.bg/locker/image/12489/small","brand":"easybox","brand:wikidata":"Q114496224","operator:wikidata":"Q114417096"},"coordinates":[42.019506,24.860647]},"tags_mismatch":false,"dist":0},{"osm":false,"atp":{"id":"W328GnKpBXRg0yQ6RGUL7ZEY0uQ=","tags":{"amenity":"parcel_locker","parcel_mail_in":"yes","parcel_pickup":"yes","addr:full":"бул. Цариградско шосе 115Л паркинг ниво -3 до магазин Маргел","addr:city":"София","addr:state":"София-град","addr:postcode":"1784","addr:country":"BG","name":"easybox 1166 Европейски Търговски Център София","opening_hours":"24/7","image":"https://sameday.bg/locker/image/12496/small","brand":"easybox","brand:wikidata":"Q114496224","operator:wikidata":"Q114417096"},"coordinates":[42.66042,23.383795]},"tags_mismatch":false,"dist":0},{"osm":false,"atp":{"id":"eeUJ34iAOdt0JXtRxbJAbGMG9wI=","tags":{"amenity":"parcel_locker","parcel_mail_in":"yes","parcel_pickup":"yes","addr:full":"ул.Транспортна 31","addr:city":"Бургас","addr:state":"Бургас","addr:postcode":"8125","addr:country":"BG","name":"easybox 8025 Бургас Плаза Мол","opening_hours":"24/7","image":"https://sameday.bg/locker/image/12498/small","brand":"easybox","brand:wikidata":"Q114496224","operator:wikidata":"Q114417096"},"coordinates":[42.530863,27.457394]},"tags_mismatch":false,"dist":0},{"osm":false,"atp":{"id":"f8kAV6jNlzAOVo_lMK7bNASJzXQ=","tags":{"amenity":"parcel_locker","parcel_mail_in":"yes","parcel_pickup":"yes","addr:full":"ул. Сан Стефано 22 ниво -1 срещу Билла","addr:city":"София","addr:state":"София-град","addr:postcode":"1504","addr:country":"BG","name":"easybox 1165 Сан Стефано Плаза София","opening_hours":"Mo-Su 10:00-22:00","image":"https://sameday.bg/locker/image/12500/small","brand":"easybox","brand:wikidata":"Q114496224","operator:wikidata":"Q114417096"},"coordinates":[42.692039,23.337768]},"tags_mismatch":false,"dist":0},{"osm":false,"atp":{"id":"tZRwiL9DJubZopGDC98eZ7_Y-4E=","tags":{"amenity":"parcel_locker","parcel_mail_in":"yes","parcel_pickup":"yes","addr:full":"бул. Симеоновско шосе 35","addr:city":"София","addr:state":"София-град","addr:postcode":"1700","addr:country":"BG","name":"easybox 1164 Спорт Бокс София","opening_hours":"Mo-Su 10:30-19:30","image":"https://sameday.bg/locker/image/12504/small","brand":"easybox","brand:wikidata":"Q114496224","operator:wikidata":"Q114417096"},"coordinates":[42.652986,23.336425]},"tags_mismatch":false,"dist":0},{"osm":false,"atp":{"id":"sH85n9Y32FrgYDFShd50DlSTWPA=","tags":{"amenity":"parcel_locker","parcel_mail_in":"yes","parcel_pickup":"yes","addr:full":"бул. „Андрей Сахаров“ 14","addr:city":"София","addr:state":"София-град","addr:postcode":"1784","addr:country":"BG","name":"easybox 1163 Метропол Младост 1 София","opening_hours":"Mo-Su 09:00-21:00","image":"https://sameday.bg/locker/image/12506/small","brand":"easybox","brand:wikidata":"Q114496224","operator:wikidata":"Q114417096"},"coordinates":[42.65346,23.37308]},"tags_mismatch":false,"dist":0},{"osm":false,"atp":{"id":"--07lnXA7MLLLvZDR6YEFT_LMys=","tags":{"amenity":"parcel_locker","parcel_mail_in":"yes","parcel_pickup":"yes","addr:full":"Бул България 109 вход от страната на паркинга","addr:city":"София","addr:state":"София-град","addr:postcode":"1404","addr:country":"BG","name":"easybox 1162 Вертиго София","opening_hours":"Mo-Su 08:00-19:00","image":"https://sameday.bg/locker/image/12508/small","brand":"easybox","brand:wikidata":"Q114496224","operator:wikidata":"Q114417096"},"coordinates":[42.657031,23.285649]},"tags_mismatch":false,"dist":0},{"osm":false,"atp":{"id":"1rDbKurahzxQWQEoyWvLaWWDins=","tags":{"amenity":"parcel_locker","parcel_mail_in":"yes","parcel_pickup":"yes","addr:full":"ул. Цар Калоян 23","addr:city":"Бургас","addr:state":"Бургас","addr:postcode":"8000","addr:country":"BG","name":"easybox 8024 Болеро Краснодар Бургас","opening_hours":"Mo-Su 07:00-22:00","image":"https://sameday.bg/locker/image/12510/small","brand":"easybox","brand:wikidata":"Q114496224","operator:wikidata":"Q114417096"},"coordinates":[42.493287,27.464163]},"tags_mismatch":false,"dist":0},{"osm":false,"atp":{"id":"rCLvgjah_391bpMmiajT_ejtWoo=","tags":{"amenity":"parcel_locker","parcel_mail_in":"yes","parcel_pickup":"yes","addr:full":"бул. „Президент Линкълн“ 94A вход от страната на паркинга ет.2","addr:city":"София","addr:state":"София-град","addr:postcode":"1632","addr:country":"BG","name":"easybox 1161 Търговски Център Овча Купел","opening_hours":"Mo-Sa 10:00-19:30; Su 10:00-18:00","image":"https://sameday.bg/locker/image/12512/small","brand":"easybox","brand:wikidata":"Q114496224","operator:wikidata":"Q114417096"},"coordinates":[42.690114,23.254108]},"tags_mismatch":false,"dist":0},{"osm":false,"atp":{"id":"RkGZ5a18DYrBJiXhl8_aosWbGh0=","tags":{"amenity":"parcel_locker","parcel_mail_in":"yes","parcel_pickup":"yes","addr:full":"Бизнес Парк София, Сграда 11А, от лявата страна на магазин DM","addr:city":"София","addr:state":"София-град","addr:postcode":"1715","addr:country":"BG","name":"easybox 1160 Бизнес Парк София Сграда 11А","opening_hours":"24/7","image":"https://sameday.bg/locker/image/12514/small","brand":"easybox","brand:wikidata":"Q114496224","operator:wikidata":"Q114417096"},"coordinates":[42.626681,23.37614]},"tags_mismatch":false,"dist":0},{"osm":false,"atp":{"id":"PJhlf1l8qx7NV3tqhdW3GrFLF6c=","tags":{"amenity":"parcel_locker","parcel_mail_in":"yes","parcel_pickup":"yes","addr:full":"бул. Ситняково 23, до 23-то училище","addr:city":"София","addr:state":"София-град","addr:postcode":"1505","addr:country":"BG","name":"easybox 1159 Център Ситняково","opening_hours":"24/7","image":"https://sameday.bg/locker/image/12516/small","brand":"easybox","brand:wikidata":"Q114496224","operator:wikidata":"Q114417096"},"coordinates":[42.694679,23.355575]},"tags_mismatch":false,"dist":0},{"osm":false,"atp":{"id":"vwSlS07wbeksGL3JYOnetOHS1Kk=","tags":{"amenity":"parcel_locker","parcel_mail_in":"yes","parcel_pickup":"yes","addr:full":"бул. Черни връх 47 административна сграда ПАРТЕР, зад рецепция","addr:city":"София","addr:state":"София-град","addr:postcode":"1407","addr:country":"BG","name":"easybox 1158 Бизнес Център Витоша","opening_hours":"Mo-Su 09:00-21:00","image":"https://sameday.bg/locker/image/12519/small","brand":"easybox","brand:wikidata":"Q114496224","operator:wikidata":"Q114417096"},"coordinates":[42.66165,23.317635]},"tags_mismatch":false,"dist":0},{"osm":false,"atp":{"id":"R_vyujD-SIOzeCdYvYpM1OCrMp4=","tags":{"amenity":"parcel_locker","parcel_mail_in":"yes","parcel_pickup":"yes","addr:full":"Младост 4 Бл. 438 вх. Б","addr:city":"София","addr:state":"София-град","addr:postcode":"1715","addr:country":"BG","name":"easybox 1157 бл.438 вх.Б Младост 4","opening_hours":"24/7","image":"https://sameday.bg/locker/image/12521/small","brand":"easybox","brand:wikidata":"Q114496224","operator:wikidata":"Q114417096"},"coordinates":[42.631747,23.374584]},"tags_mismatch":false,"dist":0},{"osm":false,"atp":{"id":"oEyzdnv7xAld0zhzKAmS8m7AQ7M=","tags":{"amenity":"parcel_locker","parcel_mail_in":"yes","parcel_pickup":"yes","addr:full":"бул. „Цар Борис III“ 375","addr:city":"София","addr:state":"София-град","addr:postcode":"1619","addr:country":"BG","name":"easybox 1156 Читалище Братя Миладинови","opening_hours":"24/7","image":"https://sameday.bg/locker/image/12523/small","brand":"easybox","brand:wikidata":"Q114496224","operator:wikidata":"Q114417096"},"coordinates":[42.658502,23.239859]},"tags_mismatch":false,"dist":0},{"osm":false,"atp":{"id":"wTg7iasc64SZTEWg2qPvDH49UYE=","tags":{"amenity":"parcel_locker","parcel_mail_in":"yes","parcel_pickup":"yes","addr:full":"бул. БРАТЯ БЪКСТОН 40, до ресторанта","addr:city":"София","addr:state":"София-град","addr:postcode":"1618","addr:country":"BG","name":"easybox 1155 Интрансмаш Инженеринг","opening_hours":"Mo-Sa 09:00-21:00; Su 00:00-24:00","image":"https://sameday.bg/locker/image/12525/small","brand":"easybox","brand:wikidata":"Q114496224","operator:wikidata":"Q114417096"},"coordinates":[42.665829,23.274915]},"tags_mismatch":false,"dist":0},{"osm":false,"atp":{"id":"m4_6j7lQBqB-6aDyrk7qcZ0kTTA=","tags":{"amenity":"parcel_locker","parcel_mail_in":"yes","parcel_pickup":"yes","addr:full":"ул. Партений Нишавски 10, до рецепция","addr:city":"София","addr:state":"София-град","addr:postcode":"1303","addr:country":"BG","name":"easybox 1154 БЦ Блу Палас","opening_hours":"Mo-Fr 08:00-21:00; Sa-Su 09:00-20:00","image":"https://sameday.bg/locker/image/12527/small","brand":"easybox","brand:wikidata":"Q114496224","operator:wikidata":"Q114417096"},"coordinates":[42.697095,23.305152]},"tags_mismatch":false,"dist":0},{"osm":false,"atp":{"id":"7QpRzMCoHQMqLasAVkAtgln0Cfo=","tags":{"amenity":"parcel_locker","parcel_mail_in":"yes","parcel_pickup":"yes","addr:full":"ул. Коста Лулчев 52, ниво партер","addr:city":"София","addr:state":"София-град","addr:postcode":"1574","addr:country":"BG","name":"easybox 1153 Скай Сити Център","opening_hours":"Mo-Su 10:00-21:00","image":"https://sameday.bg/locker/image/12529/small","brand":"easybox","brand:wikidata":"Q114496224","operator:wikidata":"Q114417096"},"coordinates":[42.679728,23.367271]},"tags_mismatch":false,"dist":0},{"osm":false,"atp":{"id":"fB1_KCKP0Jke8lx1Bjfc1LJEx2Q=","tags":{"amenity":"parcel_locker","parcel_mail_in":"yes","parcel_pickup":"yes","addr:full":"ул. Софроний Врачански 18, във входа","addr:city":"Варна","addr:state":"Варна","addr:postcode":"9000","addr:country":"BG","name":"easybox 9047 КООП Варна Централен офис","opening_hours":"Mo-Fr 06:30-19:00; Sa-Su 08:00-19:00","image":"https://sameday.bg/locker/image/12533/small","brand":"easybox","brand:wikidata":"Q114496224","operator:wikidata":"Q114417096"},"coordinates":[43.199795,27.913654]},"tags_mismatch":false,"dist":0},{"osm":false,"atp":{"id":"UrrABll0YXRKpDChwXFaWUpzgms=","tags":{"amenity":"parcel_locker","parcel_mail_in":"yes","parcel_pickup":"yes","addr:full":"ул. Ради Радев 18","addr:city":"София","addr:state":"София-град","addr:postcode":"1700","addr:country":"BG","name":"easybox 1152 Р.М. Мениджмънт","opening_hours":"24/7","image":"https://sameday.bg/locker/image/12535/small","brand":"easybox","brand:wikidata":"Q114496224","operator:wikidata":"Q114417096"},"coordinates":[42.653247,23.329461]},"tags_mismatch":false,"dist":0},{"osm":false,"atp":{"id":"8DQmnRLgtkFKJ6CBk0V7FW7Gbe8=","tags":{"amenity":"parcel_locker","parcel_mail_in":"yes","parcel_pickup":"yes","addr:full":"ж.к. Изгрев бл. 101, на входа на магазина","addr:city":"Бургас","addr:state":"Бургас","addr:postcode":"8008","addr:country":"BG","name":"easybox 8023 Болеро Бургас Изгрев","opening_hours":"Mo-Sa 07:00-22:00; Su 00:00-22:00","image":"https://sameday.bg/locker/image/12538/small","brand":"easybox","brand:wikidata":"Q114496224","operator:wikidata":"Q114417096"},"coordinates":[42.524786,27.464779]},"tags_mismatch":false,"dist":0},{"osm":false,"atp":{"id":"xhYGAXuNRueuW93J1ZeEoh9m_AM=","tags":{"amenity":"parcel_locker","parcel_mail_in":"yes","parcel_pickup":"yes","addr:full":"бул. Сюрен 29","addr:city":"Търговище","addr:state":"Търговище","addr:postcode":"7702","addr:country":"BG","name":"easybox 7706 Ритейл парк Търговище","opening_hours":"Mo-Sa 08:00-21:00; Su 00:00-24:00","image":"https://sameday.bg/locker/image/12540/small","brand":"easybox","brand:wikidata":"Q114496224","operator:wikidata":"Q114417096"},"coordinates":[43.241802,26.55801]},"tags_mismatch":false,"dist":0},{"osm":false,"atp":{"id":"_aqFwIRtIQ94jipW6CNBYJ81fPU=","tags":{"amenity":"parcel_locker","parcel_mail_in":"yes","parcel_pickup":"yes","addr:full":"ул. Кукуряк 3","addr:city":"София","addr:state":"София-град","addr:postcode":"1618","addr:country":"BG","name":"easybox 1151 Кауфланд София Овча Купел","opening_hours":"24/7","image":"https://sameday.bg/locker/image/12543/small","brand":"easybox","brand:wikidata":"Q114496224","operator:wikidata":"Q114417096"},"coordinates":[42.683231,23.2674]},"tags_mismatch":false,"dist":0},{"osm":false,"atp":{"id":"VhpUiW8ra5UksdHjt5GAe_HG4WY=","tags":{"amenity":"parcel_locker","parcel_mail_in":"yes","parcel_pickup":"yes","addr:full":"бул. Александър Малинов 75, на изхода на магазин ХИТ","addr:city":"София","addr:state":"София-град","addr:postcode":"1712","addr:country":"BG","name":"easybox 1150 Хит Макс Младост","opening_hours":"Mo-Su 08:00-22:00","image":"https://sameday.bg/locker/image/12545/small","brand":"easybox","brand:wikidata":"Q114496224","operator:wikidata":"Q114417096"},"coordinates":[42.638146,23.372201]},"tags_mismatch":false,"dist":0},{"osm":false,"atp":{"id":"-P4S_PzubkN3fE82mXmdlBNaxfo=","tags":{"amenity":"parcel_locker","parcel_mail_in":"yes","parcel_pickup":"yes","addr:full":"ул. „Обелско шосе“ 20, на изхода на магазин ХИТ след касите","addr:city":"София","addr:state":"София-град","addr:postcode":"1360","addr:country":"BG","name":"easybox 1148 Хит Макс Модерно Предградие","opening_hours":"Mo-Sa 08:00-22:00; Su 08:00-24:00","image":"https://sameday.bg/locker/image/12549/small","brand":"easybox","brand:wikidata":"Q114496224","operator:wikidata":"Q114417096"},"coordinates":[42.730915,23.268041]},"tags_mismatch":false,"dist":0},{"osm":false,"atp":{"id":"G73gZV7RciOzAfQNwQLRZfCwqtw=","tags":{"amenity":"parcel_locker","parcel_mail_in":"yes","parcel_pickup":"yes","addr:full":"бул. История славянобългарска 21, до магазин Хиполенд","addr:city":"София","addr:state":"София-град","addr:postcode":"1220","addr:country":"BG","name":"easybox 1147 Ритейл Парк Средец","opening_hours":"Mo-Su 09:00-21:00","image":"https://sameday.bg/locker/image/12551/small","brand":"easybox","brand:wikidata":"Q114496224","operator:wikidata":"Q114417096"},"coordinates":[42.718228,23.314514]},"tags_mismatch":false,"dist":0},{"osm":false,"atp":{"id":"jwYJXAJFnJBmEqz9CgjcqrGk1uc=","tags":{"amenity":"parcel_locker","parcel_mail_in":"yes","parcel_pickup":"yes","addr:full":"ул. д-р Стоян Чомаков 20 в магазина","addr:city":"София","addr:state":"София-град","addr:postcode":"1750","addr:country":"BG","name":"easybox 1146 Бакалия  Младост 1","opening_hours":"Mo-Su 08:00-22:00","image":"https://sameday.bg/locker/image/12554/small","brand":"easybox","brand:wikidata":"Q114496224","operator:wikidata":"Q114417096"},"coordinates":[42.660307,23.374446]},"tags_mismatch":false,"dist":0},{"osm":false,"atp":{"id":"paCMjMahLuGFRt7Wh2DPMHcIpzw=","tags":{"amenity":"parcel_locker","parcel_mail_in":"yes","parcel_pickup":"yes","addr:full":"Банкя ул.Александър Стамболийски 30 в магазина","addr:city":"Банкя","addr:state":"София-град","addr:postcode":"1320","addr:country":"BG","name":"easybox 1226 Бакалия Банкя","opening_hours":"24/7","image":"https://sameday.bg/locker/image/12558/small","brand":"easybox","brand:wikidata":"Q114496224","operator:wikidata":"Q114417096"},"coordinates":[42.710145,23.140432]},"tags_mismatch":false,"dist":0},{"osm":false,"atp":{"id":"161jCF8FL5WOJpyVjNZc0qaASII=","tags":{"amenity":"parcel_locker","parcel_mail_in":"yes","parcel_pickup":"yes","addr:full":"Жк . Люлин 7, с/у бл.702","addr:city":"София","addr:state":"София-град","addr:postcode":"1324","addr:country":"BG","name":"easybox 1144 Бакалия  Люлин 7","opening_hours":"24/7","image":"https://sameday.bg/locker/image/12560/small","brand":"easybox","brand:wikidata":"Q114496224","operator:wikidata":"Q114417096"},"coordinates":[42.711786,23.266778]},"tags_mismatch":false,"dist":0},{"osm":false,"atp":{"id":"c-Z2P1zAtjQCBf_8IODvYt4xvF4=","tags":{"amenity":"parcel_locker","parcel_mail_in":"yes","parcel_pickup":"yes","addr:full":"ул. Лъчезар Станчев 5","addr:city":"София","addr:state":"София-град","addr:postcode":"1797","addr:country":"BG","name":"easybox 1143 Софарма Бизнес Тауърс","opening_hours":"24/7","image":"https://sameday.bg/locker/image/12563/small","brand":"easybox","brand:wikidata":"Q114496224","operator:wikidata":"Q114417096"},"coordinates":[42.666471,23.356987]},"tags_mismatch":false,"dist":0},{"osm":false,"atp":{"id":"kjCltVX9CuccU6Rx82VVdoDD0oQ=","tags":{"amenity":"parcel_locker","parcel_mail_in":"yes","parcel_pickup":"yes","addr:full":"ул. Илия Бешков 12 ляво от входа на outlet MANIA","addr:city":"София","addr:state":"София-град","addr:postcode":"1592","addr:country":"BG","name":"easybox 1142 Мания Офис1 Илия Бешков","opening_hours":"24/7","image":"https://sameday.bg/locker/image/12565/small","brand":"easybox","brand:wikidata":"Q114496224","operator:wikidata":"Q114417096"},"coordinates":[42.65733,23.401162]},"tags_mismatch":false,"dist":0},{"osm":false,"atp":{"id":"lgCVguzuqMoW6yXIrL7JUS20f2A=","tags":{"amenity":"parcel_locker","parcel_mail_in":"yes","parcel_pickup":"yes","addr:full":"ул. Гладстон 1","addr:city":"Пловдив","addr:state":"Пловдив","addr:postcode":"4000","addr:country":"BG","name":"easybox 4050 Дом на Науката и Техниката","opening_hours":"24/7","image":"https://sameday.bg/locker/image/12567/small","brand":"easybox","brand:wikidata":"Q114496224","operator:wikidata":"Q114417096"},"coordinates":[42.142659,24.745332]},"tags_mismatch":false,"dist":0},{"osm":false,"atp":{"id":"mktN68uP6Sw47X32wUSAPFjNLxg=","tags":{"amenity":"parcel_locker","parcel_mail_in":"yes","parcel_pickup":"yes","addr:full":"ул. Акад. Андрей Сахаров 2, ниво -1, над хранителния магазин","addr:city":"Варна","addr:state":"Варна","addr:postcode":"9000","addr:country":"BG","name":"easybox 9046 Гранд Мол Варна","opening_hours":"Mo-Su 10:00-22:00","image":"https://sameday.bg/locker/image/12569/small","brand":"easybox","brand:wikidata":"Q114496224","operator:wikidata":"Q114417096"},"coordinates":[43.217948,27.898333]},"tags_mismatch":false,"dist":0},{"osm":false,"atp":{"id":"ut2Vwh9dyGq01SUxNr1rL9EfI1U=","tags":{"amenity":"parcel_locker","parcel_mail_in":"yes","parcel_pickup":"yes","addr:full":"бул. 2ри Юни 165, офис на Изипей","addr:city":"Враца","addr:state":"Враца","addr:postcode":"3001","addr:country":"BG","name":"easybox 3004 Враца 2ри Юни","opening_hours":"24/7","image":"https://sameday.bg/locker/image/12575/small","brand":"easybox","brand:wikidata":"Q114496224","operator:wikidata":"Q114417096"},"coordinates":[43.195107,23.567764]},"tags_mismatch":false,"dist":0},{"osm":false,"atp":{"id":"3TwzwhknuN5tnTCTlXP0eUBCMOg=","tags":{"amenity":"parcel_locker","parcel_mail_in":"yes","parcel_pickup":"yes","addr:full":"пл. Кракра Пернишки № 1, до рецепцията","addr:city":"Перник","addr:state":"Перник","addr:postcode":"2300","addr:country":"BG","name":"easybox 2317 Хотел Струма Перник","opening_hours":"24/7","image":"https://sameday.bg/locker/image/12577/small","brand":"easybox","brand:wikidata":"Q114496224","operator:wikidata":"Q114417096"},"coordinates":[42.604934,23.031372]},"tags_mismatch":false,"dist":0},{"osm":false,"atp":{"id":"WefefKzzDYBYdGvdGoCnMFWg0Ag=","tags":{"amenity":"parcel_locker","parcel_mail_in":"yes","parcel_pickup":"yes","addr:full":"бул. св. Климент Охридски 18, Супермаркет Рекорд","addr:city":"София","addr:state":"София-град","addr:postcode":"1700","addr:country":"BG","name":"easybox 1141 магазин Рекорд","opening_hours":"Mo-Su 07:00-22:00","image":"https://sameday.bg/locker/image/12579/small","brand":"easybox","brand:wikidata":"Q114496224","operator:wikidata":"Q114417096"},"coordinates":[42.646816,23.354334]},"tags_mismatch":false,"dist":0},{"osm":false,"atp":{"id":"U_fLx0ayu6SuobkR12vq2LoiNZ4=","tags":{"amenity":"parcel_locker","parcel_mail_in":"yes","parcel_pickup":"yes","addr:full":"ул. Търговска","addr:city":"Ловеч","addr:state":"Ловеч","addr:postcode":"5500","addr:country":"BG","name":"easybox 5505 Сити Център Ловеч","opening_hours":"Mo-Su 08:00-22:00","image":"https://sameday.bg/locker/image/12581/small","brand":"easybox","brand:wikidata":"Q114496224","operator:wikidata":"Q114417096"},"coordinates":[43.13635,24.717274]},"tags_mismatch":false,"dist":0},{"osm":false,"atp":{"id":"oCE1aaGs7i07S7SjqRiGuHEmQdc=","tags":{"amenity":"parcel_locker","parcel_mail_in":"yes","parcel_pickup":"yes","addr:full":"ул. Оборище 18, паркинг долна част","addr:city":"Велико Търново","addr:state":"Велико Търново","addr:postcode":"5000","addr:country":"BG","name":"easybox 5013 Мол Велико Търново","opening_hours":"Mo-Su 10:00-21:00","image":"https://sameday.bg/locker/image/12583/small","brand":"easybox","brand:wikidata":"Q114496224","operator:wikidata":"Q114417096"},"coordinates":[43.078958,25.600133]},"tags_mismatch":false,"dist":0},{"osm":false,"atp":{"id":"5VNi7azqYPYsd0UI_XmWcnw4Rik=","tags":{"amenity":"parcel_locker","parcel_mail_in":"yes","parcel_pickup":"yes","addr:full":"бул. Панчо Владигеров 28","addr:city":"София","addr:state":"София-град","addr:postcode":"1000","addr:country":"BG","name":"easybox 1140 Люлин Трейд Пропъртис","opening_hours":"24/7","image":"https://sameday.bg/locker/image/12585/small","brand":"easybox","brand:wikidata":"Q114496224","operator:wikidata":"Q114417096"},"coordinates":[42.713313,23.248146]},"tags_mismatch":false,"dist":0},{"osm":false,"atp":{"id":"zD2WSce1OG1zVkWzew_Gij4g_KU=","tags":{"amenity":"parcel_locker","parcel_mail_in":"yes","parcel_pickup":"yes","addr:full":"ул. Добри Чинтулов 35","addr:city":"Поморие","addr:state":"Бургас","addr:postcode":"8200","addr:country":"BG","name":"easybox 8022 Болеро Поморие","opening_hours":"24/7","image":"https://sameday.bg/locker/image/12587/small","brand":"easybox","brand:wikidata":"Q114496224","operator:wikidata":"Q114417096"},"coordinates":[42.570265,27.61295]},"tags_mismatch":false,"dist":0},{"osm":false,"atp":{"id":"bRJd-hsHkvpOfXI2NCPGSlDu8ac=","tags":{"amenity":"parcel_locker","parcel_mail_in":"yes","parcel_pickup":"yes","addr:full":"бул. Васил Априлов 40 партер срещу хранителен магазин","addr:city":"Габрово","addr:state":"Габрово","addr:postcode":"5300","addr:country":"BG","name":"easybox 5309 Мол Габрово","opening_hours":"Mo-Su 09:00-20:00","image":"https://sameday.bg/locker/image/12589/small","brand":"easybox","brand:wikidata":"Q114496224","operator:wikidata":"Q114417096"},"coordinates":[42.867716,25.316982]},"tags_mismatch":false,"dist":0},{"osm":false,"atp":{"id":"0B2W6VnXZ8bGvhH6TVrbsUoBTiI=","tags":{"amenity":"parcel_locker","parcel_mail_in":"yes","parcel_pickup":"yes","addr:full":"ул. Ломско шосе 26","addr:city":"Костинброд","addr:state":"София","addr:postcode":"2230","addr:country":"BG","name":"easybox 2012 ТЦ Резонанс Костинброд","opening_hours":"24/7","image":"https://sameday.bg/locker/image/12591/small","brand":"easybox","brand:wikidata":"Q114496224","operator:wikidata":"Q114417096"},"coordinates":[42.810069,23.217392]},"tags_mismatch":false,"dist":0},{"osm":false,"atp":{"id":"Me6PTObUIc_R8BTIqH1uJT8CBf8=","tags":{"amenity":"parcel_locker","parcel_mail_in":"yes","parcel_pickup":"yes","addr:full":"ул.Кракра 73","addr:city":"Перник","addr:state":"Перник","addr:postcode":"2300","addr:country":"BG","name":"easybox 2316 Гризли 1","opening_hours":"Mo-Su 08:00-22:00","image":"https://sameday.bg/locker/image/12593/small","brand":"easybox","brand:wikidata":"Q114496224","operator:wikidata":"Q114417096"},"coordinates":[42.596328,23.023158]},"tags_mismatch":false,"dist":0},{"osm":false,"atp":{"id":"bBsfHmgQFBvAB_Ywwz_p-RGnGhs=","tags":{"amenity":"parcel_locker","parcel_mail_in":"yes","parcel_pickup":"yes","addr:full":"ул. Одрин срещу № 63 Магазин до игрището","addr:city":"Перник","addr:state":"Перник","addr:postcode":"2301","addr:country":"BG","name":"easybox 2315 Гризли 2","opening_hours":"Mo-Su 08:00-22:00","image":"https://sameday.bg/locker/image/12595/small","brand":"easybox","brand:wikidata":"Q114496224","operator:wikidata":"Q114417096"},"coordinates":[42.61653,23.039811]},"tags_mismatch":false,"dist":0},{"osm":false,"atp":{"id":"4Tkv-6a4V9QTt4B11KG425ujY50=","tags":{"amenity":"parcel_locker","parcel_mail_in":"yes","parcel_pickup":"yes","addr:full":"ул. Каменица 2Б","addr:city":"София","addr:state":"София-град","addr:postcode":"1614","addr:country":"BG","name":"easybox 1139 Нон Стоп Горна Баня","opening_hours":"24/7","image":"https://sameday.bg/locker/image/12597/small","brand":"easybox","brand:wikidata":"Q114496224","operator:wikidata":"Q114417096"},"coordinates":[42.67754,23.235722]},"tags_mismatch":false,"dist":0},{"osm":false,"atp":{"id":"MJzdwWs43fkMwC5t8t-yGxGy1V4=","tags":{"amenity":"parcel_locker","parcel_mail_in":"yes","parcel_pickup":"yes","addr:full":"ул. Света Ирина 1","addr:city":"Варна","addr:state":"Варна","addr:postcode":"9010","addr:country":"BG","name":"easybox 9045 ОМВ Варна Св. Ирина","opening_hours":"24/7","image":"https://sameday.bg/locker/image/12599/small","brand":"easybox","brand:wikidata":"Q114496224","operator:wikidata":"Q114417096"},"coordinates":[43.219508,27.927155]},"tags_mismatch":false,"dist":0},{"osm":false,"atp":{"id":"rD6C0zdiB8txcQpjIW0yeMISq2Y=","tags":{"amenity":"parcel_locker","parcel_mail_in":"yes","parcel_pickup":"yes","addr:full":"бул. Сливница 184","addr:city":"Варна","addr:state":"Варна","addr:postcode":"9027","addr:country":"BG","name":"easybox 9044 ОМВ Варна Сливница","opening_hours":"24/7","image":"https://sameday.bg/locker/image/12601/small","brand":"easybox","brand:wikidata":"Q114496224","operator:wikidata":"Q114417096"},"coordinates":[43.228422,27.877405]},"tags_mismatch":false,"dist":0},{"osm":false,"atp":{"id":"NWpd-uH1XnOYXPMK4EdLvqykObg=","tags":{"amenity":"parcel_locker","parcel_mail_in":"yes","parcel_pickup":"yes","addr:full":"бул. Владислав Варненчик 158А","addr:city":"Варна","addr:state":"Варна","addr:postcode":"9009","addr:country":"BG","name":"easybox 9043 ОМВ Варна Варненчик","opening_hours":"24/7","image":"https://sameday.bg/locker/image/12603/small","brand":"easybox","brand:wikidata":"Q114496224","operator:wikidata":"Q114417096"},"coordinates":[43.215929,27.896515]},"tags_mismatch":false,"dist":0},{"osm":false,"atp":{"id":"F7mmaPDh_fCIDV_HR8y-1aUE4YY=","tags":{"amenity":"parcel_locker","parcel_mail_in":"yes","parcel_pickup":"yes","addr:full":"бул. Христо Смирненски 45","addr:city":"Варна","addr:state":"Варна","addr:postcode":"9009","addr:country":"BG","name":"easybox 9042 ОМВ Варна Смирненски","opening_hours":"24/7","image":"https://sameday.bg/locker/image/12605/small","brand":"easybox","brand:wikidata":"Q114496224","operator:wikidata":"Q114417096"},"coordinates":[43.228395,27.90289]},"tags_mismatch":false,"dist":0},{"osm":false,"atp":{"id":"mwd1_QNQH_f3CVOL2br34qnDF-I=","tags":{"amenity":"parcel_locker","parcel_mail_in":"yes","parcel_pickup":"yes","addr:full":"бул. Дунав 1А","addr:city":"Варна","addr:state":"Варна","addr:postcode":"9000","addr:country":"BG","name":"easybox 9041 ОМВ Варна Дунав","opening_hours":"24/7","image":"https://sameday.bg/locker/image/12607/small","brand":"easybox","brand:wikidata":"Q114496224","operator:wikidata":"Q114417096"},"coordinates":[43.199343,27.911234]},"tags_mismatch":false,"dist":0},{"osm":false,"atp":{"id":"h6WGAWgE2SMl3uraCB4FQM1ggOg=","tags":{"amenity":"parcel_locker","parcel_mail_in":"yes","parcel_pickup":"yes","addr:full":"бул. Васил Левски 42","addr:city":"Варна","addr:state":"Варна","addr:postcode":"9010","addr:country":"BG","name":"easybox 9040 ОМВ Варна Бриз","opening_hours":"24/7","image":"https://sameday.bg/locker/image/12611/small","brand":"easybox","brand:wikidata":"Q114496224","operator:wikidata":"Q114417096"},"coordinates":[43.220089,27.938477]},"tags_mismatch":false,"dist":0},{"osm":false,"atp":{"id":"MbXbzYeKo-Md-10WdZHdvHL63M0=","tags":{"amenity":"parcel_locker","parcel_mail_in":"yes","parcel_pickup":"yes","addr:full":"бул. Кукленско шосе 3Б","addr:city":"Пловдив","addr:state":"Пловдив","addr:postcode":"4000","addr:country":"BG","name":"easybox 4048 ОМВ Пловдив Кукленско","opening_hours":"24/7","image":"https://sameday.bg/locker/image/12613/small","brand":"easybox","brand:wikidata":"Q114496224","operator:wikidata":"Q114417096"},"coordinates":[42.129412,24.756084]},"tags_mismatch":false,"dist":0},{"osm":false,"atp":{"id":"HfGoSeWse4BRSqayWgdoic5rVOY=","tags":{"amenity":"parcel_locker","parcel_mail_in":"yes","parcel_pickup":"yes","addr:full":"бул. България 97","addr:city":"Пловдив","addr:state":"Пловдив","addr:postcode":"4000","addr:country":"BG","name":"easybox 4047 ОМВ Пловдив България","opening_hours":"24/7","image":"https://sameday.bg/locker/image/12615/small","brand":"easybox","brand:wikidata":"Q114496224","operator:wikidata":"Q114417096"},"coordinates":[42.158328,24.734308]},"tags_mismatch":false,"dist":0},{"osm":false,"atp":{"id":"e_bwWmi5Ya-PH_u-rI2BfKLID84=","tags":{"amenity":"parcel_locker","parcel_mail_in":"yes","parcel_pickup":"yes","addr:full":"бул. 6-ти Септември 241","addr:city":"Пловдив","addr:state":"Пловдив","addr:postcode":"4000","addr:country":"BG","name":"easybox 4046 ОМВ Пловдив 6-ти Септември","opening_hours":"24/7","image":"https://sameday.bg","brand":"easybox","brand:wikidata":"Q114496224","operator:wikidata":"Q114417096"},"coordinates":[42.149654,24.77781]},"tags_mismatch":false,"dist":0},{"osm":false,"atp":{"id":"WZuSko3UUe8uVvQDC_awNOQQRXI=","tags":{"amenity":"parcel_locker","parcel_mail_in":"yes","parcel_pickup":"yes","addr:full":"бул. Сливница 189","addr:city":"Варна","addr:state":"Варна","addr:postcode":"9009","addr:country":"BG","name":"easybox 9039 EKO Варна Сливница","opening_hours":"24/7","image":"https://sameday.bg/locker/image/12624/small","brand":"easybox","brand:wikidata":"Q114496224","operator:wikidata":"Q114417096"},"coordinates":[43.221127,27.897063]},"tags_mismatch":false,"dist":0},{"osm":false,"atp":{"id":"-GeJBHuw-pjQWrrriF6q8Alld7k=","tags":{"amenity":"parcel_locker","parcel_mail_in":"yes","parcel_pickup":"yes","addr:full":"бул. Владислав Варненчик 240","addr:city":"Варна","addr:state":"Варна","addr:postcode":"9009","addr:country":"BG","name":"easybox 9038 EKO Варна Ситроен","opening_hours":"24/7","image":"https://sameday.bg/locker/image/12626/small","brand":"easybox","brand:wikidata":"Q114496224","operator:wikidata":"Q114417096"},"coordinates":[43.222836,27.871088]},"tags_mismatch":false,"dist":0},{"osm":false,"atp":{"id":"34h6QJ0wT4vtuhG_qccCo7Kcn8k=","tags":{"amenity":"parcel_locker","parcel_mail_in":"yes","parcel_pickup":"yes","addr:full":"ул. Девня 3","addr:city":"Варна","addr:state":"Варна","addr:postcode":"9000","addr:country":"BG","name":"easybox 9037 EKO Варна Порт","opening_hours":"24/7","image":"https://sameday.bg/locker/image/12628/small","brand":"easybox","brand:wikidata":"Q114496224","operator:wikidata":"Q114417096"},"coordinates":[43.199854,27.907297]},"tags_mismatch":false,"dist":0},{"osm":false,"atp":{"id":"dxiKvGwXFSXzqrLYhhRZpox6Qek=","tags":{"amenity":"parcel_locker","parcel_mail_in":"yes","parcel_pickup":"yes","addr:full":"бул. Васил Левски под стадион Чайка","addr:city":"Варна","addr:state":"Варна","addr:postcode":"9010","addr:country":"BG","name":"easybox 9036 EKO Варна Газко","opening_hours":"24/7","image":"https://sameday.bg/locker/image/12630/small","brand":"easybox","brand:wikidata":"Q114496224","operator:wikidata":"Q114417096"},"coordinates":[43.219824,27.940739]},"tags_mismatch":false,"dist":0},{"osm":false,"atp":{"id":"Qdc1-CZE18EcK_VQxm18ZTKU6h8=","tags":{"amenity":"parcel_locker","parcel_mail_in":"yes","parcel_pickup":"yes","addr:full":"ул. Първа 87 Евксиноград","addr:city":"Варна","addr:state":"Варна","addr:postcode":"9000","addr:country":"BG","name":"easybox 9035 EKO Варна Евксиноград","opening_hours":"24/7","image":"https://sameday.bg/locker/image/12632/small","brand":"easybox","brand:wikidata":"Q114496224","operator:wikidata":"Q114417096"},"coordinates":[43.224352,27.99399]},"tags_mismatch":false,"dist":0},{"osm":false,"atp":{"id":"MJCiqTh_Ds6f_JyVPIiAT-Cwqjs=","tags":{"amenity":"parcel_locker","parcel_mail_in":"yes","parcel_pickup":"yes","addr:full":"бул. Васил Априлов 156Б","addr:city":"Пловдив","addr:state":"Пловдив","addr:postcode":"4027","addr:country":"BG","name":"easybox 4045 EKO Пловдив Априлов","opening_hours":"24/7","image":"https://sameday.bg/locker/image/12634/small","brand":"easybox","brand:wikidata":"Q114496224","operator:wikidata":"Q114417096"},"coordinates":[42.166515,24.723708]},"tags_mismatch":false,"dist":0},{"osm":false,"atp":{"id":"8uA15gfIXDOgY8SUSUyThgC484I=","tags":{"amenity":"parcel_locker","parcel_mail_in":"yes","parcel_pickup":"yes","addr:full":"бул. Кукленско шосе“ 22","addr:city":"Пловдив","addr:state":"Пловдив","addr:postcode":"4004","addr:country":"BG","name":"easybox 4044 EKO Пловдив Кукленско","opening_hours":"24/7","image":"https://sameday.bg/locker/image/12636/small","brand":"easybox","brand:wikidata":"Q114496224","operator:wikidata":"Q114417096"},"coordinates":[42.112015,24.759149]},"tags_mismatch":false,"dist":0},{"osm":false,"atp":{"id":"Wg5PbCZw5PjHYMlGD2NjHypdGoo=","tags":{"amenity":"parcel_locker","parcel_mail_in":"yes","parcel_pickup":"yes","addr:full":"ул. Сергей Румянцев 8","addr:city":"Пловдив","addr:state":"Пловдив","addr:postcode":"4002","addr:country":"BG","name":"easybox 4043 EKO Пловдив Ботев","opening_hours":"24/7","image":"https://sameday.bg/locker/image/12638/small","brand":"easybox","brand:wikidata":"Q114496224","operator:wikidata":"Q114417096"},"coordinates":[42.132924,24.731662]},"tags_mismatch":false,"dist":0},{"osm":false,"atp":{"id":"7G5mOk7QWou6b6YzQc94oEP6f2M=","tags":{"amenity":"parcel_locker","parcel_mail_in":"yes","parcel_pickup":"yes","addr:full":"бул. Пещерско шосе 156","addr:city":"Пловдив","addr:state":"Пловдив","addr:postcode":"4015","addr:country":"BG","name":"easybox 4042 EKO Пловдив Пещерско","opening_hours":"24/7","image":"https://sameday.bg/locker/image/12640/small","brand":"easybox","brand:wikidata":"Q114496224","operator:wikidata":"Q114417096"},"coordinates":[42.131017,24.689998]},"tags_mismatch":false,"dist":0},{"osm":false,"atp":{"id":"U3h3D7h36RnAUWEGbRuBB9WqSQY=","tags":{"amenity":"parcel_locker","parcel_mail_in":"yes","parcel_pickup":"yes","addr:full":"бул. България 2","addr:city":"Пловдив","addr:state":"Пловдив","addr:postcode":"4021","addr:country":"BG","name":"easybox 4041 EKO Пловдив България","opening_hours":"24/7","image":"https://sameday.bg/locker/image/12642/small","brand":"easybox","brand:wikidata":"Q114496224","operator:wikidata":"Q114417096"},"coordinates":[42.160315,24.763244]},"tags_mismatch":false,"dist":0},{"osm":false,"atp":{"id":"EH1RMh4pDJo-jYmkFsvVDu8NJZI=","tags":{"amenity":"parcel_locker","parcel_mail_in":"yes","parcel_pickup":"yes","addr:full":"бул. Цариградско Шосе 1","addr:city":"Пловдив","addr:state":"Пловдив","addr:postcode":"4006","addr:country":"BG","name":"easybox 4040 EKO Пловдив Цариградско","opening_hours":"24/7","image":"https://sameday.bg/locker/image/12644/small","brand":"easybox","brand:wikidata":"Q114496224","operator:wikidata":"Q114417096"},"coordinates":[42.149477,24.775385]},"tags_mismatch":false,"dist":0},{"osm":false,"atp":{"id":"POr1G3SFvOHi2e9rGIgDBj1uj3I=","tags":{"amenity":"parcel_locker","parcel_mail_in":"yes","parcel_pickup":"yes","addr:full":"бул. Ал. Стамболийски и ул. Д. Талев","addr:city":"Пловдив","addr:state":"Пловдив","addr:postcode":"4004","addr:country":"BG","name":"easybox 4039 EKO Пловдив Талев","opening_hours":"24/7","image":"https://sameday.bg/locker/image/12646/small","brand":"easybox","brand:wikidata":"Q114496224","operator:wikidata":"Q114417096"},"coordinates":[42.119041,24.73599]},"tags_mismatch":false,"dist":0},{"osm":false,"atp":{"id":"H60oY3W63iCOkNL9kY0Lgqws9y0=","tags":{"amenity":"parcel_locker","parcel_mail_in":"yes","parcel_pickup":"yes","addr:full":"ул. Феникс 38","addr:city":"София","addr:state":"София-град","addr:postcode":"1632","addr:country":"BG","name":"easybox 1137 Феникс38 София","opening_hours":"24/7","image":"https://sameday.bg/locker/image/12648/small","brand":"easybox","brand:wikidata":"Q114496224","operator:wikidata":"Q114417096"},"coordinates":[42.687122,23.247009]},"tags_mismatch":false,"dist":0},{"osm":false,"atp":{"id":"JaQPzjxm1inVtxPKgYmTLfaYleY=","tags":{"amenity":"parcel_locker","parcel_mail_in":"yes","parcel_pickup":"yes","addr:full":"Околовръстен път 219","addr:city":"София","addr:state":"София-град","addr:postcode":"1434","addr:country":"BG","name":"easybox 1136 EKO Малинова Долина","opening_hours":"24/7","image":"https://sameday.bg/locker/image/12651/small","brand":"easybox","brand:wikidata":"Q114496224","operator:wikidata":"Q114417096"},"coordinates":[42.628451,23.34601]},"tags_mismatch":false,"dist":0},{"osm":false,"atp":{"id":"onM6DLdeaGgdfPdMmmRA7DML14M=","tags":{"amenity":"parcel_locker","parcel_mail_in":"yes","parcel_pickup":"yes","addr:full":"бул. Царица Йоанна","addr:city":"София","addr:state":"София-град","addr:postcode":"1324","addr:country":"BG","name":"easybox 1134 EKO Люлин 7","opening_hours":"24/7","image":"https://sameday.bg/locker/image/12655/small","brand":"easybox","brand:wikidata":"Q114496224","operator:wikidata":"Q114417096"},"coordinates":[42.714923,23.263138]},"tags_mismatch":false,"dist":0},