{"metadata":{"type":"brand","wikidata":"Q266572","name":"dm","compare_keys":["opening_hours","phone","website","addr:city","addr:postcode"]},"data":[{"osm":{"type":"node","id":2318943399,"tags":{"addr:city":"Велико Търново","addr:postcode":"5002","brand":"dm","brand:wikidata":"Q266572","opening_hours":"Mo-Su 09:00-20:00","phone":"+359 62 510 892","shop":"chemist","website":"https://www.dm-drogeriemarkt.bg/store/g010/veliko-t-rnovo/ul-magistralna-17","wheelchair":"yes"},"wikidata":"Q266572","coordinates":[43.0729594,25.6155981]},"atp":{"id":"n2tT8O_z-jGXv0tAVLPKcMepKwc=","tags":{"ref":"bg:24","check_date":"2024-08-31T23:01:05+02:00","shop":"chemist","addr:street_address":"ул. Магистрална 17","addr:city":"Велико Търново","addr:postcode":"5000","addr:country":"BG","name":"dm","phone":"+359 62 510 892","website":"https://www.dm-drogeriemarkt.bg/store/g010/veliko-tarnovo/ul-magistralna-17","opening_hours":"Mo-Su 09:00-20:00","brand":"dm","brand:wikidata":"Q266572"},"coordinates":[43.07323,25.617521]},"dist":159.061,"tags_mismatch":true},{"osm":{"type":"node","id":2620862389,"tags":{"addr:city":"София","addr:housenumber":"1","addr:place":"пл. България","addr:postcode":"1414","brand":"dm","brand:wikidata":"Q266572","check_date:opening_hours":"2023-06-04","level":"-1","opening_hours":"Mo-Fr 08:00-21:00; Sa 09:00-21:00; Su 10:00-21:00","phone":"+359 2 421 7307","shop":"chemist","website":"https://www.dm-drogeriemarkt.bg/store/g01d/sofiya/pl-b-lgariya-1"},"wikidata":"Q266572","coordinates":[42.685889,23.3180282]},"atp":{"id":"hTqNY4y_7O84ej8uarEuTWEdPb8=","tags":{"ref":"bg:37","check_date":"2024-08-31T23:01:05+02:00","shop":"chemist","addr:street_address":"пл. България 1","addr:city":"София","addr:postcode":"1414","addr:country":"BG","name":"dm","phone":"+359 2 421 7307","website":"https://www.dm-drogeriemarkt.bg/store/g01d/sofiya/pl-balgariya-1","opening_hours":"Mo-Fr 08:00-21:00; Sa 09:00-21:00; Su 10:00-21:00","brand":"dm","brand:wikidata":"Q266572"},"coordinates":[42.68507,23.319018]},"dist":121.815,"tags_mismatch":true},{"osm":{"type":"node","id":2628122740,"tags":{"addr:city":"София","addr:housenumber":"32","addr:postcode":"1000","addr:street":"бул. Княз Александър Дондуков","brand":"dm","brand:wikidata":"Q266572","opening_hours":"Mo-Su 08:00-21:00","phone":"+359 2 447 8792","shop":"chemist","website":"https://www.dm-drogeriemarkt.bg/store/g02n/sofiya/bul-knyaz-aleksand-r-dondukov-32","wheelchair":"yes"},"wikidata":"Q266572","coordinates":[42.6981127,23.3308479]},"atp":{"id":"BSBtwQXQSnu8x49aefBXWWmAQgA=","tags":{"ref":"bg:71","check_date":"2024-08-31T23:01:06+02:00","shop":"chemist","addr:street_address":"бул.Княз Александър Дондуков 32","addr:city":"София","addr:postcode":"1000","addr:country":"BG","name":"dm","phone":"+359 2 447 8792","website":"https://www.dm-drogeriemarkt.bg/store/g02n/sofiya/bul-knyaz-aleksandar-dondukov-32","opening_hours":"Mo-Su 08:00-20:00","brand":"dm","brand:wikidata":"Q266572"},"coordinates":[42.698116,23.330821]},"dist":2.229,"tags_mismatch":true},{"osm":{"type":"node","id":3527080399,"tags":{"addr:city":"София","addr:housenumber":"2А","addr:place":"пл. Петко Р. Славейков","addr:postcode":"1000","brand":"dm","brand:wikidata":"Q266572","contact:phone":"+359 2 421 8988","opening_hours":"Mo-Sa 08:00-21:00; Su 09:00-20:00","phone":"+359 2 421 8988","shop":"chemist","website":"https://www.dm-drogeriemarkt.bg/store/g017/sofiya/ploshchad-petko-slavejkov-2a","wheelchair":"yes"},"wikidata":"Q266572","coordinates":[42.6921602,23.323769]},"atp":{"id":"cgOxebAJ4DYSx_GrBYUR_bDBV48=","tags":{"ref":"bg:31","check_date":"2024-08-31T23:01:05+02:00","shop":"chemist","addr:street_address":"площад Петко Славейков 2А","addr:city":"София","addr:postcode":"1000","addr:country":"BG","name":"dm","phone":"+359 2 421 8988","website":"https://www.dm-drogeriemarkt.bg/store/g017/sofiya/ploshtad-petko-slaveikov-2a","opening_hours":"Mo-Sa 08:00-21:00; Su 09:00-20:00","brand":"dm","brand:wikidata":"Q266572"},"coordinates":[42.692222,23.323781]},"dist":6.941,"tags_mismatch":true},{"osm":{"type":"node","id":3741782634,"tags":{"addr:city":"Велико Търново","addr:postcode":"5000","brand":"dm","brand:wikidata":"Q266572","name:pl":"DM","opening_hours":"Mo-Su 09:00-20:00","phone":"+359 62 526 102","shop":"chemist","website":"https://www.dm-drogeriemarkt.bg/store/g027/veliko-t-rnovo/hristo-botev-1"},"wikidata":"Q266572","coordinates":[43.0829961,25.633198]},"atp":{"id":"7Hw1jGhwSvfjK7X63Wqh4CxL3ws=","tags":{"ref":"bg:55","check_date":"2024-08-31T23:01:06+02:00","shop":"chemist","addr:street_address":"Христо Ботев 1","addr:city":"Велико Търново","addr:postcode":"5000","addr:country":"BG","name":"dm","phone":"+359 62 526 102","website":"https://www.dm-drogeriemarkt.bg/store/g027/veliko-tarnovo/khristo-botev-1","opening_hours":"Mo-Su 09:00-20:00","brand":"dm","brand:wikidata":"Q266572"},"coordinates":[43.08292,25.633175]},"dist":8.666,"tags_mismatch":true},{"osm":{"type":"node","id":3901019514,"tags":{"addr:city":"Стара Загора","addr:postcode":"6000","addr:street":"Св.Патриарх Евтимий","brand":"dm","brand:wikidata":"Q266572","opening_hours":"Mo-Fr 08:30-20:00; Sa-Su 09:00-20:00","phone":"+359 42 910 992","shop":"chemist","website":"https://www.dm-drogeriemarkt.bg/store/g006/stara-zagora/ul-tsar-simeon-veliki-132"},"wikidata":"Q266572","coordinates":[42.4254629,25.6348086]},"atp":{"id":"S4IM5jOVx0-1ambFM8Feo1egr_4=","tags":{"ref":"bg:6","check_date":"2024-08-31T23:01:05+02:00","shop":"chemist","addr:street_address":"ул. Цар Симеон Велики 132","addr:city":"Стара Загора","addr:postcode":"6000","addr:country":"BG","name":"dm","phone":"+359 42 910 992","website":"https://www.dm-drogeriemarkt.bg/store/g006/stara-zagora/ul-tsar-simeon-veliki-132","opening_hours":"Mo-Sa 08:30-20:30; Su 09:00-20:00","brand":"dm","brand:wikidata":"Q266572"},"coordinates":[42.425832,25.634816]},"dist":41.047,"tags_mismatch":true},{"osm":{"type":"node","id":4097759118,"tags":{"addr:city":"Пловдив","addr:postcode":"4000","brand":"dm","brand:wikidata":"Q266572","opening_hours":"Mo-Fr 08:00-20:00; Sa 09:00-20:00; Su 09:00-18:00","phone":"+359 32 349 902","shop":"chemist","website":"https://www.dm-drogeriemarkt.bg/store/g028/plovdiv/ul-betoven-1"},"wikidata":"Q266572","coordinates":[42.1505261,24.7442168]},"atp":{"id":"kALVT9NR6jGkQ_czGlMXj2N5exg=","tags":{"ref":"bg:56","check_date":"2024-08-31T23:01:06+02:00","shop":"chemist","addr:street_address":"ул. Бетовен 1","addr:city":"Пловдив","addr:postcode":"4000","addr:country":"BG","name":"dm","phone":"+359 32 349 902","website":"https://www.dm-drogeriemarkt.bg/store/g028/plovdiv/ul-betoven-1","opening_hours":"Mo-Fr 08:00-20:00; Sa-Su 09:00-20:00","brand":"dm","brand:wikidata":"Q266572"},"coordinates":[42.150398,24.743906]},"dist":29.315,"tags_mismatch":true},{"osm":{"type":"node","id":4268055111,"tags":{"addr:city":"Кърджали","addr:housenumber":"2А","addr:postcode":"6600","addr:street":"бул. Булаир","brand":"dm","brand:wikidata":"Q266572","opening_hours":"Mo-Fr 08:00-20:00; Sa-Su 09:00-20:00","payment:cash":"yes","payment:mastercard":"yes","payment:visa":"yes","phone":"+359 36 154 392","shop":"chemist","website":"https://www.dm-drogeriemarkt.bg/store/g015/k-rdzhali/ul-bulair-2a"},"wikidata":"Q266572","coordinates":[41.6386242,25.3695988]},"atp":{"id":"F_OpVKD1D9LH7TTFgCBrBhtfCNE=","tags":{"ref":"bg:29","check_date":"2024-08-31T23:01:05+02:00","shop":"chemist","addr:street_address":"ул. Булаир 2А","addr:city":"Кърджали","addr:postcode":"6600","addr:country":"BG","name":"dm","phone":"+359 36 154 392","website":"https://www.dm-drogeriemarkt.bg/store/g015/kardzhali/ul-bulair-2a","opening_hours":"Mo-Su 08:00-20:30","brand":"dm","brand:wikidata":"Q266572"},"coordinates":[41.638755,25.369921]},"dist":30.471,"tags_mismatch":true},{"osm":{"type":"node","id":4730767183,"tags":{"addr:city":"Бургас","addr:postcode":"8001","brand":"dm","brand:wikidata":"Q266572","opening_hours":"Mo-Su 09:00-20:00","phone":"+359 88 246 6485","shop":"chemist","website":"https://www.dm-drogeriemarkt.bg/store/g03d/burgas/ul-todor-aleksandrov-30"},"wikidata":"Q266572","coordinates":[42.503439,27.4601877]},"atp":{"id":"FzIvSsn0yC-Y3cMCZio_A7zjzKk=","tags":{"ref":"bg:85","check_date":"2024-08-31T23:01:06+02:00","shop":"chemist","addr:street_address":"ул.Тодор Александров 30","addr:city":"Бургас","addr:postcode":"8001","addr:country":"BG","name":"dm","phone":"+359 88 246 6485","website":"https://www.dm-drogeriemarkt.bg/store/g03d/burgas/ul-todor-aleksandrov-30","opening_hours":"Mo-Fr 09:00-20:00; Sa 09:00-20:30; Su 09:00-20:00","brand":"dm","brand:wikidata":"Q266572"},"coordinates":[42.503357,27.460163]},"dist":9.34,"tags_mismatch":true},{"osm":{"type":"node","id":4931312421,"tags":{"addr:city":"Варна","addr:housenumber":"24","addr:postcode":"9000","addr:street":"бул. Сливница","brand":"dm","brand:wikidata":"Q266572","opening_hours":"Mo-Su 09:00-20:00","phone":"+359 52 912 486","shop":"chemist","website":"https://www.dm-drogeriemarkt.bg/store/g022/varna/bul-slivnitsa-24"},"wikidata":"Q266572","coordinates":[43.2070131,27.9179966]},"atp":{"id":"b2_fsSWnBpSxH3UPNJN2lYf36Zk=","tags":{"ref":"bg:50","check_date":"2024-08-31T23:01:06+02:00","shop":"chemist","addr:street_address":"бул. Сливница 24","addr:city":"Варна","addr:postcode":"9000","addr:country":"BG","name":"dm","phone":"+359 88 246 6450","website":"https://www.dm-drogeriemarkt.bg/store/g022/varna/bul-slivnitsa-24","opening_hours":"Mo-Fr 09:00-20:00; Sa 09:00-21:00; Su 09:00-20:00","brand":"dm","brand:wikidata":"Q266572"},"coordinates":[43.206939,27.918169]},"dist":16.221,"tags_mismatch":true},{"osm":{"type":"node","id":4955369915,"tags":{"addr:city":"София","addr:housenumber":"47","addr:postcode":"1407","addr:street":"бул. Черни връх","brand":"dm","brand:wikidata":"Q266572","opening_hours":"Mo-Sa 09:00-21:00; Su 10:00-20:00","phone":"+359 88 246 6474","shop":"chemist","website":"https://www.dm-drogeriemarkt.bg/store/g032/sofiya/bul-cherni-vr-h-47","wheelchair":"yes"},"wikidata":"Q266572","coordinates":[42.6626831,23.3177926]},"atp":{"id":"Fy4tvb0oJR4PutjjbQ9T16k7Las=","tags":{"ref":"bg:74","check_date":"2024-08-31T23:01:06+02:00","shop":"chemist","addr:street_address":"бул.Черни Връх 47","addr:city":"София","addr:postcode":"1407","addr:country":"BG","name":"dm","phone":"+359 88 246 6474","website":"https://www.dm-drogeriemarkt.bg/store/g032/sofiya/bul-cherni-vrakh-47","opening_hours":"Mo-Sa 09:00-21:00; Su 10:00-20:00","brand":"dm","brand:wikidata":"Q266572"},"coordinates":[42.662753,23.317788]},"dist":7.782,"tags_mismatch":true},{"osm":{"type":"node","id":5318938319,"tags":{"addr:city":"София","addr:postcode":"1113","brand":"dm","brand:wikidata":"Q266572","check_date:opening_hours":"2024-03-18","opening_hours":"Mo-Fr 08:00-20:00; Sa,Su 09:00-20:00","phone":"+359 2 422 5422","shop":"chemist","website":"https://www.dm-drogeriemarkt.bg/store/g01m/sofiya/ul-nikolaj-hajtov-2"},"wikidata":"Q266572","coordinates":[42.6711607,23.3518089]},"atp":{"id":"Qt4g6468sFguGS-KsgScJr_9pw0=","tags":{"ref":"bg:46","check_date":"2024-08-31T23:01:06+02:00","shop":"chemist","addr:street_address":"ул. Николай Хайтов 2","addr:city":"София","addr:postcode":"1113","addr:country":"BG","name":"dm","phone":"+359 2 422 5422","website":"https://www.dm-drogeriemarkt.bg/store/g01m/sofiya/ul-nikolai-khaitov-2","opening_hours":"Mo-Fr 08:00-21:00; Sa-Su 09:00-21:00","brand":"dm","brand:wikidata":"Q266572"},"coordinates":[42.671073,23.352031]},"dist":20.611,"tags_mismatch":true},{"osm":{"type":"node","id":5522247322,"tags":{"addr:city":"София","addr:postcode":"1582","addr:street":"бул. Проф. Цветан Лазаров","brand":"dm","brand:wikidata":"Q266572","opening_hours":"Mo-Fr 08:00-20:00; Sa-Su 09:00-20:00","phone":"+359 2 421 8828","shop":"chemist","website":"https://www.dm-drogeriemarkt.bg/store/g01e/sofiya/zh-k-druzhba-bul-tsvetan-lazarov-206"},"wikidata":"Q266572","coordinates":[42.6551442,23.3992085]},"atp":{"id":"tT-ZeGvs2os8SPQDFL8Jo5OMG7A=","tags":{"ref":"bg:38","check_date":"2024-08-31T23:01:05+02:00","shop":"chemist","addr:street_address":"бул.Цветан Лазаров с/у бл. 206","addr:city":"София","addr:postcode":"1582","addr:country":"BG","name":"dm","phone":"+359 2 421 8828","website":"https://www.dm-drogeriemarkt.bg/store/g01e/sofiya/bul-tsvetan-lazarov-s-u-bl-206","opening_hours":"Mo-Fr 08:00-20:00; Sa-Su 09:00-20:00","brand":"dm","brand:wikidata":"Q266572"},"coordinates":[42.655215,23.399165]},"dist":8.639,"tags_mismatch":true},{"osm":{"type":"node","id":6530416436,"tags":{"addr:city":"София","addr:housenumber":"3","addr:postcode":"1000","addr:street":"Съборна","brand":"dm","brand:wikidata":"Q266572","check_date":"2023-04-23","level":"-1","opening_hours":"Mo-Fr 08:00-20:00; Sa-Su 10:00-19:00","phone":"+359 88 246 6484","shop":"chemist","website":"https://www.dm-drogeriemarkt.bg/store/g03c/sofiya/ul-s-borna-3"},"wikidata":"Q266572","coordinates":[42.6958195,23.3242223]},"atp":{"id":"x8DdtiY5ufCypylIJNIBW44Do3w=","tags":{"ref":"bg:1","check_date":"2024-08-31T23:01:05+02:00","shop":"chemist","addr:street_address":"ул. Цар Симеон Велики 20А","addr:city":"Видин","addr:postcode":"3700","addr:country":"BG","name":"dm","phone":"+359 94 910 992","website":"https://www.dm-drogeriemarkt.bg/store/g001/vidin/ul-tsar-simeon-veliki-20a","opening_hours":"Mo-Su 09:00-20:00","brand":"dm","brand:wikidata":"Q266572"},"coordinates":[43.987068,22.874984]},"tags_mismatch":true},{"osm":{"type":"node","id":6732322709,"tags":{"addr:city":"Хасково","addr:postcode":"6300","brand":"dm","brand:wikidata":"Q266572","opening_hours":"Mo-Su 09:00-20:00","phone":"+359 38 510 892","shop":"chemist","website":"https://www.dm-drogeriemarkt.bg/store/g00j/haskovo/pl-obshchinski-3"},"wikidata":"Q266572","coordinates":[41.9314614,25.5569319]},"atp":{"id":"mtxiu_EB7Z7YcOcW21GdwrANTMw=","tags":{"ref":"bg:19","check_date":"2024-08-31T23:01:05+02:00","shop":"chemist","addr:street_address":"пл. Общински 3","addr:city":"Хасково","addr:postcode":"6300","addr:country":"BG","name":"dm","phone":"+359 38 510 892","website":"https://www.dm-drogeriemarkt.bg/store/g00j/khaskovo/pl-obshtinski-3","opening_hours":"Mo-Sa 08:30-20:30; Su 09:00-20:00","brand":"dm","brand:wikidata":"Q266572"},"coordinates":[41.931449,25.556914]},"dist":2.023,"tags_mismatch":true},{"osm":{"type":"node","id":6927327586,"tags":{"addr:city":"Пловдив","addr:postcode":"4000","brand":"dm","brand:wikidata":"Q266572","opening_hours":"Mo-Su 09:30-20:00","phone":"+359 32 307 890","shop":"chemist","website":"https://www.dm-drogeriemarkt.bg/store/g02a/plovdiv/ul-rajko-daskalov-8"},"wikidata":"Q266572","coordinates":[42.1490669,24.7480337]},"atp":{"id":"3VkOlHtm7iik-IkvkhV9ImDAgmQ=","tags":{"ref":"bg:58","check_date":"2024-08-31T23:01:06+02:00","shop":"chemist","addr:street_address":"ул. Райко Даскалов 8","addr:city":"Пловдив","addr:postcode":"4000","addr:country":"BG","name":"dm","phone":"+359 32 307 890","website":"https://www.dm-drogeriemarkt.bg/store/g02a/plovdiv/ul-raiko-daskalov-8","opening_hours":"Mo-Su 09:30-20:00","brand":"dm","brand:wikidata":"Q266572"},"coordinates":[42.148979,24.748029]},"dist":9.782,"tags_mismatch":true},{"osm":{"type":"node","id":7039050389,"tags":{"addr:city":"София","addr:housename":"Силвър Център","addr:housenumber":"28","addr:postcode":"1324","addr:street":"бул. Джавахарлал Неру","brand":"dm","brand:wikidata":"Q266572","opening_hours":"Mo-Su 09:00-20:00","phone":"+359 2 424 2035","shop":"chemist","website":"https://www.dm-drogeriemarkt.bg/store/g02e/sofiya/bul-dzhavaharlal-neru-28"},"wikidata":"Q266572","coordinates":[42.714799,23.254146]},"atp":{"id":"z16tnEh8Ks_zpc29yNI35g7z7_w=","tags":{"ref":"bg:62","check_date":"2024-08-31T23:01:06+02:00","shop":"chemist","addr:street_address":"бул. Джавахарлал Неру 28","addr:city":"София","addr:postcode":"1324","addr:country":"BG","name":"dm","phone":"+359 2 424 2035","website":"https://www.dm-drogeriemarkt.bg/store/g02e/sofiya/bul-dzhavakharlal-neru-28","opening_hours":"Mo-Su 09:00-20:00","brand":"dm","brand:wikidata":"Q266572"},"coordinates":[42.714804,23.254104]},"dist":3.476,"tags_mismatch":true},{"osm":{"type":"node","id":8228250316,"tags":{"addr:city":"София","addr:postcode":"1407","brand":"dm","brand:wikidata":"Q266572","opening_hours":"Mo-Fr 08:00-21:00; Sa-Su 09:00-21:00","phone":"+359 88 246 6498","shop":"chemist","website":"https://www.dm-drogeriemarkt.bg/store/g042/sofiya/bul-dzhejms-baucher-103"},"wikidata":"Q266572","coordinates":[42.670042,23.3141208]},"atp":{"id":"uDPd-t7rJlkAliREAqITZuHS72s=","tags":{"ref":"bg:98","check_date":"2024-08-31T23:01:06+02:00","shop":"chemist","addr:street_address":"бул. Джеймс Баучер 103","addr:city":"София","addr:postcode":"1407","addr:country":"BG","name":"dm","phone":"+359 88 246 6498","website":"https://www.dm-drogeriemarkt.bg/store/g042/sofiya/bul-dzheims-baucher-103","opening_hours":"Mo-Fr 08:00-21:00; Sa-Su 09:00-21:00","brand":"dm","brand:wikidata":"Q266572"},"coordinates":[42.670028,23.314139]},"dist":2.153,"tags_mismatch":true},{"osm":{"type":"node","id":8728708657,"tags":{"addr:city":"София","addr:postcode":"1618","brand":"dm","brand:wikidata":"Q266572","opening_hours":"Mo-Fr 08:00-20:00; Sa 09:00-21:00; Su 09:00-20:00","phone":"+359 88 246 6492","shop":"chemist","website":"https://www.dm-drogeriemarkt.bg/store/g03k/sofiya/bul-bratya-b-kston-30"},"wikidata":"Q266572","coordinates":[42.6692718,23.2763907]},"atp":{"id":"pr24OtC3Q2jQE7S9RVbvVnHZGT8=","tags":{"ref":"bg:92","check_date":"2024-08-31T23:01:06+02:00","shop":"chemist","addr:street_address":"бул.Братя Бъкстон 30","addr:city":"София","addr:postcode":"1618","addr:country":"BG","name":"dm","phone":"+359 88 246 6492","website":"https://www.dm-drogeriemarkt.bg/store/g03k/sofiya/bul-bratya-bakston-30","opening_hours":"Mo-Fr 08:00-21:00; Sa-Su 09:00-21:00","brand":"dm","brand:wikidata":"Q266572"},"coordinates":[42.669265,23.276474]},"dist":6.852,"tags_mismatch":true},{"osm":{"type":"node","id":9025316374,"tags":{"addr:city":"Русе","addr:postcode":"7000","brand":"dm","brand:wikidata":"Q266572","opening_hours":"Mo-Su 09:00-20:00","phone":"+359 82 511 302","shop":"chemist","website":"https://www.dm-drogeriemarkt.bg/store/g01k/ruse/ul-hristo-danov-2"},"wikidata":"Q266572","coordinates":[43.8473652,25.9504913]},"atp":{"id":"LlcS5T5gqMbFNY6hvNWvtGG8Qlc=","tags":{"ref":"bg:4","check_date":"2024-08-31T23:01:05+02:00","shop":"chemist","addr:street_address":"ул.Транспортна 31","addr:city":"Бургас","addr:postcode":"8008","addr:country":"BG","name":"dm","phone":"+359 88 246 6404","website":"https://www.dm-drogeriemarkt.bg/store/g004/burgas/ul-transportna-31","opening_hours":"Mo-Su 10:00-21:00","brand":"dm","brand:wikidata":"Q266572"},"coordinates":[42.530362,27.457988]},"tags_mismatch":true},{"osm":{"type":"node","id":9036247843,"tags":{"addr:city":"Пловдив","addr:postcode":"4000","brand":"dm","brand:wikidata":"Q266572","opening_hours":"Mo-Su 08:00-20:00","phone":"+359 32 512 311","shop":"chemist","website":"https://www.dm-drogeriemarkt.bg/store/g00k/plovdiv/ul-kapitan-rajcho-52"},"wikidata":"Q266572","coordinates":[42.1418829,24.7545262]},"atp":{"id":"SMD4tT8bVDuoioF1As4y5ymRbY4=","tags":{"ref":"bg:20","check_date":"2024-08-31T23:01:05+02:00","shop":"chemist","addr:street_address":"ул. Капитан Райчо 52","addr:city":"Пловдив","addr:postcode":"4000","addr:country":"BG","name":"dm","phone":"+359 32 512 311","website":"https://www.dm-drogeriemarkt.bg/store/g00k/plovdiv/ul-kapitan-raicho-52","opening_hours":"Mo-Su 08:00-20:00","brand":"dm","brand:wikidata":"Q266572"},"coordinates":[42.141824,24.754515]},"dist":6.614,"tags_mismatch":true},{"osm":{"type":"node","id":9111338254,"tags":{"addr:city":"Бургас","addr:postcode":"8008","brand":"dm","brand:wikidata":"Q266572","opening_hours":"Mo-Su 10:00-21:00","phone":"+359 56 910 944","shop":"chemist","website":"https://www.dm-drogeriemarkt.bg/store/g004/burgas/ul-transportna-1"},"wikidata":"Q266572","coordinates":[42.5311579,27.458124]},"atp":{"id":"J-uCA2u-AFMD8Gbh5bVm3wt0CBA=","tags":{"ref":"bg:5","check_date":"2024-08-31T23:01:05+02:00","shop":"chemist","addr:street_address":"ул. Гено Чолаков 1","addr:city":"Силистра","addr:postcode":"7500","addr:country":"BG","name":"dm","phone":"+359 86 510 992","website":"https://www.dm-drogeriemarkt.bg/store/g005/silistra/ul-geno-cholakov-1","opening_hours":"Mo-Su 09:00-20:00","brand":"dm","brand:wikidata":"Q266572"},"coordinates":[44.120744,27.260642]},"tags_mismatch":true},{"osm":{"type":"node","id":9129905591,"tags":{"addr:city":"Пловдив","addr:postcode":"4003","brand":"dm","brand:wikidata":"Q266572","opening_hours":"Mo-Fr 09:00-20:00; Sa 09:00-20:30; Su 09:00-20:00","phone":"+359 88 246 6482","shop":"chemist","website":"https://www.dm-drogeriemarkt.bg/store/g03a/plovdiv/bul-b-lgariya-115a"},"wikidata":"Q266572","coordinates":[42.15682,24.7286721]},"atp":{"id":"fKD9-h8PfJ2umM2IrUgn75WbbF0=","tags":{"ref":"bg:82","check_date":"2024-08-31T23:01:06+02:00","shop":"chemist","addr:street_address":"бул.България 115А","addr:city":"Пловдив","addr:postcode":"4003","addr:country":"BG","name":"dm","phone":"+359 88 246 6482","website":"https://www.dm-drogeriemarkt.bg/store/g03a/plovdiv/bul-balgariya-115a","opening_hours":"Mo-Su 09:00-20:00","brand":"dm","brand:wikidata":"Q266572"},"coordinates":[42.157145,24.72833]},"dist":45.839,"tags_mismatch":true},{"osm":{"type":"node","id":9348375766,"tags":{"addr:city":"София","addr:postcode":"1618","brand":"dm","brand:wikidata":"Q266572","opening_hours":"Mo-Su 08:00-21:00","phone":"+359 2 451 4761","shop":"chemist","website":"https://www.dm-drogeriemarkt.bg/store/g035/sofiya/hubcha-2"},"wikidata":"Q266572","coordinates":[42.6772177,23.2867582]},"atp":{"id":"ND0EDPRVzdCrgWvWya5PTUnPpyQ=","tags":{"ref":"bg:77","check_date":"2024-08-31T23:01:06+02:00","shop":"chemist","addr:street_address":"Хубча 2","addr:city":"София","addr:postcode":"1618","addr:country":"BG","name":"dm","phone":"+359 2 451 4761","website":"https://www.dm-drogeriemarkt.bg/store/g035/sofiya/khubcha-2","opening_hours":"Mo-Su 08:00-21:00","brand":"dm","brand:wikidata":"Q266572"},"coordinates":[42.677181,23.286495]},"dist":21.9,"tags_mismatch":true},{"osm":{"type":"node","id":9783894255,"tags":{"addr:city":"София","addr:postcode":"1330","brand":"dm","brand:wikidata":"Q266572","opening_hours":"Mo-Su 08:00-20:00","phone":"+359 2 401 2992","shop":"chemist","website":"https://www.dm-drogeriemarkt.bg/store/g016/sofiya/bul-v-zkresenie-132a"},"wikidata":"Q266572","coordinates":[42.6961845,23.2865588]},"atp":{"id":"WeiUV3PAeSy0h28c9cYPVm7HSDE=","tags":{"ref":"bg:30","check_date":"2024-08-31T23:01:05+02:00","shop":"chemist","addr:street_address":"бул. Възкресение 132А","addr:city":"София","addr:postcode":"1330","addr:country":"BG","name":"dm","phone":"+359 2 401 2992","website":"https://www.dm-drogeriemarkt.bg/store/g016/sofiya/bul-vazkresenie-132a","opening_hours":"Mo-Su 08:00-20:00","brand":"dm","brand:wikidata":"Q266572"},"coordinates":[42.696071,23.286574]},"dist":12.682,"tags_mismatch":true},{"osm":{"type":"node","id":9960927663,"tags":{"addr:city":"Горна Оряховица","addr:postcode":"5100","brand":"dm","brand:wikidata":"Q266572","opening_hours":"Mo-Su 09:00-20:00","phone":"+359 88 376 4100","shop":"chemist","website":"https://www.dm-drogeriemarkt.bg/store/g044/gorna-oryahovitsa/ul-vasil-levski-10","wheelchair":"yes"},"wikidata":"Q266572","coordinates":[43.1323916,25.6847498]},"atp":{"id":"1qjrzhBu9U0PgkQMUB5xVZt1QnM=","tags":{"ref":"bg:100","check_date":"2024-08-31T23:01:06+02:00","shop":"chemist","addr:street_address":"ул. Васил Левски 10","addr:city":"Горна Оряховица","addr:postcode":"5100","addr:country":"BG","name":"dm","phone":"+359 88 376 4100","website":"https://www.dm-drogeriemarkt.bg/store/g044/gorna-oryakhovitsa/ul-vasil-levski-10","opening_hours":"Mo-Su 09:00-20:00","brand":"dm","brand:wikidata":"Q266572"},"coordinates":[43.132554,25.684168]},"dist":50.547,"tags_mismatch":true},{"osm":{"type":"node","id":10119103280,"tags":{"brand":"dm","brand:wikidata":"Q266572","check_date":"2022-12-28","opening_hours":"Mo-Su 09:00-21:00","payment:credit_cards":"yes","payment:debit_cards":"yes","payment:mastercard":"yes","payment:visa":"yes","phone":"+359 2 422 5426","shop":"chemist","website":"https://www.dm-drogeriemarkt.bg/store/g021/sofiya/ul-jordan-josifov-6","wheelchair":"limited"},"wikidata":"Q266572","coordinates":[42.6537907,23.3455191]},"atp":{"id":"LL2zr5JEWq3FKJyuYXbXhcYVfnw=","tags":{"ref":"bg:49","check_date":"2024-08-31T23:01:06+02:00","shop":"chemist","addr:street_address":"ул. Йордан Йосифов 6","addr:city":"София","addr:postcode":"1700","addr:country":"BG","name":"dm","phone":"+359 2 422 5426","website":"https://www.dm-drogeriemarkt.bg/store/g021/sofiya/ul-iordan-iosifov-6","opening_hours":"Mo-Su 09:00-21:00","brand":"dm","brand:wikidata":"Q266572"},"coordinates":[42.653832,23.345553]},"dist":5.364,"tags_mismatch":true},{"osm":{"type":"node","id":10592585909,"tags":{"addr:city":"Ямбол","addr:housenumber":"34","addr:postcode":"8600","addr:street":"Търговска","brand":"dm","brand:wikidata":"Q266572","opening_hours":"Mo-Su 08:30-20:00","phone":"+359 46 910 572","shop":"chemist","website":"https://www.dm-drogeriemarkt.bg/store/g020/yambol/ul-t-rgovska-34"},"wikidata":"Q266572","coordinates":[42.4817866,26.511764]},"atp":{"id":"u373x4ceoo_NNjEPOTQKAnGoJfo=","tags":{"ref":"bg:48","check_date":"2024-08-31T23:01:06+02:00","shop":"chemist","addr:street_address":"ул. Търговска 34","addr:city":"Ямбол","addr:postcode":"8600","addr:country":"BG","name":"dm","phone":"+359 88 246 6448","website":"https://www.dm-drogeriemarkt.bg/store/g020/yambol/ul-targovska-34","opening_hours":"Mo-Su 09:00-20:00","brand":"dm","brand:wikidata":"Q266572"},"coordinates":[42.481834,26.511812]},"dist":6.578,"tags_mismatch":true},{"osm":{"type":"node","id":10970480205,"tags":{"addr:city":"Враца","addr:housenumber":"9/2","addr:postcode":"3000","addr:street":"бул. Никола Войводов","brand":"dm","brand:wikidata":"Q266572","opening_hours":"Mo-Su 08:00-20:00","phone":"+359 92 910 992","shop":"chemist","website":"https://www.dm-drogeriemarkt.bg/store/g009/vratsa/ul-nikola-vojvodov-9-2"},"wikidata":"Q266572","coordinates":[43.2053332,23.5539582]},"atp":{"id":"pJQlayvyjLNULvFSOBz9cvS1vjI=","tags":{"ref":"bg:9","check_date":"2024-08-31T23:01:05+02:00","shop":"chemist","addr:street_address":"ул. Никола Войводов 9/2","addr:city":"Враца","addr:postcode":"3000","addr:country":"BG","name":"dm","phone":"+359 92 910 992","website":"https://www.dm-drogeriemarkt.bg/store/g009/vratsa/ul-nikola-voivodov-9-2","opening_hours":"Mo-Su 09:00-20:00","brand":"dm","brand:wikidata":"Q266572"},"coordinates":[43.20541,23.553936]},"dist":8.727,"tags_mismatch":true},{"osm":{"type":"node","id":10982942140,"tags":{"addr:city":"Перник","addr:postcode":"2300","brand":"dm","brand:wikidata":"Q266572","opening_hours":"Mo-Su 09:00-21:00","phone":"+359 88 376 4120","shop":"chemist","website":"https://www.dm-drogeriemarkt.bg/store/g050/pernik/ul-zahari-zograf-159"},"wikidata":"Q266572","coordinates":[42.6022846,23.0501639]},"atp":{"id":"zHVdvSdhDb2uXZWIPQNuimCGmgY=","tags":{"ref":"bg:120","check_date":"2024-08-31T23:01:06+02:00","shop":"chemist","addr:street_address":"ул. Захари Зограф 159","addr:city":"Перник","addr:postcode":"2300","addr:country":"BG","name":"dm","phone":"+359 88 376 4120","website":"https://www.dm-drogeriemarkt.bg/store/g050/pernik/ul-zakhari-zograf-159","opening_hours":"Mo-Su 09:00-20:30","brand":"dm","brand:wikidata":"Q266572"},"coordinates":[42.602154,23.050292]},"dist":17.911,"tags_mismatch":true},{"osm":{"type":"node","id":11171422826,"tags":{"addr:city":"Хасково","addr:postcode":"6300","brand":"dm","brand:wikidata":"Q266572","opening_hours":"Mo-Su 09:00-20:00","phone":"+359 88 376 4117","shop":"chemist","website":"https://www.dm-drogeriemarkt.bg/store/g04l/haskovo/bul-g-s-rakovski-28-a"},"wikidata":"Q266572","coordinates":[41.9411142,25.5557928]},"atp":{"id":"2Ba7yFUaeqkD_c6LtNci0Z-HyCk=","tags":{"ref":"bg:117","check_date":"2024-08-31T23:01:06+02:00","shop":"chemist","addr:street_address":"бул.Г.С.Раковски 28 А","addr:city":"Хасково","addr:postcode":"6300","addr:country":"BG","name":"dm","phone":"+359 88 376 4117","website":"https://www.dm-drogeriemarkt.bg/store/g04l/khaskovo/bul-g-s-rakovski-28-a","opening_hours":"Mo-Su 09:00-20:00","brand":"dm","brand:wikidata":"Q266572"},"coordinates":[41.9405529,25.5558516]},"dist":62.603,"tags_mismatch":true},{"osm":{"type":"node","id":11195324785,"tags":{"addr:city":"Монтана","addr:postcode":"3400","brand":"dm","brand:wikidata":"Q266572","opening_hours":"Mo-Su 09:00-21:00","phone":"+359 88 246 6497","shop":"chemist","website":"https://www.dm-drogeriemarkt.bg/store/g041/montana/bul-treti-mart-137b"},"wikidata":"Q266572","coordinates":[43.4184786,23.2268371]},"atp":{"id":"VrLCSW9EaEIxbIKmOcXp_aM1KLY=","tags":{"ref":"bg:97","check_date":"2024-08-31T23:01:06+02:00","shop":"chemist","addr:street_address":"бул.Трети март 137Б","addr:city":"Монтана","addr:postcode":"3400","addr:country":"BG","name":"dm","phone":"+359 88 246 6497","website":"https://www.dm-drogeriemarkt.bg/store/g041/montana/bul-treti-mart-137b","opening_hours":"Mo-Fr 09:00-20:00; Sa 09:00-21:00; Su 09:00-20:00","brand":"dm","brand:wikidata":"Q266572"},"coordinates":[43.418479,23.226785]},"dist":4.208,"tags_mismatch":true},{"osm":{"type":"node","id":11214193156,"tags":{"addr:city":"София","addr:housenumber":"1","addr:postcode":"1415","addr:street":"Акад. Петър Динеков","brand":"dm","brand:wikidata":"Q266572","opening_hours":"Mo-Fr 08:00-21:00; Sa 09:00-21:00; Su 09:00-20:00","phone":"+359 88 376 4114","shop":"chemist","website":"https://www.dm-drogeriemarkt.bg/store/g04i/sofiya/ul-akad-pet-r-dinekov-1"},"wikidata":"Q266572","coordinates":[42.6396935,23.3112535]},"atp":{"id":"IHNDocBcNvJjQfRloHv28Z21Xn0=","tags":{"ref":"bg:114","check_date":"2024-08-31T23:01:06+02:00","shop":"chemist","addr:street_address":"ул.Акад.Петър Динеков 1","addr:city":"София","addr:postcode":"1415","addr:country":"BG","name":"dm","phone":"+359 88 376 4114","website":"https://www.dm-drogeriemarkt.bg/store/g04i/sofiya/ul-akad-petar-dinekov-1","opening_hours":"Mo-Fr 08:00-21:00; Sa 09:00-21:00; Su 09:00-20:00","brand":"dm","brand:wikidata":"Q266572"},"coordinates":[42.6396721,23.3112271]},"dist":3.213,"tags_mismatch":true},{"osm":{"type":"node","id":11215209402,"tags":{"addr:city":"София","addr:postcode":"1407","brand":"dm","brand:wikidata":"Q266572","level":"-1","opening_hours":"Mo-Su 10:00-22:00","phone":"+359 2 422 5491","shop":"chemist","website":"https://www.dm-drogeriemarkt.bg/store/g04n/sofiya/bul-cherni-vr-h-100"},"wikidata":"Q266572","coordinates":[42.658046,23.3149838]},"atp":{"id":"eAauYRFiwjCKIwYMs3aLfH_gKfY=","tags":{"ref":"bg:119","check_date":"2024-08-31T23:01:06+02:00","shop":"chemist","addr:street_address":"бул. Черни връх 100","addr:city":"София","addr:postcode":"1407","addr:country":"BG","name":"dm","phone":"+359 2 422 5491","website":"https://www.dm-drogeriemarkt.bg/store/g04n/sofiya/bul-cherni-vrakh-100","opening_hours":"Mo-Su 10:00-22:00","brand":"dm","brand:wikidata":"Q266572"},"coordinates":[42.657918,23.315949]},"dist":80.201,"tags_mismatch":true},{"osm":{"type":"node","id":11233083736,"tags":{"addr:city":"Хасково","addr:postcode":"6300","brand":"dm","brand:wikidata":"Q266572","opening_hours":"Mo-Su 09:00-20:00","phone":"+359 88 376 4123","shop":"chemist","website":"https://www.dm-drogeriemarkt.bg/store/g053/haskovo/m-uvata-214-4"},"wikidata":"Q266572","coordinates":[41.9700897,25.5598785]},"atp":{"id":"nbUbBlYaHsd0a_8evhDv6vL5vI0=","tags":{"ref":"bg:123","check_date":"2024-08-31T23:01:06+02:00","shop":"chemist","addr:street_address":"М.Увата 214.4","addr:city":"Хасково","addr:postcode":"6300","addr:country":"BG","name":"dm","phone":"+359 88 376 4123","website":"https://www.dm-drogeriemarkt.bg/store/g053/khaskovo/m-uvata-214-4","opening_hours":"Mo-Su 10:00-20:00","brand":"dm","brand:wikidata":"Q266572"},"coordinates":[41.97048,25.5598]},"dist":43.882,"tags_mismatch":true},{"osm":{"type":"node","id":11235300298,"tags":{"addr:city":"София","addr:postcode":"1715","brand":"dm","brand:wikidata":"Q266572","opening_hours":"Mo-Fr 09:00-20:00; Sa 09:00-21:00; Su 09:00-20:00","phone":"+359 88 246 6461","shop":"chemist","website":"https://www.dm-drogeriemarkt.bg/store/g047/sofiya/ul-d-r-atanas-moskov-20"},"wikidata":"Q266572","coordinates":[42.6358617,23.3738683]},"atp":{"id":"k5oHd1vbz6w9DGkDw1Rugu_Lxb8=","tags":{"ref":"bg:103","check_date":"2024-08-31T23:01:06+02:00","shop":"chemist","addr:street_address":"ул. д-р Атанас Москов 20","addr:city":"София","addr:postcode":"1715","addr:country":"BG","name":"dm","phone":"+359 88 246 6461","website":"https://www.dm-drogeriemarkt.bg/store/g047/sofiya/ul-d-r-atanas-moskov-20","opening_hours":"Mo-Su 09:00-21:00","brand":"dm","brand:wikidata":"Q266572"},"coordinates":[42.63588,23.37381]},"dist":5.185,"tags_mismatch":true},{"osm":{"type":"node","id":11253061342,"tags":{"addr:city":"Поморие","addr:postcode":"8200","brand":"dm","brand:wikidata":"Q266572","opening_hours":"Mo-Su 09:00-20:00","phone":"+359 88 376 4121","shop":"chemist","website":"https://www.dm-drogeriemarkt.bg/store/g051/pomorie/ul-knyaz-boris-i-104-b"},"wikidata":"Q266572","coordinates":[42.5658881,27.6220907]},"atp":{"id":"v_eSGldB2gOV0E08CwGq04NdphY=","tags":{"ref":"bg:121","check_date":"2024-08-31T23:01:06+02:00","shop":"chemist","addr:street_address":"ул.Княз Борис I 104 Б","addr:city":"Поморие","addr:postcode":"8200","addr:country":"BG","name":"dm","phone":"+359 88 376 4121","website":"https://www.dm-drogeriemarkt.bg/store/g051/pomorie/ul-knyaz-boris-i-104-b","opening_hours":"Mo-Fr 09:00-21:00; Sa 09:00-22:00; Su 09:00-21:00","brand":"dm","brand:wikidata":"Q266572"},"coordinates":[42.5666288,27.622027]},"dist":82.527,"tags_mismatch":true},{"osm":{"type":"node","id":11254747836,"tags":{"addr:city":"Сливен","addr:postcode":"8800","brand":"dm","brand:wikidata":"Q266572","opening_hours":"Mo-Su 09:00-20:00","phone":"+359 88 376 4113","shop":"chemist","website":"https://www.dm-drogeriemarkt.bg/store/g04h/sliven/bul-georgi-danchev-26"},"wikidata":"Q266572","coordinates":[42.6824846,26.3409363]},"atp":{"id":"mZvYL6l7nDNyRAOypOTFckfd5C4=","tags":{"ref":"bg:113","check_date":"2024-08-31T23:01:06+02:00","shop":"chemist","addr:street_address":"бул.Георги Данчев 26","addr:city":"Сливен","addr:postcode":"8800","addr:country":"BG","name":"dm","phone":"+359 88 376 4113","website":"https://www.dm-drogeriemarkt.bg/store/g04h/sliven/bul-georgi-danchev-26","opening_hours":"Mo-Fr 08:30-20:00; Sa 08:30-20:30; Su 08:30-20:00","brand":"dm","brand:wikidata":"Q266572"},"coordinates":[42.6825037,26.3410361]},"dist":8.43,"tags_mismatch":true},{"osm":{"type":"node","id":11324280412,"tags":{"brand":"dm","brand:wikidata":"Q266572","check_date":"2024-03-13","internet_access":"no","level":"0","opening_hours":"Mo-Su 09:00-20:00","payment:cash":"yes","payment:credit_cards":"yes","payment:debit_cards":"yes","shop":"chemist","wheelchair":"yes"},"wikidata":"Q266572","coordinates":[42.6604597,23.2450646]},"atp":{"id":"gqC8iA6pgiHPIeIUCODQs5Sm74E=","tags":{"ref":"bg:126","check_date":"2024-08-31T23:01:06+02:00","shop":"chemist","addr:street_address":"бул. Цар Борис III 272","addr:city":"София","addr:postcode":"1000","addr:country":"BG","name":"dm","phone":"+359 88 376 4126","website":"https://www.dm-drogeriemarkt.bg/store/g056/sofiya/bul-tsar-boris-iii-272","opening_hours":"Mo-Su 09:00-21:00","brand":"dm","brand:wikidata":"Q266572"},"coordinates":[42.660244,23.245258]},"dist":28.729,"tags_mismatch":true},{"osm":{"type":"node","id":11509482764,"tags":{"brand":"dm","brand:wikidata":"Q266572","shop":"chemist"},"wikidata":"Q266572","coordinates":[42.2671991,23.1135184]},"atp":{"id":"RU3cK9lNnL1x8KViVHjyCBwRR20=","tags":{"ref":"bg:122","check_date":"2024-08-31T23:01:06+02:00","shop":"chemist","addr:street_address":"ул. Иван Вазов 30","addr:city":"Дупница","addr:postcode":"2600","addr:country":"BG","name":"dm","phone":"+359 88 376 4122","website":"https://www.dm-drogeriemarkt.bg/store/g052/dupnitsa/ul-ivan-vazov-30","opening_hours":"Mo-Su 09:00-20:00","brand":"dm","brand:wikidata":"Q266572"},"coordinates":[42.26731,23.113311]},"dist":21.055,"tags_mismatch":true},{"osm":{"type":"node","id":11509493362,"tags":{"brand":"dm","brand:wikidata":"Q266572","shop":"chemist"},"wikidata":"Q266572","coordinates":[42.7036033,24.1633435]},"atp":{"id":"ufcG4Y1bgN-W4Pb91MP-onNSDjk=","tags":{"ref":"bg:105","check_date":"2024-08-31T23:01:06+02:00","shop":"chemist","addr:street_address":"м.Декилиташ ГП-I-6при км/195+860/дясно№1 обект 5","addr:city":"Пирдоп","addr:postcode":"2070","addr:country":"BG","name":"dm","phone":"+359 88 376 4105","website":"https://www.dm-drogeriemarkt.bg/store/g049/pirdop/m-dekilitash-gp-i-6pri-km-195-860-dyasnono1-obekt-5","opening_hours":"Mo-Su 09:00-20:00","brand":"dm","brand:wikidata":"Q266572"},"coordinates":[42.703625,24.163323]},"dist":2.937,"tags_mismatch":true},{"osm":{"type":"node","id":11685130819,"tags":{"brand":"dm","brand:wikidata":"Q266572","shop":"chemist"},"wikidata":"Q266572","coordinates":[41.5722572,24.7164493]},"atp":{"id":"bCcVMnRL-A0BmvtOAlxk2_YQFSk=","tags":{"ref":"bg:115","check_date":"2024-08-31T23:01:06+02:00","shop":"chemist","addr:street_address":"ул.Белият камък 24","addr:city":"Смолян","addr:postcode":"4700","addr:country":"BG","name":"dm","phone":"+359 88 376 4115","website":"https://www.dm-drogeriemarkt.bg/store/g04j/smolyan/ul-beliyat-kamak-24","opening_hours":"Mo-Su 09:00-20:00","brand":"dm","brand:wikidata":"Q266572"},"coordinates":[41.571722,24.716694]},"dist":62.897,"tags_mismatch":true},{"osm":{"type":"node","id":11723449706,"tags":{"brand":"dm","brand:wikidata":"Q266572","shop":"chemist"},"wikidata":"Q266572","coordinates":[42.6558864,23.5907742]},"atp":{"id":"Mv5lcNRm06Xzm7Tbhy6-1L7fsqE=","tags":{"ref":"bg:127","check_date":"2024-08-31T23:01:06+02:00","shop":"chemist","addr:street_address":"бул.Витоша 25","addr:city":"Елин Пелин","addr:postcode":"2100","addr:country":"BG","name":"dm","phone":"+359 88 376 4127","website":"https://www.dm-drogeriemarkt.bg/store/g057/elin-pelin/bul-vitosha-25","opening_hours":"Mo-Su 09:00-21:00","brand":"dm","brand:wikidata":"Q266572"},"coordinates":[42.656841,23.590731]},"dist":106.205,"tags_mismatch":true},{"osm":{"type":"node","id":11874807938,"tags":{"brand":"dm","brand:wikidata":"Q266572","shop":"chemist"},"wikidata":"Q266572","coordinates":[42.6521441,27.6719705]},"atp":{"id":"6q7v9BDf-8vBT-uWmzGWC9d-iy0=","tags":{"ref":"bg:129","check_date":"2024-08-31T23:01:06+02:00","shop":"chemist","addr:street_address":"Чатал тепе 2","addr:city":"Несебър","addr:postcode":"8230","addr:country":"BG","name":"dm","phone":"+359 88 376 4129","website":"https://www.dm-drogeriemarkt.bg/store/g059/nesebar/chatal-tepe-2","opening_hours":"Mo-Fr 09:00-21:00; Sa 09:00-22:00; Su 09:00-21:00","brand":"dm","brand:wikidata":"Q266572"},"coordinates":[42.652932,27.671625]},"dist":92.054,"tags_mismatch":true},{"osm":{"type":"node","id":12073982248,"tags":{"brand":"dm","brand:wikidata":"Q266572","shop":"chemist"},"wikidata":"Q266572","coordinates":[42.8089842,23.2133456]},"atp":{"id":"KzNkdPDCU13hlbedFJy0IffN-UY=","tags":{"ref":"bg:87","check_date":"2024-08-31T23:01:06+02:00","shop":"chemist","addr:street_address":"ул. Славянска 34","addr:city":"Костинброд","addr:postcode":"2230","addr:country":"BG","name":"dm","phone":"+359 88 246 6487","website":"https://www.dm-drogeriemarkt.bg/store/g03f/kostinbrod/ul-slavyanska-34","opening_hours":"Mo-Su 09:00-20:00","brand":"dm","brand:wikidata":"Q266572"},"coordinates":[42.808466,23.21335]},"dist":57.622,"tags_mismatch":true},{"osm":{"type":"node","id":12088524145,"tags":{"brand":"dm","brand:wikidata":"Q266572","opening_hours":"Mo-Su 09:00-20:00","shop":"chemist"},"wikidata":"Q266572","coordinates":[44.1200819,27.2604597]},"atp":{"id":"K3ET6JXaZgHRTxcKBY4KjeNLpRo=","tags":{"ref":"bg:10","check_date":"2024-08-31T23:01:05+02:00","shop":"chemist","addr:street_address":"бул. Могильов 47","addr:city":"Габрово","addr:postcode":"5300","addr:country":"BG","name":"dm","phone":"+359 66 910 992","website":"https://www.dm-drogeriemarkt.bg/store/g00a/gabrovo/bul-mogil-ov-47","opening_hours":"Mo-Su 10:00-20:00","brand":"dm","brand:wikidata":"Q266572"},"coordinates":[42.887867,25.313058]},"tags_mismatch":true},{"osm":{"type":"node","id":12110439575,"tags":{"brand":"dm","brand:wikidata":"Q266572","level":"-2","shop":"chemist"},"wikidata":"Q266572","coordinates":[42.664135,23.2887831]},"atp":{"id":"PX0On6uAO61dcQ0xO6LxwsQFLkk=","tags":{"ref":"bg:99","check_date":"2024-08-31T23:01:06+02:00","shop":"chemist","addr:street_address":"бул.България 69","addr:city":"София","addr:postcode":"1404","addr:country":"BG","name":"dm","phone":"+359 88 246 6499","website":"https://www.dm-drogeriemarkt.bg/store/g043/sofiya/bul-balgariya-69","opening_hours":"Mo-Su 09:00-21:00","brand":"dm","brand:wikidata":"Q266572"},"coordinates":[42.664148,23.288553]},"dist":18.87,"tags_mismatch":true},{"osm":{"type":"way","id":334574301,"tags":{"addr:city":"Бургас","addr:postcode":"8009","brand":"dm","brand:wikidata":"Q266572","building":"yes","opening_hours":"Mo-Fr 09:00-20:00; Sa 08:30-20:30; Su 09:00-20:00","phone":"+359 56 911 820","shop":"chemist","website":"https://www.dm-drogeriemarkt.bg/store/g024/burgas/zhk-meden-rudnik"},"wikidata":"Q266572","coordinates":[42.4580726,27.4154005]},"atp":{"id":"rHkiSG8onb9gXHkU7D91YHjrs74=","tags":{"ref":"bg:52","check_date":"2024-08-31T23:01:06+02:00","shop":"chemist","addr:street_address":"М. Рудник, Районен център сгр. 421","addr:city":"Бургас","addr:postcode":"8009","addr:country":"BG","name":"dm","phone":"+359 88 246 6452","website":"https://www.dm-drogeriemarkt.bg/store/g024/burgas/m-rudnik-raionen-tsentar-sgr-421","opening_hours":"Mo-Fr 09:00-20:00; Sa 09:00-20:30; Su 09:00-19:00","brand":"dm","brand:wikidata":"Q266572"},"coordinates":[42.458199,27.414536]},"dist":72.3,"tags_mismatch":true},{"osm":false,"atp":{"id":"wRFVnL76uQYVvxrEa1IWTgLzn9M=","tags":{"ref":"bg:14","check_date":"2024-08-31T23:01:05+02:00","shop":"chemist","addr:street_address":"бул. Ситняково 48","addr:city":"София","addr:postcode":"1505","addr:country":"BG","name":"dm","phone":"+359 2 489 0782","website":"https://www.dm-drogeriemarkt.bg/store/g00e/sofiya/bul-sitnyakovo-48","opening_hours":"Mo-Su 10:00-21:00","brand":"dm","brand:wikidata":"Q266572"},"coordinates":[42.691308,23.353779]},"tags_mismatch":false,"dist":0},{"osm":false,"atp":{"id":"Cyvmk82EhAptmnUiW6IxLNQqWS4=","tags":{"ref":"bg:15","check_date":"2024-08-31T23:01:05+02:00","shop":"chemist","addr:street_address":"ул. Велики Преслав 28","addr:city":"Шумен","addr:postcode":"9700","addr:country":"BG","name":"dm","phone":"+359 54 910 992","website":"https://www.dm-drogeriemarkt.bg/store/g00f/shumen/ul-veliki-preslav-28","opening_hours":"Mo-Su 09:00-20:00","brand":"dm","brand:wikidata":"Q266572"},"coordinates":[43.267331,26.93603]},"tags_mismatch":false,"dist":0},{"osm":false,"atp":{"id":"g0fxS_xaCST_Z0Oxx3mURxr-Unc=","tags":{"ref":"bg:16","check_date":"2024-08-31T23:01:05+02:00","shop":"chemist","addr:street_address":"бул. Андрей Сахаров 2","addr:city":"Варна","addr:postcode":"9000","addr:country":"BG","name":"dm","phone":"+359 52 910 816","website":"https://www.dm-drogeriemarkt.bg/store/g00g/varna/bul-andrei-sakharov-2","opening_hours":"Mo-Su 10:00-22:00","brand":"dm","brand:wikidata":"Q266572"},"coordinates":[43.217718,27.897978]},"tags_mismatch":false,"dist":0},{"osm":false,"atp":{"id":"ScBGT1ydNhA1OJLr4xrrN10vaPo=","tags":{"ref":"bg:23","check_date":"2024-08-31T23:01:05+02:00","shop":"chemist","addr:street_address":"ул.Хан Аспарух 30","addr:city":"Стара Загора","addr:postcode":"6000","addr:country":"BG","name":"dm","phone":"+359 42 910 996","website":"https://www.dm-drogeriemarkt.bg/store/g00n/stara-zagora/ul-khan-asparukh-30","opening_hours":"Mo-Su 10:00-21:00","brand":"dm","brand:wikidata":"Q266572"},"coordinates":[42.4379372,25.6323214]},"tags_mismatch":false,"dist":0},{"osm":false,"atp":{"id":"1FMTUc6KNMZYUsXduyigFYgRoYo=","tags":{"ref":"bg:40","check_date":"2024-08-31T23:01:05+02:00","shop":"chemist","addr:street_address":"ул. Цар Освободител 1Б","addr:city":"Сливен","addr:postcode":"8800","addr:country":"BG","name":"dm","phone":"+359 88 246 6440","website":"https://www.dm-drogeriemarkt.bg/store/g01g/sliven/ul-tsar-osvoboditel-1b","opening_hours":"Mo-Su 08:30-20:00","brand":"dm","brand:wikidata":"Q266572"},"coordinates":[42.681071,26.314418]},"tags_mismatch":false,"dist":0},{"osm":false,"atp":{"id":"uJoZ1i-_7grm8FqTTpPttaWuVhI=","tags":{"ref":"bg:45","check_date":"2024-08-31T23:01:06+02:00","shop":"chemist","addr:street_address":"бул. Липник 121Д","addr:city":"Русе","addr:postcode":"7000","addr:country":"BG","name":"dm","phone":"+359 82 511 602","website":"https://www.dm-drogeriemarkt.bg/store/g01l/ruse/bul-lipnik-121d","opening_hours":"Mo-Su 10:00-20:00","brand":"dm","brand:wikidata":"Q266572"},"coordinates":[43.853222,25.990241]},"tags_mismatch":false,"dist":0},{"osm":false,"atp":{"id":"50jkw6s-wnM7Ed06zqgbBT3L7A4=","tags":{"ref":"bg:47","check_date":"2024-08-31T23:01:06+02:00","shop":"chemist","addr:street_address":"пл. Иван Миндиликов 1","addr:city":"Плевен","addr:postcode":"5800","addr:country":"BG","name":"dm","phone":"+359 64 910 590","website":"https://www.dm-drogeriemarkt.bg/store/g01n/pleven/pl-ivan-mindilikov-1","opening_hours":"Mo-Su 10:00-21:00","brand":"dm","brand:wikidata":"Q266572"},"coordinates":[43.419949,24.614088]},"tags_mismatch":false,"dist":0},{"osm":false,"atp":{"id":"CfLsoU4fU28M-UBVR22u70MHmVw=","tags":{"ref":"bg:51","check_date":"2024-08-31T23:01:06+02:00","shop":"chemist","addr:street_address":"бул. Царица Йоанна 15","addr:city":"София","addr:postcode":"1336","addr:country":"BG","name":"dm","phone":"+359 2 422 5325","website":"https://www.dm-drogeriemarkt.bg/store/g023/sofiya/bul-tsaritsa-ioanna-15","opening_hours":"Mo-Su 10:00-21:00","brand":"dm","brand:wikidata":"Q266572"},"coordinates":[42.710672,23.271004]},"tags_mismatch":false,"dist":0},{"osm":false,"atp":{"id":"vLaSZ7Q2R367kIjzk55FYOkUK1Q=","tags":{"ref":"bg:59","check_date":"2024-08-31T23:01:06+02:00","shop":"chemist","addr:street_address":"ул. Търговска 45","addr:city":"Ловеч","addr:postcode":"5500","addr:country":"BG","name":"dm","phone":"+359 68 588 573","website":"https://www.dm-drogeriemarkt.bg/store/g02b/lovech/ul-targovska-45","opening_hours":"Mo-Su 09:00-20:00","brand":"dm","brand:wikidata":"Q266572"},"coordinates":[43.13564,24.717005]},"tags_mismatch":false,"dist":0},{"osm":false,"atp":{"id":"pcOXsJQj---b7tsVrSaSY1XsjwQ=","tags":{"ref":"bg:73","check_date":"2024-08-31T23:01:06+02:00","shop":"chemist","addr:street_address":"бул. България 17","addr:city":"Разград","addr:postcode":"7200","addr:country":"BG","name":"dm","phone":"+359 84 587 079","website":"https://www.dm-drogeriemarkt.bg/store/g031/razgrad/bul-balgariya-17","opening_hours":"Mo-Su 09:00-20:00","brand":"dm","brand:wikidata":"Q266572"},"coordinates":[43.524754,26.523684]},"tags_mismatch":false,"dist":0},{"osm":false,"atp":{"id":"iOSanIhmJ9xAElx8XLwBRXanfLw=","tags":{"ref":"bg:78","check_date":"2024-08-31T23:01:06+02:00","shop":"chemist","addr:street_address":"Околовръстен път 214","addr:city":"София","addr:postcode":"1434","addr:country":"BG","name":"dm","phone":"+359 2 451 2975","website":"https://www.dm-drogeriemarkt.bg/store/g036/sofiya/okolovrasten-pat-214","opening_hours":"Mo-Su 10:00-22:00","brand":"dm","brand:wikidata":"Q266572"},"coordinates":[42.6247641,23.3524717]},"tags_mismatch":false,"dist":0},{"osm":false,"atp":{"id":"hdWhI48Z07LKvUKfLFFURZdY2aw=","tags":{"ref":"bg:79","check_date":"2024-08-31T23:01:06+02:00","shop":"chemist","addr:street_address":"Перущица 8","addr:city":"Пловдив","addr:postcode":"4002","addr:country":"BG","name":"dm","phone":"+359 88 246 6479","website":"https://www.dm-drogeriemarkt.bg/store/g037/plovdiv/perushtitsa-8","opening_hours":"Mo-Su 10:00-21:00","brand":"dm","brand:wikidata":"Q266572"},"coordinates":[42.141632,24.719108]},"tags_mismatch":false,"dist":0},{"osm":false,"atp":{"id":"z7jUzV2ewJSM9fgvbrJAc6_bOP8=","tags":{"ref":"bg:80","check_date":"2024-08-31T23:01:06+02:00","shop":"chemist","addr:street_address":"бул. Александър Стамболийски 101","addr:city":"София","addr:postcode":"1303","addr:country":"BG","name":"dm","phone":"+359 2 488 5794","website":"https://www.dm-drogeriemarkt.bg/store/g038/sofiya/bul-aleksandar-stamboliiski-101","opening_hours":"Mo-Su 09:00-22:00","brand":"dm","brand:wikidata":"Q266572"},"coordinates":[42.698548,23.308559]},"tags_mismatch":false,"dist":0},{"osm":false,"atp":{"id":"AHkP57liFYiAFUpAyuQhOeCjJgw=","tags":{"ref":"bg:86","check_date":"2024-08-31T23:01:06+02:00","shop":"chemist","addr:street_address":"бул.Сливница 185","addr:city":"Варна","addr:postcode":"9009","addr:country":"BG","name":"dm","phone":"+359 88 246 6486","website":"https://www.dm-drogeriemarkt.bg/store/g03e/varna/bul-slivnitsa-185","opening_hours":"Mo-Su 10:00-21:00","brand":"dm","brand:wikidata":"Q266572"},"coordinates":[43.227998,27.8749]},"tags_mismatch":false,"dist":0},{"osm":false,"atp":{"id":"p5VstOVeIIOH8wWMP_TeGjLFiL8=","tags":{"ref":"bg:89","check_date":"2024-08-31T23:01:06+02:00","shop":"chemist","addr:street_address":"жк.Чайка бл.202 бл.202","addr:city":"Варна","addr:postcode":"9010","addr:country":"BG","name":"dm","phone":"+359 88 246 6489","website":"https://www.dm-drogeriemarkt.bg/store/g03h/varna/zhk-chaika-bl-202-bl-202","opening_hours":"Mo-Su 09:00-20:00","brand":"dm","brand:wikidata":"Q266572"},"coordinates":[43.214658,27.941244]},"tags_mismatch":false,"dist":0},{"osm":false,"atp":{"id":"3QZJ56gU4Vf_iIuzZgpYoUkd1ow=","tags":{"ref":"bg:95","check_date":"2024-08-31T23:01:06+02:00","shop":"chemist","addr:street_address":"пл.Севтополис 1","addr:city":"Казанлък","addr:postcode":"6100","addr:country":"BG","name":"dm","phone":"+359 88 246 6495","website":"https://www.dm-drogeriemarkt.bg/store/g03n/kazanlak/pl-sevtopolis-1","opening_hours":"Mo-Sa 08:30-20:30; Su 09:00-20:00","brand":"dm","brand:wikidata":"Q266572"},"coordinates":[42.618806,25.392819]},"tags_mismatch":false,"dist":0},{"osm":false,"atp":{"id":"QsvNXgCR2TcyDVQHxeeYmEfmayw=","tags":{"ref":"bg:102","check_date":"2024-08-31T23:01:06+02:00","shop":"chemist","addr:street_address":"кв.Запад 3, бул. Сюрен 29","addr:city":"Търговище","addr:postcode":"7700","addr:country":"BG","name":"dm","phone":"+359 88 376 4102","website":"https://www.dm-drogeriemarkt.bg/store/g046/targovishte/kv-zapad-3-bul-syuren-29","opening_hours":"Mo-Su 09:00-20:00","brand":"dm","brand:wikidata":"Q266572"},"coordinates":[43.2417,26.557771]},"tags_mismatch":false,"dist":0},{"osm":false,"atp":{"id":"Og3k3dPbz7_r0AZ6WfY3YZRZtOk=","tags":{"ref":"bg:104","check_date":"2024-08-31T23:01:06+02:00","shop":"chemist","addr:street_address":"бул.Добруджа 4","addr:city":"Добрич","addr:postcode":"9300","addr:country":"BG","name":"dm","phone":"+359 88 376 4104","website":"https://www.dm-drogeriemarkt.bg/store/g048/dobrich/bul-dobrudzha-4","opening_hours":"Mo-Su 09:00-20:00","brand":"dm","brand:wikidata":"Q266572"},"coordinates":[43.5684968,27.8475446]},"tags_mismatch":false,"dist":0},{"osm":false,"atp":{"id":"mSZAO0D7Mzt6sFWDKHrSGBaSk0k=","tags":{"ref":"bg:107","check_date":"2024-08-31T23:01:06+02:00","shop":"chemist","addr:street_address":"ул.Шипка 6","addr:city":"Пловдив","addr:postcode":"4023","addr:country":"BG","name":"dm","phone":"+359 88 376 4107","website":"https://www.dm-drogeriemarkt.bg/store/g04b/plovdiv/ul-shipka-6","opening_hours":"Mo-Su 09:00-20:00","brand":"dm","brand:wikidata":"Q266572"},"coordinates":[42.1341016,24.7938807]},"tags_mismatch":false,"dist":0},{"osm":false,"atp":{"id":"CN3MJpJWdS3cUEyuUJdm-J3Srh8=","tags":{"ref":"bg:109","check_date":"2024-08-31T23:01:06+02:00","shop":"chemist","addr:street_address":"ул. Никола Д. Петков 41","addr:city":"Севлиево","addr:postcode":"5400","addr:country":"BG","name":"dm","phone":"+359 88 376 4109","website":"https://www.dm-drogeriemarkt.bg/store/g04d/sevlievo/ul-nikola-d-petkov-41","opening_hours":"Mo-Su 09:00-20:00","brand":"dm","brand:wikidata":"Q266572"},"coordinates":[43.022059,25.094292]},"tags_mismatch":false,"dist":0},{"osm":false,"atp":{"id":"bT5bytpjNRKzuF5-rHrkcTd0Fy8=","tags":{"ref":"bg:110","check_date":"2024-08-31T23:01:06+02:00","shop":"chemist","addr:street_address":"ул. Симеон Русков 1A","addr:city":"Козлодуй","addr:postcode":"3320","addr:country":"BG","name":"dm","phone":"+359 88 376 4110","website":"https://www.dm-drogeriemarkt.bg/store/g04e/kozlodui/ul-simeon-ruskov-1a","opening_hours":"Mo-Su 09:00-20:00","brand":"dm","brand:wikidata":"Q266572"},"coordinates":[43.77638,23.733137]},"tags_mismatch":false,"dist":0},{"osm":false,"atp":{"id":"kDwKudur-uRbHYnbcwABaHucA1c=","tags":{"ref":"bg:116","check_date":"2024-08-31T23:01:06+02:00","shop":"chemist","addr:street_address":"ул. Гоце Делчев 53 Б","addr:city":"Разлог","addr:postcode":"2760","addr:country":"BG","name":"dm","phone":"+359 88 376 4116","website":"https://www.dm-drogeriemarkt.bg/store/g04k/razlog/ul-gotse-delchev-53-b","opening_hours":"Mo-Su 09:00-20:00","brand":"dm","brand:wikidata":"Q266572"},"coordinates":[41.879252,23.472373]},"tags_mismatch":false,"dist":0},{"osm":false,"atp":{"id":"WJ5Pagh1b55EKNEeuDIucNQI6Lo=","tags":{"ref":"bg:124","check_date":"2024-08-31T23:01:06+02:00","shop":"chemist","addr:street_address":"ул. Боян Дановски 13","addr:city":"София","addr:postcode":"1797","addr:country":"BG","name":"dm","phone":"+359 88 376 4124","website":"https://www.dm-drogeriemarkt.bg/store/g054/sofiya/ul-boyan-danovski-13","opening_hours":"Mo-Su 09:00-20:00","brand":"dm","brand:wikidata":"Q266572"},"coordinates":[42.664645,23.362079]},"tags_mismatch":false,"dist":0},{"osm":false,"atp":{"id":"WM_BkJYKjs6Mfos7D4UM-Bj-Bpg=","tags":{"ref":"bg:125","check_date":"2024-08-31T23:01:06+02:00","shop":"chemist","addr:street_address":"ул. Генерал Заимов 32","addr:city":"Карлово","addr:postcode":"4300","addr:country":"BG","name":"dm","phone":"+359 88 376 4125","website":"https://www.dm-drogeriemarkt.bg/store/g055/karlovo/ul-general-zaimov-32","opening_hours":"Mo-Su 09:00-20:00","brand":"dm","brand:wikidata":"Q266572"},"coordinates":[42.63402,24.80113]},"tags_mismatch":false,"dist":0},{"osm":false,"atp":{"id":"SDUWtg8XUOaiLP07iaCNVoyPpZI=","tags":{"ref":"bg:128","check_date":"2024-08-31T23:01:06+02:00","shop":"chemist","addr:street_address":"Ул. Васил Левски 20","addr:city":"Асеновград","addr:postcode":"4230","addr:country":"BG","name":"dm","phone":"+359 88 376 4128","website":"https://www.dm-drogeriemarkt.bg/store/g058/asenovgrad/ul-vasil-levski-20","opening_hours":"Mo-Su 08:00-20:00","brand":"dm","brand:wikidata":"Q266572"},"coordinates":[42.0137,24.8696]},"tags_mismatch":false,"dist":0},{"osm":false,"atp":{"id":"1AvQ83VfzmvXuFqnPPCyzpOcYbE=","tags":{"ref":"bg:132","check_date":"2024-08-31T23:01:06+02:00","shop":"chemist","addr:street_address":"ж.к. Изгрев бл.207","addr:city":"Бургас","addr:postcode":"8008","addr:country":"BG","name":"dm","phone":"+359 88 376 4132","website":"https://www.dm-drogeriemarkt.bg/store/g05c/burgas/zh-k-izgrev-bl-207","opening_hours":"Mo-Fr 09:00-20:00; Sa 09:00-20:30; Su 09:00-20:00","brand":"dm","brand:wikidata":"Q266572"},"coordinates":[42.527283,27.453636]},"tags_mismatch":false,"dist":0}]}