{"metadata":{"name":"Централна Кооперативна Банка","key":"amenity","value":"bank","compare_keys":["opening_hours"]},"data":[{"osm":{"type":"node","id":344548276,"tags":{"amenity":"bank","brand":"Централна Кооперативна Банка","brand:wikidata":"Q2944755","short_name:bg":"ЦКБ","short_name:en":"CCBank"},"wikidata":"Q2944755","coordinates":[42.7139423,27.7587832]},"atp":{"id":"Wp9L1tYoU1ok7A5ijWsrlMF_Bo0=","tags":{"ref":"1611398","amenity":"bank","@source_uri":"https://www.ccbank.bg/bg/branches_network/offices","@spider":"ccbank_bg","short_name:bg":"ЦКБ","short_name:en":"CCBank","addr:street_address":"ул.\"Цар Симеон І\" 17, ет.1, офис 9","addr:city":"Свети Влас","addr:country":"BG","phone":"+359 55 468 644;+359 88 464 6744","opening_hours":"Mo-Fr 08:30-12:00,13:00-17:00","brand":"Централна Кооперативна Банка","brand:wikidata":"Q2944755","nsi_id":"centralcooperativebank-126296"},"coordinates":[42.7134838,27.7582557]},"dist":66.758,"tags_mismatch":true},{"osm":{"type":"node","id":351121685,"tags":{"addr:city":"София","addr:housenumber":"бл.442","addr:place":"ж.к. Люлин 4","amenity":"bank","brand":"Централна Кооперативна Банка","brand:wikidata":"Q2944755","opening_hours":"Mo-Fr 08:30-19:00; Sa 10:00-14:00","phone":"+359 2 923 8022","short_name":"ЦКБ","short_name:bg":"ЦКБ","short_name:en":"CCBank","website":"https://www.ccbank.bg/"},"wikidata":"Q2944755","coordinates":[42.715138,23.249779]},"atp":{"id":"YvW2v6WjDeR0RrzSQqak_jDS1TI=","tags":{"ref":"1611467","amenity":"bank","@source_uri":"https://www.ccbank.bg/bg/branches_network/offices","@spider":"ccbank_bg","short_name:bg":"ЦКБ","short_name:en":"CCBank","addr:street_address":"бул.\"Панчо Владигеров\" бл.442","addr:city":"София","addr:country":"BG","phone":"+359 2 923 80 22;+359884657069","opening_hours":"Mo-Fr 08:30-17:00","brand":"Централна Кооперативна Банка","brand:wikidata":"Q2944755","nsi_id":"centralcooperativebank-126296"},"coordinates":[42.715534,23.250193]},"dist":55.524,"tags_mismatch":true},{"osm":{"type":"node","id":364052276,"tags":{"amenity":"bank","brand":"Централна Кооперативна Банка","brand:wikidata":"Q2944755","opening_hours":"Mo-Fr 08:30-17:00; Sa,Su off","short_name:bg":"ЦКБ","short_name:en":"CCBank","wheelchair":"no"},"wikidata":"Q2944755","coordinates":[42.6852217,23.303564]},"atp":{"id":"kdzDXpwbgS_tiMhc4JIhEoLylPI=","tags":{"ref":"1611504","amenity":"bank","@source_uri":"https://www.ccbank.bg/bg/branches_network/offices","@spider":"ccbank_bg","short_name:bg":"ЦКБ","short_name:en":"CCBank","addr:street_address":"бул.\"Св.Георги Софийски\" 56","addr:city":"София","addr:country":"BG","phone":"+359 2 95 15 480;+359885191038","opening_hours":"Mo-Fr 08:30-12:00,12:30-17:00","brand":"Централна Кооперативна Банка","brand:wikidata":"Q2944755","nsi_id":"centralcooperativebank-126296"},"coordinates":[42.685102,23.303571]},"dist":13.322,"tags_mismatch":true},{"osm":{"type":"node","id":415612185,"tags":{"amenity":"bank","branch":"Орион","brand":"Централна Кооперативна Банка","brand:wikidata":"Q2944755","opening_hours":"Mo-Fr 08:30-17:00","short_name":"ЦКБ","short_name:bg":"ЦКБ","short_name:en":"CCBank","website":"https://www.ccbank.bg/"},"wikidata":"Q2944755","coordinates":[42.7172186,23.2781245]},"atp":{"id":"PoMqvo1WGgbdbMr4wV5grIu7hg0=","tags":{"ref":"1611470","amenity":"bank","@source_uri":"https://www.ccbank.bg/bg/branches_network/offices","@spider":"ccbank_bg","short_name:bg":"ЦКБ","short_name:en":"CCBank","addr:street_address":"ж.к.\"Люлин\" 10, Орион 1-3","addr:city":"София","addr:country":"BG","phone":"+359 2 825 06 98;+359884620282","opening_hours":"Mo-Fr 08:30-12:00,12:30-17:00","brand":"Централна Кооперативна Банка","brand:wikidata":"Q2944755","nsi_id":"centralcooperativebank-126296"},"coordinates":[42.716625,23.277134]},"dist":104.426,"tags_mismatch":true},{"osm":{"type":"node","id":496126616,"tags":{"amenity":"bank","atm":"yes","brand":"Централна Кооперативна Банка","brand:wikidata":"Q2944755","check_date":"2025-01-28","short_name:bg":"ЦКБ","short_name:en":"CCBank"},"wikidata":"Q2944755","coordinates":[43.2086115,27.918761]},"atp":{"id":"N1W4Qa_33DhAHcUlSGtkLyog5Wc=","tags":{"ref":"1611291","amenity":"bank","@source_uri":"https://www.ccbank.bg/bg/branches_network/offices","@spider":"ccbank_bg","short_name:bg":"ЦКБ","short_name:en":"CCBank","addr:street_address":"бул.\"Осми приморски полк\" 55","addr:city":"Варна","addr:country":"BG","phone":"+359 52 650 144;+359 88 464 6014","opening_hours":"Mo-Fr 08:30-12:30,13:30-17:30; Sa 10:00-17:00","brand":"Централна Кооперативна Банка","brand:wikidata":"Q2944755","nsi_id":"centralcooperativebank-126296"},"coordinates":[43.208593,27.918709]},"dist":4.69,"tags_mismatch":true},{"osm":{"type":"node","id":1238094350,"tags":{"amenity":"bank","atm":"yes","brand":"Централна Кооперативна Банка","brand:wikidata":"Q2944755","short_name:bg":"ЦКБ","short_name:en":"CCBank"},"wikidata":"Q2944755","coordinates":[43.2052325,27.906915]},"atp":{"id":"M3in27lvrF5Ax9Bwx_8Tmv3IPVo=","tags":{"ref":"1611284","amenity":"bank","@source_uri":"https://www.ccbank.bg/bg/branches_network/offices","@spider":"ccbank_bg","short_name:bg":"ЦКБ","short_name:en":"CCBank","addr:street_address":"бул.\"Съборни\" 58А","addr:city":"Варна","addr:country":"BG","phone":"+359 52 660 051;+359 88 265 3302","opening_hours":"Mo-Fr 08:30-20:00; Sa-Su 10:00-17:00","brand":"Централна Кооперативна Банка","brand:wikidata":"Q2944755","nsi_id":"centralcooperativebank-126296"},"coordinates":[43.2052472,27.9071444]},"dist":18.665,"tags_mismatch":true},{"osm":{"type":"node","id":1241065496,"tags":{"amenity":"bank","atm":"yes","brand":"Централна Кооперативна Банка","brand:wikidata":"Q2944755","short_name:bg":"ЦКБ","short_name:en":"CCBank"},"wikidata":"Q2944755","coordinates":[43.4268492,23.7544315]},"atp":{"id":"Qe7FG1oM3bi4Is0SaDtAM54DrZE=","tags":{"ref":"1611318","amenity":"bank","@source_uri":"https://www.ccbank.bg/bg/branches_network/offices","@spider":"ccbank_bg","short_name:bg":"ЦКБ","short_name:en":"CCBank","addr:street_address":"ул.\"Славко Ценов 5","addr:city":"Борован","addr:country":"BG","phone":"+359 91 472 080;+359 88 465 4631","opening_hours":"Mo-Fr 08:30-12:00,13:00-17:00","brand":"Централна Кооперативна Банка","brand:wikidata":"Q2944755","nsi_id":"centralcooperativebank-126296"},"coordinates":[43.426868,23.754845]},"dist":33.458,"tags_mismatch":true},{"osm":{"type":"node","id":1253852795,"tags":{"addr:city":"Ямбол","addr:country":"BG","addr:housenumber":"7","addr:postcode":"8600","addr:street":"пл. Освобождение","amenity":"bank","atm":"yes","brand":"Централна Кооперативна Банка","brand:wikidata":"Q2944755","short_name:bg":"ЦКБ","short_name:en":"CCBank"},"wikidata":"Q2944755","coordinates":[42.4836907,26.5049585]},"atp":{"id":"zXK30GCezEN5THKGL_2IfbIToNc=","tags":{"ref":"1611524","amenity":"bank","@source_uri":"https://www.ccbank.bg/bg/branches_network/offices","@spider":"ccbank_bg","short_name:bg":"ЦКБ","short_name:en":"CCBank","addr:street_address":"пл.\"Освобождение\" 7","addr:city":"Ямбол","addr:country":"BG","phone":"+359 46 662 045;+359 88 261 8357","opening_hours":"Mo-Fr 08:30-17:00","brand":"Централна Кооперативна Банка","brand:wikidata":"Q2944755","nsi_id":"centralcooperativebank-126296"},"coordinates":[42.483807,26.504881]},"dist":14.409,"tags_mismatch":true},{"osm":{"type":"node","id":1347588628,"tags":{"amenity":"bank","brand":"Централна Кооперативна Банка","brand:wikidata":"Q2944755","description":"Офис Верея","phone":"+359 42 220 110","short_name:bg":"ЦКБ","short_name:en":"CCBank","wheelchair":"yes"},"wikidata":"Q2944755","coordinates":[42.4228887,25.6270456]},"atp":{"id":"laOJfxZYmrblFtu-QjxVl8W_bIQ=","tags":{"ref":"1611481","amenity":"bank","@source_uri":"https://www.ccbank.bg/bg/branches_network/offices","@spider":"ccbank_bg","short_name:bg":"ЦКБ","short_name:en":"CCBank","addr:street_address":"ул.\"Генерал Гурко\" 58","addr:city":"Стара Загора","addr:country":"BG","phone":"+359 42 220 110;+359 88 465 0237","opening_hours":"Mo-Fr 08:30-17:00","brand":"Централна Кооперативна Банка","brand:wikidata":"Q2944755","nsi_id":"centralcooperativebank-126296"},"coordinates":[42.422745,25.627253]},"dist":23.348,"tags_mismatch":true},{"osm":{"type":"node","id":1350379857,"tags":{"amenity":"bank","atm":"yes","brand":"Централна Кооперативна Банка","brand:wikidata":"Q2944755","short_name:bg":"ЦКБ","short_name:en":"CCBank"},"wikidata":"Q2944755","coordinates":[42.1468793,24.7620529]},"atp":{"id":"klRSTEPyYqU5zSfPwvrekgc03Hw=","tags":{"ref":"1611416","amenity":"bank","@source_uri":"https://www.ccbank.bg/bg/branches_network/offices","@spider":"ccbank_bg","short_name:bg":"ЦКБ","short_name:en":"CCBank","addr:street_address":"бул.\"Мария Луиза\" 55","addr:city":"Пловдив","addr:country":"BG","phone":"+359 32 623 425;+359 88 269 4021","opening_hours":"Mo-Fr 08:30-13:00,14:00-17:00","brand":"Централна Кооперативна Банка","brand:wikidata":"Q2944755","nsi_id":"centralcooperativebank-126296"},"coordinates":[42.146828,24.761778]},"dist":23.37,"tags_mismatch":true},{"osm":{"type":"node","id":1389571495,"tags":{"amenity":"bank","atm":"yes","brand":"Централна Кооперативна Банка","brand:wikidata":"Q2944755","short_name:bg":"ЦКБ","wheelchair":"no"},"wikidata":"Q2944755","coordinates":[42.64007,24.3587514]},"atp":{"id":"pF-hJUcePkXke3kxPLDscXtiQYI=","tags":{"ref":"1611359","amenity":"bank","@source_uri":"https://www.ccbank.bg/bg/branches_network/offices","@spider":"ccbank_bg","short_name:bg":"ЦКБ","short_name:en":"CCBank","addr:street_address":"бул.Хаджи Ненчо Палавеев 49","addr:city":"Копривщица","addr:country":"BG","phone":"+359 71 842 031;+359 88 462 1511","opening_hours":"Mo-Fr 08:30-12:30,13:30-17:00","brand":"Централна Кооперативна Банка","brand:wikidata":"Q2944755","nsi_id":"centralcooperativebank-126296"},"coordinates":[42.638885,24.359907]},"dist":162.165,"tags_mismatch":true},{"osm":{"type":"node","id":1495422926,"tags":{"amenity":"bank","atm":"yes","brand":"Централна Кооперативна Банка","brand:wikidata":"Q2944755","short_name:bg":"ЦКБ","short_name:en":"CCBank","wheelchair":"yes"},"wikidata":"Q2944755","coordinates":[43.2047174,27.9187559]},"atp":{"id":"awM4J72hGKaEh_w8_zMKkFoC3JQ=","tags":{"ref":"1611295","amenity":"bank","@source_uri":"https://www.ccbank.bg/bg/branches_network/offices","@spider":"ccbank_bg","short_name:bg":"ЦКБ","short_name:en":"CCBank","addr:street_address":"ул.\"Княз Борис I\" 46","addr:city":"Варна","addr:country":"BG","phone":"+359 52 614 128;+359 88 464 5561","opening_hours":"Mo-Fr 08:30-12:30,13:30-17:30; Sa-Su 10:00-17:00","brand":"Централна Кооперативна Банка","brand:wikidata":"Q2944755","nsi_id":"centralcooperativebank-126296"},"coordinates":[43.204708,27.918793]},"dist":3.183,"tags_mismatch":true},{"osm":{"type":"node","id":2147630319,"tags":{"amenity":"bank","atm":"yes","brand":"Централна Кооперативна Банка","brand:wikidata":"Q2944755","short_name:bg":"ЦКБ","short_name:en":"CCBank"},"wikidata":"Q2944755","coordinates":[42.1498838,24.7440977]},"atp":{"id":"hrDwQTAKL8D9R3r95rnGnpmhFTw=","tags":{"ref":"1611413","amenity":"bank","@source_uri":"https://www.ccbank.bg/bg/branches_network/offices","@spider":"ccbank_bg","short_name:bg":"ЦКБ","short_name:en":"CCBank","addr:street_address":"ул.\"Бетовен\" 5","addr:city":"Пловдив","addr:country":"BG","phone":"+359 32 654 950;+359 88 464 8976","opening_hours":"Mo-Fr 08:30-17:00","brand":"Централна Кооперативна Банка","brand:wikidata":"Q2944755","nsi_id":"centralcooperativebank-126296"},"coordinates":[42.14954,24.744236]},"dist":39.893,"tags_mismatch":true},{"osm":{"type":"node","id":2268404725,"tags":{"addr:city":"Несебър","addr:housenumber":"25","addr:street":"Иван Вазов","amenity":"bank","brand":"Централна Кооперативна Банка","brand:wikidata":"Q2944755","short_name:bg":"ЦКБ","short_name:en":"CCBank"},"wikidata":"Q2944755","coordinates":[42.6590071,27.7178676]},"atp":false,"tags_mismatch":false},{"osm":{"type":"node","id":2269046144,"tags":{"addr:city":"Несебър","addr:housenumber":"23","addr:street":"Струма","amenity":"bank","brand":"Централна Кооперативна Банка","brand:wikidata":"Q2944755","email":"office@ccbank.bg","image":"http://img-fotki.yandex.ru/get/5638/90421807.25/0_9310a_bbb1e32e_XL.jpg","phone":"+359 800 11400","short_name:bg":"ЦКБ","short_name:en":"CCBank","website":"https://www.ccbank.bg/"},"wikidata":"Q2944755","coordinates":[42.663285,27.7153296]},"atp":{"id":"ZWy4Pmns_opeS-aGVJPzygpjkgc=","tags":{"ref":"1611395","amenity":"bank","@source_uri":"https://www.ccbank.bg/bg/branches_network/offices","@spider":"ccbank_bg","short_name:bg":"ЦКБ","short_name:en":"CCBank","addr:street_address":"пл.”Жулиета Шишманова” – Културен Център","addr:city":"Несебър","addr:country":"BG","phone":"+359 55 429 960;+359 88 464 6043","opening_hours":"Mo-Fr 08:30-17:00","brand":"Централна Кооперативна Банка","brand:wikidata":"Q2944755","nsi_id":"centralcooperativebank-126296"},"coordinates":[42.663301,27.718373]},"dist":248.856,"tags_mismatch":true},{"osm":{"type":"node","id":2315209998,"tags":{"amenity":"bank","atm":"yes","brand":"Централна Кооперативна Банка","brand:wikidata":"Q2944755","short_name:bg":"ЦКБ","short_name:en":"CCBank","website":"https://ccbank.bg/"},"wikidata":"Q2944755","coordinates":[43.0772329,25.6253343]},"atp":{"id":"MZJK57psgy2RTK7HJCVlYkaQgrg=","tags":{"ref":"1611308","amenity":"bank","@source_uri":"https://www.ccbank.bg/bg/branches_network/offices","@spider":"ccbank_bg","short_name:bg":"ЦКБ","short_name:en":"CCBank","addr:street_address":"ул.\"Никола Габровски\" 4","addr:city":"Велико Търново","addr:country":"BG","phone":"+359 62 621 531;+359 88 474 0725","opening_hours":"Mo-Fr 08:30-17:00","brand":"Централна Кооперативна Банка","brand:wikidata":"Q2944755","nsi_id":"centralcooperativebank-126296"},"coordinates":[43.07732,25.62546]},"dist":14.072,"tags_mismatch":true},{"osm":{"type":"node","id":2712863305,"tags":{"amenity":"bank","atm":"yes","brand":"Централна Кооперативна Банка","brand:wikidata":"Q2944755","check_date":"2025-01-28","short_name:bg":"ЦКБ","short_name:en":"CCBank"},"wikidata":"Q2944755","coordinates":[43.2108244,27.9224592]},"atp":{"id":"X7lY4wla0L7Drtrd8sTnhp1_EXs=","tags":{"ref":"1611302","amenity":"bank","@source_uri":"https://www.ccbank.bg/bg/branches_network/offices","@spider":"ccbank_bg","short_name:bg":"ЦКБ","short_name:en":"CCBank","addr:street_address":"ул.\"Генерал Паренсов\" 3","addr:city":"Варна","addr:country":"BG","phone":"+359 52 660 084;+359 88 464 2696","opening_hours":"Mo-Fr 08:30-12:30,13:30-17:30","brand":"Централна Кооперативна Банка","brand:wikidata":"Q2944755","nsi_id":"centralcooperativebank-126296"},"coordinates":[43.210823,27.922741]},"dist":22.839,"tags_mismatch":true},{"osm":{"type":"node","id":3073583033,"tags":{"amenity":"bank","atm":"separate","brand":"Централна Кооперативна Банка","brand:wikidata":"Q2944755","check_date":"2025-06-26","drive_through":"no","opening_hours":"Mo-Fr 08:30-12:00,12:30-17:00","phone":"+359 2 818 49 12","short_name":"ЦКБ","short_name:bg":"ЦКБ","short_name:en":"CCBank","website":"https://www.ccbank.bg/","wheelchair":"yes"},"wikidata":"Q2944755","coordinates":[42.6734537,23.2927749]},"atp":{"id":"qSgHNLoxj1E-bCBOgsDyKmS5jso=","tags":{"ref":"1611477","amenity":"bank","@source_uri":"https://www.ccbank.bg/bg/branches_network/offices","@spider":"ccbank_bg","short_name:bg":"ЦКБ","short_name:en":"CCBank","addr:street_address":"бул.\"Гоце Делчев\" бл.35","addr:city":"София","addr:country":"BG","phone":"+359 2 818 49 12;+359884648736","opening_hours":"Mo-Fr 08:30-12:00,12:30-17:00","brand":"Централна Кооперативна Банка","brand:wikidata":"Q2944755","nsi_id":"centralcooperativebank-126296"},"coordinates":[42.67345,23.292484]},"dist":23.786,"tags_mismatch":false},{"osm":{"type":"node","id":3144266127,"tags":{"amenity":"bank","atm":"yes","brand":"Централна Кооперативна Банка","brand:wikidata":"Q2944755","opening_hours":"Mo-Fr 08:30-12:30,13:30-17:30","short_name:bg":"ЦКБ","short_name:en":"CCBank"},"wikidata":"Q2944755","coordinates":[43.2033332,27.9153852]},"atp":{"id":"I6p_sFfeKSfZaAVWs_wEqo1FuI4=","tags":{"ref":"1611292","amenity":"bank","@source_uri":"https://www.ccbank.bg/bg/branches_network/offices","@spider":"ccbank_bg","short_name:bg":"ЦКБ","short_name:en":"CCBank","addr:street_address":"бул.\"Княз Борис I\" 13","addr:city":"Варна","addr:country":"BG","phone":"+359 52 608 146;+359 88 464 0495","opening_hours":"Mo-Fr 08:30-12:30,13:30-17:30","brand":"Централна Кооперативна Банка","brand:wikidata":"Q2944755","nsi_id":"centralcooperativebank-126296"},"coordinates":[43.203289,27.915433]},"dist":6.258,"tags_mismatch":false},{"osm":{"type":"node","id":3327150513,"tags":{"alt_name":"ЦКБ","amenity":"bank","atm":"yes","brand":"Централна Кооперативна Банка","brand:wikidata":"Q2944755","int_name":"CCB","short_name:bg":"ЦКБ","short_name:en":"CCBank"},"wikidata":"Q2944755","coordinates":[42.4923086,27.4720232]},"atp":{"id":"gwWMWc3s_fBaBqpJbenzr35zkSY=","tags":{"ref":"1611274","amenity":"bank","@source_uri":"https://www.ccbank.bg/bg/branches_network/offices","@spider":"ccbank_bg","short_name:bg":"ЦКБ","short_name:en":"CCBank","addr:street_address":"ул.\"Конт Андрованти\" 4","addr:city":"Бургас","addr:country":"BG","phone":"+359 56 874 500;+359 88 464 4278","opening_hours":"Mo-Fr 08:30-17:00","brand":"Централна Кооперативна Банка","brand:wikidata":"Q2944755","nsi_id":"centralcooperativebank-126296"},"coordinates":[42.492542,27.471849]},"dist":29.624,"tags_mismatch":true},{"osm":{"type":"node","id":3504396172,"tags":{"addr:housenumber":"7Б","addr:postcode":"1000","addr:street":"бул. Княз Александър Дондуков","amenity":"bank","brand":"Централна Кооперативна Банка","brand:wikidata":"Q2944755","contact:phone":"+359 2 930 6911","opening_hours":"Mo-Fr 08:30-17:00","short_name":"ЦКБ","short_name:bg":"ЦКБ","short_name:en":"CCBank","website":"https://www.ccbank.bg/"},"wikidata":"Q2944755","coordinates":[42.6981404,23.3266547]},"atp":{"id":"YPCvmiZ3cB9vwosKVl93y-TK2ZM=","tags":{"ref":"1611339","amenity":"bank","@source_uri":"https://www.ccbank.bg/bg/branches_network/offices","@spider":"ccbank_bg","short_name:bg":"ЦКБ","short_name:en":"CCBank","addr:street_address":"бул.\"Княз Ал.Дондуков\" 7Б","addr:city":"София","addr:country":"BG","phone":"+359 2 93 06 911;+359884641191","opening_hours":"Mo-Fr 08:30-17:00","brand":"Централна Кооперативна Банка","brand:wikidata":"Q2944755","nsi_id":"centralcooperativebank-126296"},"coordinates":[42.698141,23.327722]},"dist":87.221,"tags_mismatch":false},{"osm":{"type":"node","id":3603715666,"tags":{"amenity":"bank","atm":"yes","brand":"Централна Кооперативна Банка","brand:wikidata":"Q2944755","opening_hours":"opening_hours=Mo-Fr 08:30-12:00,13:00-17:00","short_name:bg":"ЦКБ","short_name:en":"CCBank"},"wikidata":"Q2944755","coordinates":[42.4429068,27.6388591]},"atp":{"id":"qqi4OC5dy3NT0Hi7lpGcn9r-LKM=","tags":{"ref":"1611516","amenity":"bank","@source_uri":"https://www.ccbank.bg/bg/branches_network/offices","@spider":"ccbank_bg","short_name:bg":"ЦКБ","short_name:en":"CCBank","addr:street_address":"ул.\"Свети Никола\" 15","addr:city":"Черноморец","addr:country":"BG","phone":"+359 55 044 223;+359 88 265 3007","opening_hours":"Mo-Fr 08:30-12:00,13:00-17:00","brand":"Централна Кооперативна Банка","brand:wikidata":"Q2944755","nsi_id":"centralcooperativebank-126296"},"coordinates":[42.442937,27.638715]},"dist":12.292,"tags_mismatch":true},{"osm":{"type":"node","id":3688594936,"tags":{"addr:city":"София","addr:housenumber":"33","addr:postcode":"1504","addr:street":"бул. Цар Освободител","amenity":"bank","atm":"yes","brand":"Централна Кооперативна Банка","brand:wikidata":"Q2944755","check_date:opening_hours":"2024-10-17","contact:phone":"+359 2 946 1682","opening_hours":"Mo-Fr 08:30-17:00","short_name":"ЦКБ","short_name:bg":"ЦКБ","short_name:en":"CCBank","website":"https://www.ccbank.bg/","wheelchair":"no"},"wikidata":"Q2944755","coordinates":[42.6909228,23.3375039]},"atp":{"id":"TntBuUeJX2qeRZRv-iB_EkQAo4s=","tags":{"ref":"1611382","amenity":"bank","@source_uri":"https://www.ccbank.bg/bg/branches_network/offices","@spider":"ccbank_bg","short_name:bg":"ЦКБ","short_name:en":"CCBank","addr:street_address":"бул.\"Цар Освободител\" 33","addr:city":"София","addr:country":"BG","phone":"+359 2 946 16 82;+359885601562","opening_hours":"Mo-Fr 08:30-12:00,12:30-17:00","brand":"Централна Кооперативна Банка","brand:wikidata":"Q2944755","nsi_id":"centralcooperativebank-126296"},"coordinates":[42.690937,23.33729]},"dist":17.553,"tags_mismatch":true},{"osm":{"type":"node","id":3774198503,"tags":{"amenity":"bank","atm":"yes","brand":"Централна Кооперативна Банка","brand:wikidata":"Q2944755","opening_hours":"Mo-Fr 08:30-17:00","short_name":"ЦКБ","short_name:bg":"ЦКБ","short_name:en":"CCBank","website":"https://www.ccbank.bg/"},"wikidata":"Q2944755","coordinates":[42.7118557,23.3005848]},"atp":false,"tags_mismatch":false},{"osm":{"type":"node","id":3835378973,"tags":{"amenity":"bank","brand":"Централна Кооперативна Банка","brand:wikidata":"Q2944755","name:it":"CC","short_name:bg":"ЦКБ","short_name:en":"CCBank"},"wikidata":"Q2944755","coordinates":[43.2071032,27.910392]},"atp":{"id":"QNkv81qJ1o2i5JWlTcYVh8Xfloo=","tags":{"ref":"1611300","amenity":"bank","@source_uri":"https://www.ccbank.bg/bg/branches_network/offices","@spider":"ccbank_bg","short_name:bg":"ЦКБ","short_name:en":"CCBank","addr:street_address":"бул.\"Владислав Варненчик\" 18","addr:city":"Варна","addr:country":"BG","phone":"+359 52 604 517;+359 88 463 9755","opening_hours":"Mo-Fr 08:30-12:30,13:30-17:30","brand":"Централна Кооперативна Банка","brand:wikidata":"Q2944755","nsi_id":"centralcooperativebank-126296"},"coordinates":[43.206846,27.910616]},"dist":33.875,"tags_mismatch":true},{"osm":{"type":"node","id":4004620054,"tags":{"amenity":"bank","atm":"yes","brand":"Централна Кооперативна Банка","brand:wikidata":"Q2944755","opening_hours":"08:30-17:00","short_name:bg":"ЦКБ","short_name:en":"CCBank"},"wikidata":"Q2944755","coordinates":[42.0090871,24.8764743]},"atp":{"id":"3UXg8qqUcYcOVP-hf8LLX5Q0wbE=","tags":{"ref":"1611259","amenity":"bank","@source_uri":"https://www.ccbank.bg/bg/branches_network/offices","@spider":"ccbank_bg","short_name:bg":"ЦКБ","short_name:en":"CCBank","addr:street_address":"ул.\"Речна\" 8","addr:city":"Асеновград","addr:country":"BG","phone":"+359 33 120 618;+359 88 292 6115","opening_hours":"Mo-Fr 08:30-17:00","brand":"Централна Кооперативна Банка","brand:wikidata":"Q2944755","nsi_id":"centralcooperativebank-126296"},"coordinates":[42.00935,24.87661]},"dist":31.309,"tags_mismatch":true},{"osm":{"type":"node","id":4007039606,"tags":{"amenity":"bank","brand":"Централна Кооперативна Банка","brand:wikidata":"Q2944755","short_name:bg":"ЦКБ","short_name:en":"CCBank"},"wikidata":"Q2944755","coordinates":[43.2369823,25.3062341]},"atp":{"id":"yAp_yqksOXfuDxrnwDiOumcB7xA=","tags":{"ref":"1611312","amenity":"bank","@source_uri":"https://www.ccbank.bg/bg/branches_network/offices","@spider":"ccbank_bg","short_name:bg":"ЦКБ","short_name:en":"CCBank","addr:street_address":"ул.\"Съединение\" 4","addr:city":"Павликени","addr:country":"BG","phone":"+359 61 417 002;+359 88 261 9891","opening_hours":"Mo-Fr 08:30-12:00,13:00-17:00","brand":"Централна Кооперативна Банка","brand:wikidata":"Q2944755","nsi_id":"centralcooperativebank-126296"},"coordinates":[43.236935,25.307137]},"dist":73.331,"tags_mismatch":true},{"osm":{"type":"node","id":4319494947,"tags":{"amenity":"bank","atm":"yes","brand":"Централна Кооперативна Банка","brand:wikidata":"Q2944755","check_date":"2025-03-19","check_date:opening_hours":"2025-03-19","opening_hours":"Mo-Fr 08:30-17:00","phone":"+359 2 953 1082","short_name":"ЦКБ","short_name:bg":"ЦКБ","short_name:en":"CCBank","website":"https://www.ccbank.bg/","wheelchair":"no"},"wikidata":"Q2944755","coordinates":[42.6797364,23.3117327]},"atp":{"id":"PrmfSOXKh3705ldZ4WxQsVL6Ndo=","tags":{"ref":"1611503","amenity":"bank","@source_uri":"https://www.ccbank.bg/bg/branches_network/offices","@spider":"ccbank_bg","short_name:bg":"ЦКБ","short_name:en":"CCBank","addr:street_address":"бул.\"Витоша\" 93","addr:city":"София","addr:country":"BG","phone":"+359 2 95 31 095;+359887104432","opening_hours":"Mo-Fr 08:30-12:00,12:30-17:00","brand":"Централна Кооперативна Банка","brand:wikidata":"Q2944755","nsi_id":"centralcooperativebank-126296"},"coordinates":[42.679619,23.311593]},"dist":17.344,"tags_mismatch":true},{"osm":{"type":"node","id":4330823611,"tags":{"addr:city":"София","addr:housenumber":"13","addr:postcode":"1618","addr:street":"бул. Александър С. Пушкин","amenity":"bank","atm":"yes","brand":"Централна Кооперативна Банка","brand:wikidata":"Q2944755","check_date":"2024-04-22","opening_hours":"Mo-Fr 08:30-17:00","payment:cash":"yes","payment:credit_cards":"yes","payment:debit_cards":"yes","phone":"+359 2 955 5286","short_name":"ЦКБ","short_name:bg":"ЦКБ","short_name:en":"CCBank","website":"https://www.ccbank.bg/","wheelchair":"no"},"wikidata":"Q2944755","coordinates":[42.6648591,23.2661618]},"atp":false,"tags_mismatch":false},{"osm":{"type":"node","id":4337611769,"tags":{"amenity":"bank","atm":"yes","brand":"Централна Кооперативна Банка","brand:wikidata":"Q2944755","check_date:opening_hours":"2025-05-28","opening_hours":"Mo-Fr 09:00-17:00","short_name":"ЦКБ","short_name:bg":"ЦКБ","short_name:en":"CCBank","website":"https://www.ccbank.bg/"},"wikidata":"Q2944755","coordinates":[42.69606,23.3141354]},"atp":{"id":"cc5lAtuof8PDNWapCsIDFvsdhZo=","tags":{"ref":"1611324","amenity":"bank","@source_uri":"https://www.ccbank.bg/bg/branches_network/offices","@spider":"ccbank_bg","short_name:bg":"ЦКБ","short_name:en":"CCBank","addr:street_address":"бул.\"Христо Ботев\" 55","addr:city":"София","addr:country":"BG","phone":"+359 2 812 87 54;+359884623576","opening_hours":"Mo-Fr 08:30-12:00,12:30-17:00","brand":"Централна Кооперативна Банка","brand:wikidata":"Q2944755","nsi_id":"centralcooperativebank-126296"},"coordinates":[42.696029,23.314104]},"dist":4.297,"tags_mismatch":true},{"osm":{"type":"node","id":4349069690,"tags":{"addr:city":"София","addr:housenumber":"20","addr:postcode":"1113","addr:street":"Фредерик Жолио Кюри","amenity":"bank","brand":"Централна Кооперативна Банка","brand:wikidata":"Q2944755","check_date:opening_hours":"2024-08-13","opening_hours":"Mo-Fr 08:30-17:00","short_name":"ЦКБ","short_name:bg":"ЦКБ","short_name:en":"CCBank","website":"https://www.ccbank.bg/"},"wikidata":"Q2944755","coordinates":[42.6709643,23.3502459]},"atp":{"id":"3r7Rrca5n1XDevKvUmFJTRdZxZs=","tags":{"ref":"1611347","amenity":"bank","@source_uri":"https://www.ccbank.bg/bg/branches_network/offices","@spider":"ccbank_bg","short_name:bg":"ЦКБ","short_name:en":"CCBank","addr:street_address":"ул.\"Фр.Жулио Кюри\" 20","addr:city":"София","addr:country":"BG","phone":"+359 2 405 1574;+359888131701","opening_hours":"Mo-Fr 08:30-12:00,12:30-17:00","brand":"Централна Кооперативна Банка","brand:wikidata":"Q2944755","nsi_id":"centralcooperativebank-126296"},"coordinates":[42.670862,23.350283]},"dist":11.773,"tags_mismatch":true},{"osm":{"type":"node","id":4368693489,"tags":{"amenity":"bank","brand":"Централна Кооперативна Банка","brand:wikidata":"Q2944755","opening_hours":"Mo-Su 09:00-17:00","short_name:bg":"ЦКБ","short_name:en":"CCBank"},"wikidata":"Q2944755","coordinates":[42.1715865,27.8536546]},"atp":{"id":"9NOAbM3C0zS0boY5L1h9FBun1Ps=","tags":{"ref":"1611513","amenity":"bank","@source_uri":"https://www.ccbank.bg/bg/branches_network/offices","@spider":"ccbank_bg","short_name:bg":"ЦКБ","short_name:en":"CCBank","addr:street_address":"ул.\"Хан Аспарух\" 24","addr:city":"Царево","addr:country":"BG","phone":"+359 59 053 958;+359 88 461 9234","opening_hours":"Mo-Fr 08:30-12:30,13:30-17:00","brand":"Централна Кооперативна Банка","brand:wikidata":"Q2944755","nsi_id":"centralcooperativebank-126296"},"coordinates":[42.171653,27.85379]},"dist":13.386,"tags_mismatch":true},{"osm":{"type":"node","id":4381408786,"tags":{"amenity":"bank","atm":"yes","brand":"Централна Кооперативна Банка","brand:wikidata":"Q2944755","opening_hours":"Mo-Fr 08:30-12:00,12:30-17:00","short_name":"ЦКБ","short_name:bg":"ЦКБ","short_name:en":"CCBank","website":"https://www.ccbank.bg/"},"wikidata":"Q2944755","coordinates":[42.6533534,23.3732203]},"atp":{"id":"uaOo8PjKK0PVE6e3pLfEw7ApnTY=","tags":{"ref":"1611385","amenity":"bank","@source_uri":"https://www.ccbank.bg/bg/branches_network/offices","@spider":"ccbank_bg","short_name:bg":"ЦКБ","short_name:en":"CCBank","addr:street_address":"бул.\"Андрей Сахаров\" 14","addr:city":"София","addr:country":"BG","phone":"+359 2 974 4606;+359884699368","opening_hours":"Mo-Fr 08:30-12:00,12:30-17:00","brand":"Централна Кооперативна Банка","brand:wikidata":"Q2944755","nsi_id":"centralcooperativebank-126296"},"coordinates":[42.653344,23.373267]},"dist":3.96,"tags_mismatch":false},{"osm":{"type":"node","id":4394408489,"tags":{"addr:housenumber":"8","addr:street":"бул. Свети Климент Охридски","amenity":"bank","brand":"Централна Кооперативна Банка","brand:wikidata":"Q2944755","opening_hours":"Mo-Fr 08:30-17:00","short_name":"ЦКБ","short_name:bg":"ЦКБ","short_name:en":"CCBank","website":"https://www.ccbank.bg/"},"wikidata":"Q2944755","coordinates":[42.6566176,23.3588014]},"atp":{"id":"JDeWmuecoGgWdaAC-x6DrWoTIS8=","tags":{"ref":"1611346","amenity":"bank","@source_uri":"https://www.ccbank.bg/bg/branches_network/offices","@spider":"ccbank_bg","short_name:bg":"ЦКБ","short_name:en":"CCBank","addr:street_address":"бул.\"Св.Климент Охридски\" 8","addr:city":"София","addr:country":"BG","phone":"+359 2 816 7960;+359888107813","opening_hours":"Mo-Fr 08:30-12:00,12:30-17:00","brand":"Централна Кооперативна Банка","brand:wikidata":"Q2944755","nsi_id":"centralcooperativebank-126296"},"coordinates":[42.656713,23.35906]},"dist":23.659,"tags_mismatch":true},{"osm":{"type":"node","id":4441592492,"tags":{"addr:city":"Доспат","amenity":"bank","brand":"Централна Кооперативна Банка","brand:wikidata":"Q2944755","short_name:bg":"ЦКБ","short_name:en":"CCBank"},"wikidata":"Q2944755","coordinates":[41.6440688,24.1598327]},"atp":false,"tags_mismatch":false},{"osm":{"type":"node","id":4498546869,"tags":{"amenity":"bank","brand":"Централна Кооперативна Банка","brand:wikidata":"Q2944755","short_name":"ЦКБ","short_name:bg":"ЦКБ","short_name:en":"CCBank","website":"https://www.ccbank.bg/"},"wikidata":"Q2944755","coordinates":[42.7070124,23.3503963]},"atp":{"id":"XQ_ieikhN_kf7F7DyUrB8vZDlg8=","tags":{"ref":"1611383","amenity":"bank","@source_uri":"https://www.ccbank.bg/bg/branches_network/offices","@spider":"ccbank_bg","short_name:bg":"ЦКБ","short_name:en":"CCBank","addr:street_address":"ул.\"Макгахан\" 51","addr:city":"София","addr:country":"BG","phone":"+359 2 814 48 56;+359886113326","opening_hours":"Mo-Fr 08:30-17:00","brand":"Централна Кооперативна Банка","brand:wikidata":"Q2944755","nsi_id":"centralcooperativebank-126296"},"coordinates":[42.707062,23.35026]},"dist":12.428,"tags_mismatch":true},{"osm":{"type":"node","id":4511286830,"tags":{"addr:housenumber":"2","addr:postcode":"1000","addr:street":"Стефан Караджа","amenity":"bank","branch":"София Стефан Караджа","brand":"Централна Кооперативна Банка","brand:wikidata":"Q2944755","check_date":"2025-06-11","contact:phone":"+359 2 932 1911","opening_hours":"Mo-Fr 08:30-19:00","short_name":"ЦКБ","short_name:bg":"ЦКБ","short_name:en":"CCBank","website":"https://www.ccbank.bg/"},"wikidata":"Q2944755","coordinates":[42.6938566,23.3232287]},"atp":{"id":"sKLkfxtCSoNv8CLl7Zh--hwTa1A=","tags":{"ref":"1611510","amenity":"bank","@source_uri":"https://www.ccbank.bg/bg/branches_network/offices","@spider":"ccbank_bg","short_name:bg":"ЦКБ","short_name:en":"CCBank","addr:street_address":"ул.\"Стефан Караджа\" 2","addr:city":"София","addr:country":"BG","phone":"+359 2 932 1911;+35988512507","opening_hours":"Mo-Fr 08:30-12:30,13:00-17:00","brand":"Централна Кооперативна Банка","brand:wikidata":"Q2944755","nsi_id":"centralcooperativebank-126296"},"coordinates":[42.693988,23.323291]},"dist":15.473,"tags_mismatch":true},{"osm":{"type":"node","id":4512833487,"tags":{"addr:city":"София","addr:housenumber":"2","addr:postcode":"1000","addr:street":"Иван Вазов","amenity":"bank","atm":"yes","branch":"София Иван Вазов","brand":"Централна Кооперативна Банка","brand:wikidata":"Q2944755","contact:phone":"+359 2 935 9021","opening_hours":"Mo-Fr 08:30-17:00","short_name":"ЦКБ","short_name:bg":"ЦКБ","short_name:en":"CCBank","website":"https://www.ccbank.bg/"},"wikidata":"Q2944755","coordinates":[42.6938692,23.3260123]},"atp":{"id":"_p39vV1eGAuBVOki9KY6aTF2kKA=","tags":{"ref":"1611345","amenity":"bank","@source_uri":"https://www.ccbank.bg/bg/branches_network/offices","@spider":"ccbank_bg","short_name:bg":"ЦКБ","short_name:en":"CCBank","addr:street_address":"ул.\"Иван Вазов 2\"","addr:city":"София","addr:country":"BG","phone":"+359 2 93 59 021;+359884159802","opening_hours":"Mo-Fr 08:30-17:00","brand":"Централна Кооперативна Банка","brand:wikidata":"Q2944755","nsi_id":"centralcooperativebank-126296"},"coordinates":[42.69384,23.326292]},"dist":23.088,"tags_mismatch":false},{"osm":{"type":"node","id":4530898327,"tags":{"addr:city":"София","addr:housenumber":"9-11","addr:postcode":"1000","addr:street":"Хаджи Димитър","amenity":"bank","brand":"Централна Кооперативна Банка","brand:wikidata":"Q2944755","check_date:opening_hours":"2024-09-16","contact:phone":"+359 2 980 2939","opening_hours":"Mo-Fr 08:30-17:00","short_name":"ЦКБ","short_name:bg":"ЦКБ","short_name:en":"CCBank","website":"https://www.ccbank.bg/"},"wikidata":"Q2944755","coordinates":[42.6922236,23.3322624]},"atp":{"id":"RhVYvcmpCgCQO_MJW2Q8zo50W9c=","tags":{"ref":"1611465","amenity":"bank","@source_uri":"https://www.ccbank.bg/bg/branches_network/offices","@spider":"ccbank_bg","short_name:bg":"ЦКБ","short_name:en":"CCBank","addr:street_address":"ул.\"Хаджи Димитър\" 9-11","addr:city":"София","addr:country":"BG","phone":"+359 2 935 9039;+35988414816","opening_hours":"Mo-Fr 08:30-17:00","brand":"Централна Кооперативна Банка","brand:wikidata":"Q2944755","nsi_id":"centralcooperativebank-126296"},"coordinates":[42.69231,23.332214]},"dist":10.39,"tags_mismatch":false},{"osm":{"type":"node","id":4557813529,"tags":{"addr:city":"София","addr:country":"BG","addr:housenumber":"20","addr:street":"бул. Патриарх Евтимий","amenity":"bank","atm":"yes","brand":"Централна Кооперативна Банка","brand:wikidata":"Q2944755","contact:phone":"+359 2 980 8608","opening_hours":"Mo-Fr 08:30-17:00","short_name":"ЦКБ","short_name:bg":"ЦКБ","short_name:en":"CCBank","website":"https://www.ccbank.bg/","wheelchair":"limited"},"wikidata":"Q2944755","coordinates":[42.6885296,23.3256709]},"atp":{"id":"WStXWTcbjCESD1YtXkRvEqvsYXA=","tags":{"ref":"1611502","amenity":"bank","@source_uri":"https://www.ccbank.bg/bg/branches_network/offices","@spider":"ccbank_bg","short_name:bg":"ЦКБ","short_name:en":"CCBank","addr:street_address":"бул.\"Патриарх Евтимий\" 20","addr:city":"София","addr:country":"BG","phone":"+359 2 98 08 608;+359884164726","opening_hours":"Mo-Fr 08:30-12:00,12:30-17:00","brand":"Централна Кооперативна Банка","brand:wikidata":"Q2944755","nsi_id":"centralcooperativebank-126296"},"coordinates":[42.68842,23.325647]},"dist":12.343,"tags_mismatch":true},{"osm":{"type":"node","id":4601412186,"tags":{"addr:city":"София","addr:housenumber":"87","addr:postcode":"1113","addr:street":"бул. Цариградско шосе","amenity":"bank","branch":"Централно управление","brand":"Централна Кооперативна Банка","brand:wikidata":"Q2944755","opening_hours":"Mo-Fr 08:30-17:00","short_name":"ЦКБ","short_name:bg":"ЦКБ","short_name:en":"CCBank","website":"https://www.ccbank.bg/","wheelchair":"yes"},"wikidata":"Q2944755","coordinates":[42.6754145,23.3597722]},"atp":{"id":"CmD3exWujYXI86fCfbm20zzcBnY=","tags":{"ref":"1611511","amenity":"bank","@source_uri":"https://www.ccbank.bg/bg/branches_network/offices","@spider":"ccbank_bg","short_name:bg":"ЦКБ","short_name:en":"CCBank","addr:street_address":"бул.\"Цариградско шосе\" 87","addr:city":"София","addr:country":"BG","phone":"+359 2 92 34 754;+359882148027","opening_hours":"Mo-Fr 08:30-17:00","brand":"Централна Кооперативна Банка","brand:wikidata":"Q2944755","nsi_id":"centralcooperativebank-126296"},"coordinates":[42.6753551,23.3596777]},"dist":10.164,"tags_mismatch":false},{"osm":{"type":"node","id":4856644822,"tags":{"amenity":"bank","brand":"Централна Кооперативна Банка","brand:wikidata":"Q2944755","opening_hours":"Mo-Fr 08:30-19:00; Sa 10:00-17:00","short_name:bg":"ЦКБ","short_name:en":"CCBank"},"wikidata":"Q2944755","coordinates":[43.2135044,27.9046519]},"atp":{"id":"YgI0WZKHo15qEYtVuh9BfjGSgz8=","tags":{"ref":"1611285","amenity":"bank","@source_uri":"https://www.ccbank.bg/bg/branches_network/offices","@spider":"ccbank_bg","short_name:bg":"ЦКБ","short_name:en":"CCBank","addr:street_address":"ул.\"Яне Сандански\" 1","addr:city":"Варна","addr:country":"BG","phone":"+359 52 608 502;+359 88 464 1282","opening_hours":"Mo-Fr 08:30-12:30,13:30-17:30; Sa 10:00-17:00","brand":"Централна Кооперативна Банка","brand:wikidata":"Q2944755","nsi_id":"centralcooperativebank-126296"},"coordinates":[43.213481,27.904661]},"dist":2.704,"tags_mismatch":true},{"osm":{"type":"node","id":5020777238,"tags":{"amenity":"bank","branch":"АД","brand":"Централна Кооперативна Банка","brand:wikidata":"Q2944755","short_name:bg":"ЦКБ","short_name:en":"CCBank"},"wikidata":"Q2944755","coordinates":[42.6184189,25.3899827]},"atp":{"id":"-rGU9F5JDxr5o_zwqzohq5DqaCc=","tags":{"ref":"1611353","amenity":"bank","@source_uri":"https://www.ccbank.bg/bg/branches_network/offices","@spider":"ccbank_bg","short_name:bg":"ЦКБ","short_name:en":"CCBank","addr:street_address":"ул.\"23-ти Пехотен Шипченски полк\" 3","addr:city":"Казанлък","addr:country":"BG","phone":"+359 431 682 47;+359 88 294 5551","opening_hours":"Mo-Fr 08:30-12:00,13:00-17:15","brand":"Централна Кооперативна Банка","brand:wikidata":"Q2944755","nsi_id":"centralcooperativebank-126296"},"coordinates":[42.618504,25.390713]},"dist":60.502,"tags_mismatch":true},{"osm":{"type":"node","id":5023020469,"tags":{"amenity":"bank","brand":"Централна Кооперативна Банка","brand:wikidata":"Q2944755","short_name:bg":"ЦКБ","short_name:en":"CCBank"},"wikidata":"Q2944755","coordinates":[42.6193425,25.3918366]},"atp":{"id":"NoxWQjq4G-z0adrjWVs3z7Mksp4=","tags":{"ref":"1611351","amenity":"bank","@source_uri":"https://www.ccbank.bg/bg/branches_network/offices","@spider":"ccbank_bg","short_name:bg":"ЦКБ","short_name:en":"CCBank","addr:street_address":"ул.\"Рила\" 8","addr:city":"Казанлък","addr:country":"BG","phone":"+359 431 682 46;+359 88 811 3267","opening_hours":"Mo-Fr 08:30-17:15","brand":"Централна Кооперативна Банка","brand:wikidata":"Q2944755","nsi_id":"centralcooperativebank-126296"},"coordinates":[42.619064,25.391958]},"dist":32.522,"tags_mismatch":true},{"osm":{"type":"node","id":5228193723,"tags":{"amenity":"bank","brand":"Централна Кооперативна Банка","brand:wikidata":"Q2944755","short_name:bg":"ЦКБ","short_name:en":"CCBank"},"wikidata":"Q2944755","coordinates":[43.2193949,27.9374565]},"atp":{"id":"S1zJ4vBQCFJh8XjhaidFZCywlak=","tags":{"ref":"1611303","amenity":"bank","@source_uri":"https://www.ccbank.bg/bg/branches_network/offices","@spider":"ccbank_bg","short_name:bg":"ЦКБ","short_name:en":"CCBank","addr:street_address":"ж.к.\"Чайка\" бл.28","addr:city":"Варна","addr:country":"BG","phone":"+359 52 300 081;+359 88 463 8215","opening_hours":"Mo-Fr 08:30-12:30,13:30-17:30","brand":"Централна Кооперативна Банка","brand:wikidata":"Q2944755","nsi_id":"centralcooperativebank-126296"},"coordinates":[43.219279,27.937288]},"dist":18.775,"tags_mismatch":true},{"osm":{"type":"node","id":5531173621,"tags":{"addr:city":"София","addr:country":"BG","addr:housenumber":"77","addr:postcode":"1606","addr:street":"бул. Ген. Скобелев","amenity":"bank","atm":"yes","branch":"Възраждане Офис Р.Паметник","brand":"Централна Кооперативна Банка","brand:wikidata":"Q2944755","check_date":"2025-06-15","opening_hours":"Mo-Fr 08:30-12:00,12:30-19:00","phone":"+359 2 951 6531","short_name":"ЦКБ","short_name:bg":"ЦКБ","short_name:en":"CCBank","website":"https://www.ccbank.bg/","wheelchair":"yes"},"wikidata":"Q2944755","coordinates":[42.6917081,23.3108498]},"atp":{"id":"3lsJ_B2TU2oHNW3SZJTi5FoH7vM=","tags":{"ref":"1611325","amenity":"bank","@source_uri":"https://www.ccbank.bg/bg/branches_network/offices","@spider":"ccbank_bg","short_name:bg":"ЦКБ","short_name:en":"CCBank","addr:street_address":"бул.\"Ген.Михаил Д.Скобелев\" 77","addr:city":"София","addr:country":"BG","phone":"+359 2 951 65 31;+359884652209","opening_hours":"Mo-Fr 08:30-12:00,12:30-17:00","brand":"Централна Кооперативна Банка","brand:wikidata":"Q2944755","nsi_id":"centralcooperativebank-126296"},"coordinates":[42.691849,23.310834]},"dist":15.72,"tags_mismatch":true},{"osm":{"type":"node","id":5634656876,"tags":{"amenity":"bank","brand":"Централна Кооперативна Банка","brand:wikidata":"Q2944755","short_name:bg":"ЦКБ","short_name:en":"CCBank"},"wikidata":"Q2944755","coordinates":[43.8238551,27.1409821]},"atp":false,"tags_mismatch":false},{"osm":{"type":"node","id":5652144658,"tags":{"amenity":"bank","brand":"Централна Кооперативна Банка","brand:wikidata":"Q2944755","short_name:bg":"ЦКБ","short_name:en":"CCBank"},"wikidata":"Q2944755","coordinates":[43.137975,24.7182534]},"atp":{"id":"hi-gcqOuc7BZkGER1NDT2_VodNU=","tags":{"ref":"1611374","amenity":"bank","@source_uri":"https://www.ccbank.bg/bg/branches_network/offices","@spider":"ccbank_bg","short_name:bg":"ЦКБ","short_name:en":"CCBank","addr:street_address":"ул.\"Академик А.Иширков\" 10","addr:city":"Ловеч","addr:country":"BG","phone":"+359 68 600 565;+359 88 512 8427","opening_hours":"Mo-Fr 08:30-17:30","brand":"Централна Кооперативна Банка","brand:wikidata":"Q2944755","nsi_id":"centralcooperativebank-126296"},"coordinates":[43.137904,24.718201]},"dist":8.967,"tags_mismatch":true},{"osm":{"type":"node","id":5682623301,"tags":{"amenity":"bank","atm":"yes","brand":"Централна Кооперативна Банка","brand:wikidata":"Q2944755","short_name:bg":"ЦКБ","short_name:en":"CCBank"},"wikidata":"Q2944755","coordinates":[43.2034792,27.9057871]},"atp":{"id":"G607hMc-hIDW1kqDCqLl9AC9NN0=","tags":{"ref":"1611301","amenity":"bank","@source_uri":"https://www.ccbank.bg/bg/branches_network/offices","@spider":"ccbank_bg","short_name:bg":"ЦКБ","short_name:en":"CCBank","addr:street_address":"ул.\"Русе\" 59","addr:city":"Варна","addr:country":"BG","phone":"+359 52 604 445;+359 88 463 8942","opening_hours":"Mo-Fr 08:30-12:30,13:30-17:30","brand":"Централна Кооперативна Банка","brand:wikidata":"Q2944755","nsi_id":"centralcooperativebank-126296"},"coordinates":[43.203463,27.905753]},"dist":3.299,"tags_mismatch":true},{"osm":{"type":"node","id":5775855807,"tags":{"addr:housenumber":"103","addr:postcode":"1000","addr:street":"Георги С. Раковски","amenity":"bank","atm":"yes","brand":"Централна Кооперативна Банка","brand:wikidata":"Q2944755","contact:phone":"+359 2 926 6107","opening_hours":"Mo-Fr 08:30-17:00","short_name":"ЦКБ","short_name:bg":"ЦКБ","short_name:en":"CCBank","website":"https://www.ccbank.bg/"},"wikidata":"Q2944755","coordinates":[42.6989141,23.3299707]},"atp":{"id":"CBBXccighExqygWUsUhJBv6BmtE=","tags":{"ref":"1611462","amenity":"bank","@source_uri":"https://www.ccbank.bg/bg/branches_network/offices","@spider":"ccbank_bg","short_name:bg":"ЦКБ","short_name:en":"CCBank","addr:street_address":"ул. Г. С. Раковски 103","addr:city":"София","addr:country":"BG","phone":"+359 2 92 66 114;+359882664869","opening_hours":"Mo-Fr 08:30-17:00","brand":"Централна Кооперативна Банка","brand:wikidata":"Q2944755","nsi_id":"centralcooperativebank-126296"},"coordinates":[42.6987646,23.3298272]},"dist":20.344,"tags_mismatch":false},{"osm":{"type":"node","id":5787094253,"tags":{"addr:city":"Борино","addr:street":"197","amenity":"bank","brand":"Централна Кооперативна Банка","brand:wikidata":"Q2944755","short_name:bg":"ЦКБ","short_name:en":"CCBank"},"wikidata":"Q2944755","coordinates":[41.6834909,24.2919403]},"atp":{"id":"iYXuDK0SHdC5UkVku1BO2z1-BZ0=","tags":{"ref":"1611461","amenity":"bank","@source_uri":"https://www.ccbank.bg/bg/branches_network/offices","@spider":"ccbank_bg","short_name:bg":"ЦКБ","short_name:en":"CCBank","addr:street_address":"ул.\"Родопи\" 58","addr:city":"Борино","addr:country":"BG","phone":"+359 30 898 700;+359 88 706 8813","opening_hours":"Mo-Fr 08:30-12:00,13:00-17:00","brand":"Централна Кооперативна Банка","brand:wikidata":"Q2944755","nsi_id":"centralcooperativebank-126296"},"coordinates":[41.6840477,24.2930311]},"dist":109.721,"tags_mismatch":true},{"osm":{"type":"node","id":5894700241,"tags":{"amenity":"bank","branch":"АД","brand":"Централна Кооперативна Банка","brand:wikidata":"Q2944755","name:ro":"Tsentralna Kooperativna Banka AD","short_name:bg":"ЦКБ","short_name:en":"CCBank"},"wikidata":"Q2944755","coordinates":[43.8281682,23.2358836]},"atp":{"id":"FTTcWAuhgi9zh_eCNUl9LxRkD6w=","tags":{"ref":"1611391","amenity":"bank","@source_uri":"https://www.ccbank.bg/bg/branches_network/offices","@spider":"ccbank_bg","short_name:bg":"ЦКБ","short_name:en":"CCBank","addr:street_address":"ул.\"Дунавска\" 18","addr:city":"Лом","addr:country":"BG","phone":"+359 97 160 219;+359 88 464 5512","opening_hours":"Mo-Fr 08:30-12:30,13:30-17:00","brand":"Централна Кооперативна Банка","brand:wikidata":"Q2944755","nsi_id":"centralcooperativebank-126296"},"coordinates":[43.828396,23.23527]},"dist":55.357,"tags_mismatch":true},{"osm":{"type":"node","id":6235734655,"tags":{"amenity":"bank","brand":"Централна Кооперативна Банка","brand:wikidata":"Q2944755","short_name:bg":"ЦКБ","short_name:en":"CCBank"},"wikidata":"Q2944755","coordinates":[42.6501545,26.9846429]},"atp":{"id":"Hb0bmLnsgvUg7h08r031vTjGJK8=","tags":{"ref":"1611275","amenity":"bank","@source_uri":"https://www.ccbank.bg/bg/branches_network/offices","@spider":"ccbank_bg","short_name:bg":"ЦКБ","short_name:en":"CCBank","addr:street_address":"ул.\"Патриарх Евтимий\" 2","addr:city":"Карнобат","addr:country":"BG","phone":"+359 55 924 836;+359 88 260 8555","opening_hours":"Mo-Fr 08:30-12:30,13:30-17:00","brand":"Централна Кооперативна Банка","brand:wikidata":"Q2944755","nsi_id":"centralcooperativebank-126296"},"coordinates":[42.650311,26.981327]},"dist":271.746,"tags_mismatch":true},{"osm":{"type":"node","id":6310988377,"tags":{"amenity":"bank","brand":"Централна Кооперативна Банка","brand:wikidata":"Q2944755","opening_hours":"Mo-Fr 08:30-17:00","short_name:bg":"ЦКБ","short_name:en":"CCBank"},"wikidata":"Q2944755","coordinates":[42.9074636,23.7938589]},"atp":{"id":"Qk0yAZUH8ZIxgr5TC5ACrXWa4A0=","tags":{"ref":"1611350","amenity":"bank","@source_uri":"https://www.ccbank.bg/bg/branches_network/offices","@spider":"ccbank_bg","short_name:bg":"ЦКБ","short_name:en":"CCBank","addr:street_address":"площад \"Саранск\" 5","addr:city":"Ботевград","addr:country":"BG","phone":"+359 72 366 914;+359 88 813 7701","opening_hours":"Mo-Fr 08:30-17:00","brand":"Централна Кооперативна Банка","brand:wikidata":"Q2944755","nsi_id":"centralcooperativebank-126296"},"coordinates":[42.907406,23.791666]},"dist":178.716,"tags_mismatch":false},{"osm":{"type":"node","id":6357572977,"tags":{"amenity":"bank","brand":"Централна Кооперативна Банка","brand:wikidata":"Q2944755","check_date":"2024-11-01","opening_hours":"Mo-Fr 08:30-17:00","short_name":"ЦКБ","short_name:bg":"ЦКБ","short_name:en":"CCBank","website":"https://www.ccbank.bg/"},"wikidata":"Q2944755","coordinates":[42.6891967,23.307886]},"atp":{"id":"ABPaQ9L5q2L_Nda-JUVaIGo76yM=","tags":{"ref":"1611506","amenity":"bank","@source_uri":"https://www.ccbank.bg/bg/branches_network/offices","@spider":"ccbank_bg","short_name:bg":"ЦКБ","short_name:en":"CCBank","addr:street_address":"бул.\"Пенчо Славейков\" 5","addr:city":"София","addr:country":"BG","phone":"+359 2 953 3852;+359884651124","opening_hours":"Mo-Fr 08:30-12:00,12:30-17:00","brand":"Централна Кооперативна Банка","brand:wikidata":"Q2944755","nsi_id":"centralcooperativebank-126296"},"coordinates":[42.689106,23.307855]},"dist":10.399,"tags_mismatch":true},{"osm":{"type":"node","id":6473932027,"tags":{"addr:housenumber":"18","addr:street":"Гургулят","amenity":"bank","atm":"yes","branch":"Централен","brand":"Централна Кооперативна Банка","brand:wikidata":"Q2944755","opening_hours":"Mo-Fr 08:30-17:00","phone":"+359 2 926 3054","short_name":"ЦКБ","short_name:bg":"ЦКБ","short_name:en":"CCBank","website":"https://www.ccbank.bg/","wheelchair":"yes"},"wikidata":"Q2944755","coordinates":[42.687818,23.3218342]},"atp":{"id":"54NDyTagCRrQ9PaHNrjv2nJBMN4=","tags":{"ref":"1611501","amenity":"bank","@source_uri":"https://www.ccbank.bg/bg/branches_network/offices","@spider":"ccbank_bg","short_name:bg":"ЦКБ","short_name:en":"CCBank","addr:street_address":"ул.\"Гургулят\" 18","addr:city":"София","addr:country":"BG","phone":"+359 2 92 63 054;+359885113983","opening_hours":"Mo-Fr 08:30-12:30,13:00-17:00","brand":"Централна Кооперативна Банка","brand:wikidata":"Q2944755","nsi_id":"centralcooperativebank-126296"},"coordinates":[42.687934,23.321628]},"dist":21.223,"tags_mismatch":true},{"osm":{"type":"node","id":6499305036,"tags":{"addr:housenumber":"57","addr:street":"бул. Евлоги и Христо Георгиеви","amenity":"bank","atm":"yes","brand":"Централна Кооперативна Банка","brand:wikidata":"Q2944755","check_date":"2025-02-01","contact:phone":"+359 2 988 5025","opening_hours":"Mo-Fr 08:30-17:00","short_name":"ЦКБ","short_name:bg":"ЦКБ","short_name:en":"CCBank","website":"https://www.ccbank.bg/"},"wikidata":"Q2944755","coordinates":[42.6859618,23.3284459]},"atp":{"id":"_Nv-UPgsBPrt8d4_g4TwnwKlmLI=","tags":{"ref":"1611505","amenity":"bank","@source_uri":"https://www.ccbank.bg/bg/branches_network/offices","@spider":"ccbank_bg","short_name:bg":"ЦКБ","short_name:en":"CCBank","addr:street_address":"бул.\"Евлоги и Христо Георгиеви\" 57-59","addr:city":"София","addr:country":"BG","phone":"+359 2 98 85 025;+359884650585","opening_hours":"Mo-Fr 08:30-12:00,12:30-17:00","brand":"Централна Кооперативна Банка","brand:wikidata":"Q2944755","nsi_id":"centralcooperativebank-126296"},"coordinates":[42.68593,23.328522]},"dist":7.155,"tags_mismatch":true},{"osm":{"type":"node","id":6512748828,"tags":{"amenity":"bank","atm":"yes","brand":"Централна Кооперативна Банка","brand:wikidata":"Q2944755","opening_hours":"Mo-Fr 08:30-17:00","short_name":"ЦКБ","short_name:bg":"ЦКБ","short_name:en":"CCBank","website":"https://www.ccbank.bg/","wheelchair":"limited"},"wikidata":"Q2944755","coordinates":[42.6972604,23.3145102]},"atp":{"id":"V0NkckytM5VS_9ettF4Mz648Br4=","tags":{"ref":"1611323","amenity":"bank","@source_uri":"https://www.ccbank.bg/bg/branches_network/offices","@spider":"ccbank_bg","short_name:bg":"ЦКБ","short_name:en":"CCBank","addr:street_address":"пл.\"Възраждане\" 3","addr:city":"София","addr:country":"BG","phone":"+359 2 923 48 20;+359884642899","opening_hours":"Mo-Fr 08:30-13:00,13:30-17:00","brand":"Централна Кооперативна Банка","brand:wikidata":"Q2944755","nsi_id":"centralcooperativebank-126296"},"coordinates":[42.697314,23.314471]},"dist":6.766,"tags_mismatch":true},{"osm":{"type":"node","id":6544465924,"tags":{"addr:housenumber":"11","addr:place":"Бизнес Парк София","amenity":"bank","branch":"Клон Младост","brand":"Централна Кооперативна Банка","brand:wikidata":"Q2944755","check_date":"2022-12-08","opening_hours":"Mo-Fr 08:30-17:00","payment:mastercard":"yes","payment:visa":"yes","short_name":"ЦКБ","short_name:bg":"ЦКБ","short_name:en":"CCBank","website":"https://www.ccbank.bg/","wheelchair":"yes"},"wikidata":"Q2944755","coordinates":[42.6267028,23.3768711]},"atp":{"id":"rj2Lki4TUbHypOkj2aZ5TEVsPpA=","tags":{"ref":"1611387","amenity":"bank","@source_uri":"https://www.ccbank.bg/bg/branches_network/offices","@spider":"ccbank_bg","short_name:bg":"ЦКБ","short_name:en":"CCBank","addr:street_address":"ж.к.\"Младост\" 4, ул.\"Бизнес парк София\" 1, сграда 11","addr:city":"София","addr:country":"BG","phone":"+359 2 974 38 81;+359884689340","opening_hours":"Mo-Fr 08:30-12:00,12:30-17:00","brand":"Централна Кооперативна Банка","brand:wikidata":"Q2944755","nsi_id":"centralcooperativebank-126296"},"coordinates":[42.6267918,23.376617]},"dist":23.025,"tags_mismatch":true},{"osm":{"type":"node","id":6593179159,"tags":{"amenity":"bank","brand":"Централна Кооперативна Банка","brand:wikidata":"Q2944755","short_name:bg":"ЦКБ","short_name:en":"CCBank"},"wikidata":"Q2944755","coordinates":[42.7002548,24.180614]},"atp":false,"tags_mismatch":false},{"osm":{"type":"node","id":6732322710,"tags":{"addr:city":"Хасково","addr:housenumber":"1","addr:postcode":"6300","addr:street":"Скопие","amenity":"bank","atm":"yes","brand":"Централна Кооперативна Банка","brand:wikidata":"Q2944755","short_name:bg":"ЦКБ","short_name:en":"CCBank"},"wikidata":"Q2944755","coordinates":[41.9335891,25.5551046]},"atp":{"id":"M_NJsqqAX8XkuWMGBnq5EzQ89ak=","tags":{"ref":"1611494","amenity":"bank","@source_uri":"https://www.ccbank.bg/bg/branches_network/offices","@spider":"ccbank_bg","short_name:bg":"ЦКБ","short_name:en":"CCBank","addr:street_address":"ул.\"Скопие\" 1","addr:city":"Хасково","addr:country":"BG","phone":"+359 38 607 830;+359 88 515 5633","opening_hours":"Mo-Fr 08:30-17:00","brand":"Централна Кооперативна Банка","brand:wikidata":"Q2944755","nsi_id":"centralcooperativebank-126296"},"coordinates":[41.933491,25.555016]},"dist":13.142,"tags_mismatch":true},{"osm":{"type":"node","id":6734818436,"tags":{"amenity":"bank","atm":"yes","brand":"Централна Кооперативна Банка","brand:wikidata":"Q2944755","short_name:bg":"ЦКБ","short_name:en":"CCBank"},"wikidata":"Q2944755","coordinates":[43.5729164,27.8263486]},"atp":{"id":"g97Wz5Wy2DF9kRckrHlDpImfOx8=","tags":{"ref":"1611336","amenity":"bank","@source_uri":"https://www.ccbank.bg/bg/branches_network/offices","@spider":"ccbank_bg","short_name:bg":"ЦКБ","short_name:en":"CCBank","addr:street_address":"бул.\"Добруджа\" 32А, ет.1","addr:city":"Добрич","addr:country":"BG","phone":"+359 58 653 662;+359 88 474 1294","opening_hours":"Mo-Fr 08:30-12:00,13:00-17:00","brand":"Централна Кооперативна Банка","brand:wikidata":"Q2944755","nsi_id":"centralcooperativebank-126296"},"coordinates":[43.572868,27.826332]},"dist":5.545,"tags_mismatch":true},{"osm":{"type":"node","id":6915573255,"tags":{"amenity":"bank","atm":"yes","brand":"Централна Кооперативна Банка","brand:wikidata":"Q2944755","short_name:bg":"ЦКБ","short_name:en":"CCBank"},"wikidata":"Q2944755","coordinates":[42.310874,23.765131]},"atp":{"id":"AP2d-bJumzQFFeoSVEbZ-8RoBIc=","tags":{"ref":"1611363","amenity":"bank","@source_uri":"https://www.ccbank.bg/bg/branches_network/offices","@spider":"ccbank_bg","short_name:bg":"ЦКБ","short_name:en":"CCBank","addr:street_address":"ул.\"Търговска\" 93","addr:city":"Долна Баня","addr:country":"BG","phone":"+359 71 202 297;+359 88 463 4938","opening_hours":"Mo-Fr 08:30-12:00,13:00-15:30","brand":"Централна Кооперативна Банка","brand:wikidata":"Q2944755","nsi_id":"centralcooperativebank-126296"},"coordinates":[42.310829,23.766003]},"dist":71.878,"tags_mismatch":true},{"osm":{"type":"node","id":7523087506,"tags":{"amenity":"bank","atm":"yes","brand":"Централна Кооперативна Банка","brand:wikidata":"Q2944755","opening_hours":"Mo-Fr 08:30-19:00; Sa,Su off","short_name:bg":"ЦКБ","short_name:en":"CCBank"},"wikidata":"Q2944755","coordinates":[42.6544847,23.4005272]},"atp":{"id":"_eMEjsLXg20SfElt9w3VG2nojQU=","tags":{"ref":"1611463","amenity":"bank","@source_uri":"https://www.ccbank.bg/bg/branches_network/offices","@spider":"ccbank_bg","short_name:bg":"ЦКБ","short_name:en":"CCBank","addr:street_address":"бул.\"Цветан Лазаров\" - пред бл.209","addr:city":"София","addr:country":"BG","phone":"+359 2 978 5075;+35988265364","opening_hours":"Mo-Fr 08:30-17:00","brand":"Централна Кооперативна Банка","brand:wikidata":"Q2944755","nsi_id":"centralcooperativebank-126296"},"coordinates":[42.654739,23.399923]},"dist":56.93,"tags_mismatch":true},{"osm":{"type":"node","id":7638357073,"tags":{"amenity":"bank","brand":"Централна Кооперативна Банка","brand:wikidata":"Q2944755","short_name:bg":"ЦКБ","short_name:en":"CCBank"},"wikidata":"Q2944755","coordinates":[42.9598947,23.3487858]},"atp":false,"tags_mismatch":false},{"osm":{"type":"node","id":7828771386,"tags":{"amenity":"bank","brand":"Централна Кооперативна Банка","brand:wikidata":"Q2944755","short_name:bg":"ЦКБ","short_name:en":"CCBank"},"wikidata":"Q2944755","coordinates":[43.1083892,26.4168719]},"atp":false,"tags_mismatch":false},{"osm":{"type":"node","id":8199059302,"tags":{"addr:housenumber":"1","addr:street":"пл. Николай Гяуров","amenity":"bank","brand":"Централна Кооперативна Банка","brand:wikidata":"Q2944755","check_date":"2023-02-18","internet_access":"no","opening_hours":"Mo-Fr 08:30-17:00","payment:mastercard":"yes","payment:visa":"yes","short_name:bg":"ЦКБ","short_name:en":"CCBank","wheelchair":"no"},"wikidata":"Q2944755","coordinates":[42.0279092,23.9911169]},"atp":{"id":"RufQX6-sxtvQcLMesNJe0eaICiE=","tags":{"ref":"1611401","amenity":"bank","@source_uri":"https://www.ccbank.bg/bg/branches_network/offices","@spider":"ccbank_bg","short_name:bg":"ЦКБ","short_name:en":"CCBank","addr:street_address":"пл.\"Николай Гяуров\"","addr:city":"Велинград","addr:country":"BG","phone":"+359 35 973 000;+359 88 464 3368","opening_hours":"Mo-Fr 08:30-12:00,13:00-17:00","brand":"Централна Кооперативна Банка","brand:wikidata":"Q2944755","nsi_id":"centralcooperativebank-126296"},"coordinates":[42.027405,23.991835]},"dist":81.617,"tags_mismatch":true},{"osm":{"type":"node","id":8399156643,"tags":{"amenity":"bank","brand":"Централна Кооперативна Банка","brand:wikidata":"Q2944755","short_name:bg":"ЦКБ","short_name:en":"CCBank"},"wikidata":"Q2944755","coordinates":[42.158757,24.7436491]},"atp":{"id":"dp-oGVRtJZm779jYyy5nj6C6O8s=","tags":{"ref":"1611428","amenity":"bank","@source_uri":"https://www.ccbank.bg/bg/branches_network/offices","@spider":"ccbank_bg","short_name:bg":"ЦКБ","short_name:en":"CCBank","addr:street_address":"бул.\"България\" 31","addr:city":"Пловдив","addr:country":"BG","phone":"+359 32 921 115;+359 88 462 1507","opening_hours":"Mo-Fr 08:30-12:00,12:30-17:00","brand":"Централна Кооперативна Банка","brand:wikidata":"Q2944755","nsi_id":"centralcooperativebank-126296"},"coordinates":[42.158786,24.743718]},"dist":6.531,"tags_mismatch":true},{"osm":{"type":"node","id":8607758025,"tags":{"amenity":"bank","atm":"yes","brand":"Централна Кооперативна Банка","brand:wikidata":"Q2944755","opening_hours":"Mo-Fr 08:30-12:00,12:30-17:00","short_name:bg":"ЦКБ","short_name:en":"CCBank"},"wikidata":"Q2944755","coordinates":[42.6791589,23.2998343]},"atp":{"id":"9kViRsP-anMBwSqlE8z89r-iOII=","tags":{"ref":"1611473","amenity":"bank","@source_uri":"https://www.ccbank.bg/bg/branches_network/offices","@spider":"ccbank_bg","short_name:bg":"ЦКБ","short_name:en":"CCBank","addr:street_address":"ул.\"Емине\" 23","addr:city":"София","addr:country":"BG","phone":"+359 2 818 80 81;+359884623168","opening_hours":"Mo-Fr 08:30-12:00,12:30-17:00","brand":"Централна Кооперативна Банка","brand:wikidata":"Q2944755","nsi_id":"centralcooperativebank-126296"},"coordinates":[42.679211,23.299803]},"dist":6.333,"tags_mismatch":false},{"osm":{"type":"node","id":9005027006,"tags":{"amenity":"bank","atm":"yes","brand":"Централна Кооперативна Банка","brand:wikidata":"Q2944755","short_name:bg":"ЦКБ","short_name:en":"CCBank"},"wikidata":"Q2944755","coordinates":[42.7137037,27.7598454]},"atp":false,"tags_mismatch":false},{"osm":{"type":"node","id":10001057496,"tags":{"amenity":"bank","brand":"Централна Кооперативна Банка","brand:wikidata":"Q2944755","opening_hours":"Mo-Fr 08:30-12:00, 13:00-17:00","short_name:bg":"ЦКБ","short_name:en":"CCBank"},"wikidata":"Q2944755","coordinates":[42.1001684,27.938808]},"atp":{"id":"OTfuXDU4KiI7NIw08crjsLiDT0k=","tags":{"ref":"1611518","amenity":"bank","@source_uri":"https://www.ccbank.bg/bg/branches_network/offices","@spider":"ccbank_bg","short_name:bg":"ЦКБ","short_name:en":"CCBank","addr:street_address":"ул.\"Свети Никола\" 44","addr:city":"Ахтопол","addr:country":"BG","phone":"+359 55 026 378;+359 88 225 1549","opening_hours":"Mo-Fr 09:00-12:00,13:00-17:00","brand":"Централна Кооперативна Банка","brand:wikidata":"Q2944755","nsi_id":"centralcooperativebank-126296"},"coordinates":[42.1001,27.9388]},"dist":7.634,"tags_mismatch":true},{"osm":{"type":"node","id":10155528326,"tags":{"amenity":"bank","brand":"Централна Кооперативна Банка","brand:wikidata":"Q2944755","short_name:bg":"ЦКБ","short_name:en":"CCBank"},"wikidata":"Q2944755","coordinates":[42.6687738,23.3943349]},"atp":{"id":"t-vOsGLLGT2HCnXXGk6nuAHvADE=","tags":{"ref":"1611466","amenity":"bank","@source_uri":"https://www.ccbank.bg/bg/branches_network/offices","@spider":"ccbank_bg","short_name:bg":"ЦКБ","short_name:en":"CCBank","addr:street_address":"жк.\"Дружба\" 1, ул.\"5030\" 6","addr:city":"София","addr:country":"BG","phone":"+359 2 926 6175;+35988266923","opening_hours":"Mo-Fr 08:30-17:00","brand":"Централна Кооперативна Банка","brand:wikidata":"Q2944755","nsi_id":"centralcooperativebank-126296"},"coordinates":[42.668861,23.39514]},"dist":66.535,"tags_mismatch":true},{"osm":{"type":"node","id":10159552952,"tags":{"amenity":"bank","brand":"Централна Кооперативна Банка","brand:wikidata":"Q2944755","short_name:bg":"ЦКБ","short_name:en":"CCBank"},"wikidata":"Q2944755","coordinates":[41.8334915,24.8304051]},"atp":{"id":"htXR3abZA1vhAPrAs2DZCtR9Dsk=","tags":{"ref":"1611260","amenity":"bank","@source_uri":"https://www.ccbank.bg/bg/branches_network/offices","@spider":"ccbank_bg","short_name:bg":"ЦКБ","short_name:en":"CCBank","addr:street_address":"ул.\"Възраждане\" 32","addr:city":"Лъки","addr:country":"BG","phone":"+359 30 523 080;+359 88 464 7470","opening_hours":"Mo-Fr 08:30-13:00,14:00-17:00","brand":"Централна Кооперативна Банка","brand:wikidata":"Q2944755","nsi_id":"centralcooperativebank-126296"},"coordinates":[41.8334357,24.8281253]},"dist":188.983,"tags_mismatch":true},{"osm":{"type":"node","id":10170861644,"tags":{"amenity":"bank","brand":"Централна Кооперативна Банка","brand:wikidata":"Q2944755","short_name:bg":"ЦКБ","short_name:en":"CCBank"},"wikidata":"Q2944755","coordinates":[42.9179004,24.2619878]},"atp":{"id":"T8lcZ2lcDpHjI98rE5oZmU_XIgo=","tags":{"ref":"1611377","amenity":"bank","@source_uri":"https://www.ccbank.bg/bg/branches_network/offices","@spider":"ccbank_bg","short_name:bg":"ЦКБ","short_name:en":"CCBank","addr:street_address":"ул.\"Иван Вазов\" 16","addr:city":"Тетевен","addr:country":"BG","phone":"+359 67 852 339;+359 88 511 2569","opening_hours":"Mo-Fr 08:30-12:00,13:00-17:15","brand":"Централна Кооперативна Банка","brand:wikidata":"Q2944755","nsi_id":"centralcooperativebank-126296"},"coordinates":[42.918503,24.260345]},"dist":149.618,"tags_mismatch":true},{"osm":{"type":"node","id":10249380857,"tags":{"amenity":"bank","brand":"Централна Кооперативна Банка","brand:wikidata":"Q2944755","level":"1","short_name:bg":"ЦКБ","short_name:en":"CCBank"},"wikidata":"Q2944755","coordinates":[42.6604179,23.382342]},"atp":{"id":"HALMVTRdFXdTwh2piVHrxi26oTc=","tags":{"ref":"1611389","amenity":"bank","@source_uri":"https://www.ccbank.bg/bg/branches_network/offices","@spider":"ccbank_bg","short_name:bg":"ЦКБ","short_name:en":"CCBank","addr:street_address":"бул.\"Цариградско шосе\" 115з ет.1","addr:city":"София","addr:country":"BG","phone":"+359 2 892 48 91;+359884231578","opening_hours":"Mo-Su 10:00-14:00,14:30-21:00","brand":"Централна Кооперативна Банка","brand:wikidata":"Q2944755","nsi_id":"centralcooperativebank-126296"},"coordinates":[42.6605727,23.3820425]},"dist":29.934,"tags_mismatch":true},{"osm":{"type":"node","id":10311293157,"tags":{"amenity":"bank","atm":"yes","brand":"Централна Кооперативна Банка","brand:wikidata":"Q2944755","short_name:bg":"ЦКБ","short_name:en":"CCBank"},"wikidata":"Q2944755","coordinates":[42.6086727,25.5449644]},"atp":{"id":"IVwUKHFbLEdqFzVCG5GT_vVJdd4=","tags":{"ref":"1611352","amenity":"bank","@source_uri":"https://www.ccbank.bg/bg/branches_network/offices","@spider":"ccbank_bg","short_name:bg":"ЦКБ","short_name:en":"CCBank","addr:street_address":"пл. 3-ти Март 11","addr:city":"Мъглиж","addr:country":"BG","phone":"+359 432 120 82;+359 88 814 2867","opening_hours":"Mo-Fr 08:30-13:00,14:00-17:00","brand":"Централна Кооперативна Банка","brand:wikidata":"Q2944755","nsi_id":"centralcooperativebank-126296"},"coordinates":[42.607876,25.545874]},"dist":115.713,"tags_mismatch":true},{"osm":{"type":"node","id":10944112335,"tags":{"amenity":"bank","brand":"Централна Кооперативна Банка","brand:wikidata":"Q2944755","short_name:bg":"ЦКБ","short_name:en":"CCBank"},"wikidata":"Q2944755","coordinates":[43.0253538,24.1005032]},"atp":{"id":"lL_NizxEqa3kHi_v5p87reS8gNY=","tags":{"ref":"1611375","amenity":"bank","@source_uri":"https://www.ccbank.bg/bg/branches_network/offices","@spider":"ccbank_bg","short_name:bg":"ЦКБ","short_name:en":"CCBank","addr:street_address":"пл.\"Възраждане\" 5","addr:city":"Ябланица","addr:country":"BG","phone":"+359 69 912 112;+359 88 209 4839","opening_hours":"Mo-Fr 08:30-12:00,13:00-17:15","brand":"Централна Кооперативна Банка","brand:wikidata":"Q2944755","nsi_id":"centralcooperativebank-126296"},"coordinates":[43.025543,24.100183]},"dist":33.468,"tags_mismatch":true},{"osm":{"type":"node","id":11139567188,"tags":{"amenity":"bank","brand":"Централна Кооперативна Банка","brand:wikidata":"Q2944755","check_date":"2025-03-29","opening_hours":"Mo-Fr 08:30-17:00","short_name:bg":"ЦКБ","short_name:en":"CCBank"},"wikidata":"Q2944755","coordinates":[42.6590231,23.2423922]},"atp":{"id":"bAxc-6NCsYRHe66rcK6fTEO5OtM=","tags":{"ref":"1611475","amenity":"bank","@source_uri":"https://www.ccbank.bg/bg/branches_network/offices","@spider":"ccbank_bg","short_name:bg":"ЦКБ","short_name:en":"CCBank","addr:street_address":"бул.\"Цар Борис\" ІІІ 357","addr:city":"София","addr:country":"BG","phone":"+359 2 923 47 55;+359882689526","opening_hours":"Mo-Fr 08:30-12:00,12:30-17:00","brand":"Централна Кооперативна Банка","brand:wikidata":"Q2944755","nsi_id":"centralcooperativebank-126296"},"coordinates":[42.658391,23.2394152]},"dist":253.382,"tags_mismatch":true},{"osm":{"type":"node","id":11373290813,"tags":{"amenity":"bank","brand":"Централна Кооперативна Банка","brand:wikidata":"Q2944755","short_name:bg":"ЦКБ","short_name:en":"CCBank"},"wikidata":"Q2944755","coordinates":[43.7005175,28.0375443]},"atp":{"id":"FSJx-EbzuZrWFUTK2_x_uHuXd-E=","tags":{"ref":"1611334","amenity":"bank","@source_uri":"https://www.ccbank.bg/bg/branches_network/offices","@spider":"ccbank_bg","short_name:bg":"ЦКБ","short_name:en":"CCBank","addr:street_address":"ул.\"3-ти март\" 2","addr:city":"Генерал Тошево","addr:country":"BG","phone":"+359 57 312 044;+359 88 465 7097","opening_hours":"Mo-Fr 08:30-12:30,13:30-17:00","brand":"Централна Кооперативна Банка","brand:wikidata":"Q2944755","nsi_id":"centralcooperativebank-126296"},"coordinates":[43.7005434,28.0375595]},"dist":3.128,"tags_mismatch":true},{"osm":{"type":"node","id":11610218947,"tags":{"amenity":"bank","brand":"Централна Кооперативна Банка","brand:wikidata":"Q2944755","check_date:opening_hours":"2024-02-25","opening_hours:signed":"no","short_name:bg":"ЦКБ","short_name:en":"CCBank"},"wikidata":"Q2944755","coordinates":[42.6723262,23.3227782]},"atp":{"id":"hnkE5dShzgidOp5MLxY53tqer1o=","tags":{"ref":"1611508","amenity":"bank","@source_uri":"https://www.ccbank.bg/bg/branches_network/offices","@spider":"ccbank_bg","short_name:bg":"ЦКБ","short_name:en":"CCBank","addr:street_address":"ул.\"Джеймс Баучер\" 51","addr:city":"София","addr:country":"BG","phone":"+35929263070;+359882649048","opening_hours":"Mo-Fr 08:30-12:30,13:15-19:00","brand":"Централна Кооперативна Банка","brand:wikidata":"Q2944755","nsi_id":"centralcooperativebank-126296"},"coordinates":[42.6729857,23.3243423]},"dist":147.408,"tags_mismatch":true},{"osm":{"type":"node","id":11677257636,"tags":{"amenity":"bank","brand":"Централна Кооперативна Банка","brand:wikidata":"Q2944755","check_date":"2025-04-07","level":"0","opening_hours":"Mo-Fr 08:30-17:00","short_name:bg":"ЦКБ","short_name:en":"CCBank"},"wikidata":"Q2944755","coordinates":[42.6702209,23.2767802]},"atp":{"id":"yV4MpUdk0dBKUE5CqC6UliqjzLY=","tags":{"ref":"1611474","amenity":"bank","@source_uri":"https://www.ccbank.bg/bg/branches_network/offices","@spider":"ccbank_bg","short_name:bg":"ЦКБ","short_name:en":"CCBank","addr:street_address":"бул.\"Братя Бъкстон\" 24","addr:city":"София","addr:country":"BG","phone":"+359 2 818 80 78;+359884171484","opening_hours":"Mo-Fr 08:30-12:00,12:30-17:00","brand":"Централна Кооперативна Банка","brand:wikidata":"Q2944755","nsi_id":"centralcooperativebank-126296"},"coordinates":[42.670341,23.276833]},"dist":14.035,"tags_mismatch":true},{"osm":{"type":"node","id":11816575571,"tags":{"amenity":"bank","brand":"Централна Кооперативна Банка","brand:wikidata":"Q2944755","opening_hours":"Mo-Fr 08:30-12:00,12:30-17:00","short_name:bg":"ЦКБ","short_name:en":"CCBank"},"wikidata":"Q2944755","coordinates":[42.7424024,23.277052]},"atp":{"id":"oSa3KtWCrA0Pwuwa4W3edi4wVsQ=","tags":{"ref":"1611472","amenity":"bank","@source_uri":"https://www.ccbank.bg/bg/branches_network/offices","@spider":"ccbank_bg","short_name:bg":"ЦКБ","short_name:en":"CCBank","addr:street_address":"район Връбница, ул.\"275-та\" 24","addr:city":"София","addr:country":"BG","phone":"+359 2 451 01 56;+359882023371","opening_hours":"Mo-Fr 08:30-12:00,12:30-17:00","brand":"Централна Кооперативна Банка","brand:wikidata":"Q2944755","nsi_id":"centralcooperativebank-126296"},"coordinates":[42.74257,23.2759601]},"dist":91.094,"tags_mismatch":false},{"osm":{"type":"node","id":11955093183,"tags":{"amenity":"bank","atm":"yes","brand":"Централна Кооперативна Банка","brand:wikidata":"Q2944755","opening_hours":"Mo-Fr 08:30-12:30, 13:30-17:00","short_name:bg":"ЦКБ","short_name:en":"CCBank"},"wikidata":"Q2944755","coordinates":[43.2165134,27.9118587]},"atp":{"id":"P4asEx5RflcdaVq8eskWAtjCiH8=","tags":{"ref":"1611299","amenity":"bank","@source_uri":"https://www.ccbank.bg/bg/branches_network/offices","@spider":"ccbank_bg","short_name:bg":"ЦКБ","short_name:en":"CCBank","addr:street_address":"бул.\"Цар освободител\" 76Г","addr:city":"Варна","addr:country":"BG","phone":"+359 52 600 365;+359 88 464 5352","opening_hours":"Mo-Fr 08:30-12:30,13:00-17:00","brand":"Централна Кооперативна Банка","brand:wikidata":"Q2944755","nsi_id":"centralcooperativebank-126296"},"coordinates":[43.216399,27.91195]},"dist":14.716,"tags_mismatch":true},{"osm":{"type":"node","id":11961108731,"tags":{"amenity":"bank","brand":"Централна Кооперативна Банка","brand:wikidata":"Q2944755","opening_hours":"Mo-Fr 08:30-12:00,13:00-17:15","short_name:bg":"ЦКБ","short_name:en":"CCBank"},"wikidata":"Q2944755","coordinates":[43.2071788,24.1635616]},"atp":{"id":"LPORjqTe6TNvDivDVgWnTqPRIFQ=","tags":{"ref":"1611376","amenity":"bank","@source_uri":"https://www.ccbank.bg/bg/branches_network/offices","@spider":"ccbank_bg","short_name:bg":"ЦКБ","short_name:en":"CCBank","addr:street_address":"ул.\"Възраждане\" 100","addr:city":"Луковит","addr:country":"BG","phone":"+359 69 752 339;+359 88 613 6400","opening_hours":"Mo-Fr 08:30-12:00,13:00-17:15","brand":"Централна Кооперативна Банка","brand:wikidata":"Q2944755","nsi_id":"centralcooperativebank-126296"},"coordinates":[43.205128,24.164429]},"dist":238.629,"tags_mismatch":false},{"osm":{"type":"node","id":12026739463,"tags":{"addr:city":"Равда","amenity":"bank","atm":"yes","brand":"Централна Кооперативна Банка","brand:wikidata":"Q2944755","short_name:bg":"ЦКБ","short_name:en":"CCBank"},"wikidata":"Q2944755","coordinates":[42.6448445,27.6773388]},"atp":{"id":"mZex93dr8whNtMrfBE_aoU5OHtc=","tags":{"ref":"1611399","amenity":"bank","@source_uri":"https://www.ccbank.bg/bg/branches_network/offices","@spider":"ccbank_bg","short_name:bg":"ЦКБ","short_name:en":"CCBank","addr:street_address":"ул.\"Св.Св.Кирил и Методий\" 18","addr:city":"Равда","addr:country":"BG","phone":"+359 55 466 289;+359 88 464 9033","opening_hours":"Mo-Fr 08:30-12:00,13:00-17:00","brand":"Централна Кооперативна Банка","brand:wikidata":"Q2944755","nsi_id":"centralcooperativebank-126296"},"coordinates":[42.645634,27.676662]},"dist":103.784,"tags_mismatch":true},{"osm":{"type":"node","id":12153205363,"tags":{"amenity":"bank","brand":"Централна Кооперативна Банка","brand:wikidata":"Q2944755","opening_hours":"Mo-Fr 08:30-12:00,12:30-17:00","short_name:bg":"ЦКБ","short_name:en":"CCBank"},"wikidata":"Q2944755","coordinates":[42.6401575,23.3812404]},"atp":{"id":"NgmdgD44Qpkakp2R3ZCHD4VDj-I=","tags":{"ref":"1611388","amenity":"bank","@source_uri":"https://www.ccbank.bg/bg/branches_network/offices","@spider":"ccbank_bg","short_name:bg":"ЦКБ","short_name:en":"CCBank","addr:street_address":"ж.к.\"Младост\" 3, бл.342, вх.2","addr:city":"София","addr:country":"BG","phone":"+359 2 892 48 94;+359882897153","opening_hours":"Mo-Fr 08:30-12:00,12:30-17:00","brand":"Централна Кооперативна Банка","brand:wikidata":"Q2944755","nsi_id":"centralcooperativebank-126296"},"coordinates":[42.64018,23.381296]},"dist":5.191,"tags_mismatch":false},{"osm":{"type":"node","id":12157807245,"tags":{"amenity":"bank","atm":"yes","brand":"Централна Кооперативна Банка","brand:wikidata":"Q2944755","check_date":"2025-05-30","short_name:bg":"ЦКБ","short_name:en":"CCBank"},"wikidata":"Q2944755","coordinates":[42.7003944,23.2989817]},"atp":{"id":"Nse6j7USktvlnInAzRRlHMxFwm4=","tags":{"ref":"1611326","amenity":"bank","@source_uri":"https://www.ccbank.bg/bg/branches_network/offices","@spider":"ccbank_bg","short_name:bg":"ЦКБ","short_name:en":"CCBank","addr:street_address":"бул.\"Ал.Стамболийски\" 156","addr:city":"София","addr:country":"BG","phone":"+359 2 812 87 59;+359885116265","opening_hours":"Mo-Fr 08:30-12:00,12:30-17:00","brand":"Централна Кооперативна Банка","brand:wikidata":"Q2944755","nsi_id":"centralcooperativebank-126296"},"coordinates":[42.700317,23.29908]},"dist":11.773,"tags_mismatch":true},{"osm":{"type":"node","id":12193048928,"tags":{"amenity":"bank","brand":"Централна Кооперативна Банка","brand:wikidata":"Q2944755","opening_hours":"Mo-Fr 08:30-12:00,12:30-17:00; Sa,Su off","short_name:bg":"ЦКБ","short_name:en":"CCBank","wheelchair":"yes"},"wikidata":"Q2944755","coordinates":[42.6869922,23.2551251]},"atp":{"id":"TEkjfDhOTwwdhXCLKyoPJ9xCUo0=","tags":{"ref":"1611476","amenity":"bank","@source_uri":"https://www.ccbank.bg/bg/branches_network/offices","@spider":"ccbank_bg","short_name:bg":"ЦКБ","short_name:en":"CCBank","addr:street_address":"бул.\"Монтевидео\" 47","addr:city":"София","addr:country":"BG","phone":"+359 2 956 22 19;+359882642076","opening_hours":"Mo-Fr 08:30-12:00,12:30-17:00","brand":"Централна Кооперативна Банка","brand:wikidata":"Q2944755","nsi_id":"centralcooperativebank-126296"},"coordinates":[42.687428,23.254988]},"dist":49.738,"tags_mismatch":true},{"osm":{"type":"node","id":12269871692,"tags":{"addr:housenumber":"13","addr:street":"бул. Васил Левски","amenity":"bank","atm":"yes","brand":"Централна Кооперативна Банка","brand:wikidata":"Q2944755","check_date":"2024-10-20","opening_hours":"Mo-Fr 08:30-17:30","payment:cash":"yes","payment:credit_cards":"yes","payment:debit_cards":"yes","short_name:bg":"ЦКБ","short_name:en":"CCBank","wheelchair":"no"},"wikidata":"Q2944755","coordinates":[42.0154491,23.0928953]},"atp":{"id":"VFheGy2M-NUUFj2nPHAdrgAb2LA=","tags":{"ref":"1611265","amenity":"bank","@source_uri":"https://www.ccbank.bg/bg/branches_network/offices","@spider":"ccbank_bg","short_name:bg":"ЦКБ","short_name:en":"CCBank","addr:street_address":"ул.\"Васил Левски\" 13","addr:city":"Благоевград","addr:country":"BG","phone":"+359 73 882 963;+359 88 464 2965","opening_hours":"Mo-Fr 08:30-17:30","brand":"Централна Кооперативна Банка","brand:wikidata":"Q2944755","nsi_id":"centralcooperativebank-126296"},"coordinates":[42.015221,23.093128]},"dist":31.826,"tags_mismatch":false},{"osm":{"type":"node","id":12965649588,"tags":{"amenity":"bank","brand":"Централна Кооперативна Банка","brand:wikidata":"Q2944755","check_date":"2021","short_name:bg":"ЦКБ","short_name:en":"CCBank"},"wikidata":"Q2944755","coordinates":[43.1851045,25.1656298]},"atp":{"id":"TnrutTJIO4du1NTBAGY514IScXE=","tags":{"ref":"1611309","amenity":"bank","@source_uri":"https://www.ccbank.bg/bg/branches_network/offices","@spider":"ccbank_bg","short_name:bg":"ЦКБ","short_name:en":"CCBank","addr:street_address":"ул.\"Росица\" 115","addr:city":"Сухиндол","addr:country":"BG","phone":"+359 61 362 959;+359 88 261 8301","opening_hours":"Mo-Fr 08:30-12:00,13:00-17:00","brand":"Централна Кооперативна Банка","brand:wikidata":"Q2944755","nsi_id":"centralcooperativebank-126296"},"coordinates":[43.185795,25.166458]},"dist":102,"tags_mismatch":true},{"osm":{"type":"way","id":137189886,"tags":{"amenity":"bank","atm":"yes","brand":"Централна Кооперативна Банка","brand:wikidata":"Q2944755","building":"yes","building:levels":"2","opening_hours":"Mo-Fr 08:30-17:00","short_name:bg":"ЦКБ","short_name:en":"CCBank"},"wikidata":"Q2944755","coordinates":[43.568061,27.828393]},"atp":{"id":"tFOEHoeJKT230_kQKqQs6KIZZgk=","tags":{"ref":"1611331","amenity":"bank","@source_uri":"https://www.ccbank.bg/bg/branches_network/offices","@spider":"ccbank_bg","short_name:bg":"ЦКБ","short_name:en":"CCBank","addr:street_address":"ул.\"България\" 1","addr:city":"Добрич","addr:country":"BG","phone":"+359 58 653 656;+359 88 465 6812","opening_hours":"Mo-Fr 08:30-17:00","brand":"Централна Кооперативна Банка","brand:wikidata":"Q2944755","nsi_id":"centralcooperativebank-126296"},"coordinates":[43.568233,27.828079]},"dist":31.714,"tags_mismatch":false},{"osm":{"type":"way","id":148870991,"tags":{"amenity":"bank","brand":"Централна Кооперативна Банка","brand:wikidata":"Q2944755","building":"yes","short_name:bg":"ЦКБ"},"wikidata":"Q2944755","coordinates":[42.140693,24.7419666]},"atp":{"id":"eFJ-I6Ep1F0lTD7yU36f75UT06A=","tags":{"ref":"1611427","amenity":"bank","@source_uri":"https://www.ccbank.bg/bg/branches_network/offices","@spider":"ccbank_bg","short_name:bg":"ЦКБ","short_name:en":"CCBank","addr:street_address":"бул.\"Руски\" 54","addr:city":"Пловдив","addr:country":"BG","phone":"+359 32 921 124;+359 88 829 3960","opening_hours":"Mo-Su 10:00-14:00,14:30-21:00","brand":"Централна Кооперативна Банка","brand:wikidata":"Q2944755","nsi_id":"centralcooperativebank-126296"},"coordinates":[42.141142,24.741432]},"dist":66.6,"tags_mismatch":true},{"osm":{"type":"way","id":186440205,"tags":{"addr:city":"Добрич","addr:country":"BG","addr:housenumber":"47","addr:street":"бул. 3-ти март","amenity":"bank","brand":"Централна Кооперативна Банка","brand:wikidata":"Q2944755","building":"yes","short_name:bg":"ЦКБ","short_name:en":"CCBank"},"wikidata":"Q2944755","coordinates":[43.561025,27.8092464]},"atp":false,"tags_mismatch":false},{"osm":{"type":"way","id":431279370,"tags":{"addr:city":"Банско","addr:housenumber":"8","addr:postcode":"2770","addr:street":"Стражите","amenity":"bank","brand":"Централна Кооперативна Банка","brand:wikidata":"Q2944755","building":"yes","building:levels":"2","short_name:bg":"ЦКБ","short_name:en":"CCBank","website":"https://www.ccbank.bg"},"wikidata":"Q2944755","coordinates":[41.8262452,23.4810325]},"atp":{"id":"o-hkpb8RFN0MpyXX_cbwm-JF3Lg=","tags":{"ref":"1611270","amenity":"bank","@source_uri":"https://www.ccbank.bg/bg/branches_network/offices","@spider":"ccbank_bg","short_name:bg":"ЦКБ","short_name:en":"CCBank","addr:street_address":"ул.\"Стражите\" 8, х-л Астера","addr:city":"Банско","addr:country":"BG","phone":"+359 74 950 487;+359 88 474 2635","opening_hours":"Mo-Fr 08:30-12:00,13:00-17:30","brand":"Централна Кооперативна Банка","brand:wikidata":"Q2944755","nsi_id":"centralcooperativebank-126296"},"coordinates":[41.82614,23.480906]},"dist":15.707,"tags_mismatch":true},{"osm":{"type":"way","id":465376534,"tags":{"addr:city":"Китен","addr:housenumber":"21","addr:postcode":"8183","addr:street":"Бриз","amenity":"bank","brand":"Централна Кооперативна Банка","brand:wikidata":"Q2944755","building":"yes","building:levels":"3","short_name:bg":"ЦКБ","short_name:en":"CCBank"},"wikidata":"Q2944755","coordinates":[42.2362025,27.7770327]},"atp":{"id":"ecGoGU-cHa0gW3BJuEmgkyr0Kmg=","tags":{"ref":"1611517","amenity":"bank","@source_uri":"https://www.ccbank.bg/bg/branches_network/offices","@spider":"ccbank_bg","short_name:bg":"ЦКБ","short_name:en":"CCBank","addr:street_address":"ул.\"Странджа\" 21","addr:city":"Китен","addr:country":"BG","phone":"+359 55 026 375;+359 88 918 8411","opening_hours":"Mo-Fr 08:30-12:00,13:00-17:00","brand":"Централна Кооперативна Банка","brand:wikidata":"Q2944755","nsi_id":"centralcooperativebank-126296"},"coordinates":[42.23616,27.77705]},"dist":4.936,"tags_mismatch":true},{"osm":{"type":"way","id":469466296,"tags":{"addr:city":"Габрово","addr:housenumber":"54","addr:postcode":"5306","addr:street":"Брянска","addr:street:en":"Bryanska","addr:suburb":"Център","addr:suburb:en":"Centre","amenity":"bank","brand":"Централна Кооперативна Банка","brand:wikidata":"Q2944755","building":"yes","building:levels":"4","check_date":"2005-09-12","note:cadastre:building_use":"Друг вид производствена, складова, инфраструктурна сграда","note:cadastre:id":"14218.504.460.1","short_name:bg":"ЦКБ","short_name:en":"CCBank","source:addr":"http://gis.gabrovo.bg:6080/arcgis/rest/services/BaseMap/MapServer/0","source:addr:date":"2017-01-12","source:addr:ref":"4947","source:geometry":"http://gis.gabrovo.bg:6080/arcgis/rest/services/BaseMap/MapServer/7","source:geometry:date":"2017-01-12","source:geometry:ref":"384100"},"wikidata":"Q2944755","coordinates":[42.8781125,25.3176952]},"atp":{"id":"68jyn5J4fdvxlGtIYe8ddDXXzt8=","tags":{"ref":"1611329","amenity":"bank","@source_uri":"https://www.ccbank.bg/bg/branches_network/offices","@spider":"ccbank_bg","short_name:bg":"ЦКБ","short_name:en":"CCBank","addr:street_address":"ул.\"Брянска\" 54","addr:city":"Габрово","addr:country":"BG","phone":"+359 66 817 021;+359 88 465 8481","opening_hours":"Mo-Fr 08:30-17:00","brand":"Централна Кооперативна Банка","brand:wikidata":"Q2944755","nsi_id":"centralcooperativebank-126296"},"coordinates":[42.87841,25.317801]},"dist":34.185,"tags_mismatch":true},{"osm":{"type":"way","id":504227465,"tags":{"amenity":"bank","brand":"Централна Кооперативна Банка","brand:wikidata":"Q2944755","building":"yes","short_name":"ЦКБ","short_name:en":"CCB","website":"https://www.ccbank.bg/","wheelchair":"yes"},"wikidata":"Q2944755","coordinates":[42.8096738,23.2017964]},"atp":false,"tags_mismatch":false},{"osm":{"type":"way","id":640834651,"tags":{"addr:housenumber":"16","addr:street":"Габрово","amenity":"bank","atm":"yes","brand":"Централна Кооперативна Банка","brand:wikidata":"Q2944755","building":"office","building:levels":"3","height":"8","roof:levels":"1","short_name:bg":"ЦКБ","short_name:en":"CCBank"},"wikidata":"Q2944755","coordinates":[43.1995481,27.9133054]},"atp":{"id":"APiQ9JL2cASP4o7qcEDYrgCUWWQ=","tags":{"ref":"1611287","amenity":"bank","@source_uri":"https://www.ccbank.bg/bg/branches_network/offices","@spider":"ccbank_bg","short_name:bg":"ЦКБ","short_name:en":"CCBank","addr:street_address":"ул.\"Цар Симеон 1\" 31","addr:city":"Варна","addr:country":"BG","phone":"+359 52 608 501;+359 88 464 6930","opening_hours":"Mo-Fr 08:30-12:30,13:30-17:30","brand":"Централна Кооперативна Банка","brand:wikidata":"Q2944755","nsi_id":"centralcooperativebank-126296"},"coordinates":[43.199585,27.913073]},"dist":19.28,"tags_mismatch":true},{"osm":{"type":"way","id":705486739,"tags":{"amenity":"bank","atm":"yes","brand":"Централна Кооперативна Банка","brand:wikidata":"Q2944755","drive_through":"no","level":"0","opening_hours":"Mo-Fr 08:30-12:00, 13:00-17:00","short_name:bg":"ЦКБ","short_name:en":"CCBank","website":"https://www.ccbank.bg/"},"wikidata":"Q2944755","coordinates":[41.9307424,25.5531034]},"atp":{"id":"Gaijvb_-pi7V3j-Q2OOd6BU4gZM=","tags":{"ref":"1611499","amenity":"bank","@source_uri":"https://www.ccbank.bg/bg/branches_network/offices","@spider":"ccbank_bg","short_name:bg":"ЦКБ","short_name:en":"CCBank","addr:street_address":"бул.\"България\" 3 - над реката","addr:city":"Хасково","addr:country":"BG","phone":"+359 38 585 129;+359 88 518 1656","opening_hours":"Mo-Fr 08:30-12:00,13:00-17:00","brand":"Централна Кооперативна Банка","brand:wikidata":"Q2944755","nsi_id":"centralcooperativebank-126296"},"coordinates":[41.93108,25.553185]},"dist":38.141,"tags_mismatch":true},{"osm":false,"atp":false,"tags_mismatch":false,"dist":0},{"osm":false,"atp":false,"tags_mismatch":false,"dist":0},{"osm":false,"atp":{"id":"wgVm-XMmLtXlnSZGARiKjagAD_s=","tags":{"ref":"1611261","amenity":"bank","short_name:bg":"ЦКБ","short_name:en":"CCBank","addr:street_address":"бул.\"Санкт Петербург\" 48","addr:city":"Пловдив","addr:country":"BG","name":"Асеновград ИРМ Аркадия","phone":"+359 32 290 001;+359 88 463 9197","opening_hours":"Mo-Fr 08:30-13:00,14:00-17:00","brand":"Централна Кооперативна Банка","brand:wikidata":"Q2944755"},"coordinates":[42.142329,27.784019]},"tags_mismatch":false,"dist":0},{"osm":false,"atp":{"id":"Kc5LFBiuUWXyGn673T2iPEmo1Ms=","tags":{"ref":"1611262","amenity":"bank","short_name:bg":"ЦКБ","short_name:en":"CCBank","addr:street_address":"бул.\"България\" 4","addr:city":"Асеновград","addr:country":"BG","name":"Асеновград ИРМ Запад","phone":"+359 33 168 695;+359 88 463 9879","opening_hours":"Mo-Fr 08:30-13:00,14:00-17:00","brand":"Централна Кооперативна Банка","brand:wikidata":"Q2944755"},"coordinates":[42.022205,24.859926]},"tags_mismatch":false,"dist":0},{"osm":false,"atp":{"id":"HlO8BdXIskt1nR-vs_WBLEbsEow=","tags":{"ref":"1611263","amenity":"bank","short_name:bg":"ЦКБ","short_name:en":"CCBank","addr:street_address":"ул.\"Цар Иван Асен II\" 6","addr:city":"Асеновград","addr:country":"BG","name":"Асеновград ИРМ Районен съд","phone":"+359 33 121 132;+359 88 463 9158","opening_hours":"Mo-Fr 08:30-12:30,13:00-16:45","brand":"Централна Кооперативна Банка","brand:wikidata":"Q2944755"},"coordinates":[42.019745,24.878492]},"tags_mismatch":false,"dist":0},{"osm":false,"atp":{"id":"0vs_0p156jqBm5f4CiO_lauZmsc=","tags":{"ref":"1611264","amenity":"bank","short_name:bg":"ЦКБ","short_name:en":"CCBank","addr:street_address":"ж.к.\"Тракия\", ул.\"Съединение\" 45","addr:city":"Пловдив","addr:country":"BG","name":"Асеновград Офис Тракия","phone":"+359 33 120 630;+359 88 970 3025","opening_hours":"Mo-Fr 08:30-12:00,13:00-17:00","brand":"Централна Кооперативна Банка","brand:wikidata":"Q2944755"},"coordinates":[42.131543,24.794597]},"tags_mismatch":false,"dist":0},{"osm":false,"atp":false,"tags_mismatch":false,"dist":0},{"osm":false,"atp":{"id":"oVEqywZTlH0q0PocXQZHWqYEbzc=","tags":{"ref":"1611266","amenity":"bank","short_name:bg":"ЦКБ","short_name:en":"CCBank","addr:street_address":"бул.\"Свобода\" 13","addr:city":"Сандански","addr:country":"BG","name":"Благоевград Офис Сандански","phone":"+359 74 632 488;+359 88 464 3319","opening_hours":"Mo-Fr 08:30-12:00,13:00-17:30","brand":"Централна Кооперативна Банка","brand:wikidata":"Q2944755"},"coordinates":[41.559189,23.275385]},"tags_mismatch":false,"dist":0},{"osm":false,"atp":{"id":"g7MIY2Q-vlJRqO4TTVtqp90h9to=","tags":{"ref":"1611267","amenity":"bank","short_name:bg":"ЦКБ","short_name:en":"CCBank","addr:street_address":"ул.\"Христо Ботев \" 5","addr:city":"Разлог","addr:country":"BG","name":"Благоевград Офис Разлог","phone":"+359 74 780 034;+359 88 464 8729","opening_hours":"Mo-Fr 08:30-17:30","brand":"Централна Кооперативна Банка","brand:wikidata":"Q2944755"},"coordinates":[41.8862509,23.4675313]},"tags_mismatch":false,"dist":0},{"osm":false,"atp":{"id":"TqbX1pzThhPVH8PWmUf83WAq9R4=","tags":{"ref":"1611268","amenity":"bank","short_name:bg":"ЦКБ","short_name:en":"CCBank","addr:street_address":"ул.\"Рокфелер\" 52 А","addr:city":"Петрич","addr:country":"BG","name":"Благоевград Офис Петрич","phone":"+359 74 521 180;+359 88 464 6098","opening_hours":"Mo-Fr 08:30-17:30","brand":"Централна Кооперативна Банка","brand:wikidata":"Q2944755"},"coordinates":[41.39798,23.204617]},"tags_mismatch":false,"dist":0},{"osm":false,"atp":{"id":"fuxadReQB0hZ6961sUEcWF1eHo8=","tags":{"ref":"1611269","amenity":"bank","short_name:bg":"ЦКБ","short_name:en":"CCBank","addr:street_address":"ул.\"Бяло море\" 13","addr:city":"Гоце Делчев","addr:country":"BG","name":"БлагоевградОфис ГоцеДелчев","phone":"+359 75 160 205'+359884647418","opening_hours":"Mo-Fr 08:30-13:30,14:30-17:30","brand":"Централна Кооперативна Банка","brand:wikidata":"Q2944755"},"coordinates":[41.571392,23.729202]},"tags_mismatch":false,"dist":0},{"osm":false,"atp":false,"tags_mismatch":false,"dist":0},{"osm":false,"atp":{"id":"vyUZr5sorSyYxWSd4m7MNzJrV7w=","tags":{"ref":"1611271","amenity":"bank","short_name:bg":"ЦКБ","short_name:en":"CCBank","addr:street_address":"ул.\"Владо Черноземски\" 3","addr:city":"Благоевград","addr:country":"BG","name":"Благоевград Първо РУП Благоевград","phone":"+359 73 588 651;+359 88 474 2645","opening_hours":"Mo-Fr 08:30-13:00,14:00-17:30","brand":"Централна Кооперативна Банка","brand:wikidata":"Q2944755"},"coordinates":[42.0180117,23.0930733]},"tags_mismatch":false,"dist":0},{"osm":false,"atp":{"id":"pnvJj3gAeLrw5flV5lEaBD93Xso=","tags":{"ref":"1611272","amenity":"bank","short_name:bg":"ЦКБ","short_name:en":"CCBank","addr:street_address":"ул.\"Димитър Солунски\" 110","addr:city":"Благоевград","addr:country":"BG","name":"Благоевград КАТ Благоевград","phone":"+359 73 588 652;+359 88 474 3600","opening_hours":"Mo-Fr 08:30-12:00,13:00-17:30","brand":"Централна Кооперативна Банка","brand:wikidata":"Q2944755"},"coordinates":[42.0020011,23.0924307]},"tags_mismatch":false,"dist":0},{"osm":false,"atp":{"id":"D7O7iHZxktm9HqZZ1UU-amf7-k8=","tags":{"ref":"1611273","amenity":"bank","short_name:bg":"ЦКБ","short_name:en":"CCBank","addr:street_address":"ул.\"Александър Стамболийски\" 5","addr:city":"Сатовча","addr:country":"BG","name":"Благоевград Офис Сатовча","phone":"+359 73 586 284;+359 88 474 1394","opening_hours":"Mo-Fr 08:30-12:00,13:00-17:30","brand":"Централна Кооперативна Банка","brand:wikidata":"Q2944755"},"coordinates":[41.618926,23.9746201]},"tags_mismatch":false,"dist":0},{"osm":false,"atp":false,"tags_mismatch":false,"dist":0},{"osm":false,"atp":false,"tags_mismatch":false,"dist":0},{"osm":false,"atp":{"id":"vnjnPHzP5lP0JKRruN4gdd1SKww=","tags":{"ref":"1611276","amenity":"bank","short_name:bg":"ЦКБ","short_name:en":"CCBank","addr:street_address":"ул.\"Митрополит Симеон\" 12","addr:city":"Бургас","addr:country":"BG","name":"Бургас Офис Митрополит Симеон","phone":"+359 56 879 683;+359 88 464 4947","opening_hours":"Mo-Fr 08:30-17:00","brand":"Централна Кооперативна Банка","brand:wikidata":"Q2944755"},"coordinates":[42.4927776,27.4743323]},"tags_mismatch":false,"dist":0},{"osm":false,"atp":{"id":"2az4X9aZb7YfUib-fLGzqhUjkfg=","tags":{"ref":"1611277","amenity":"bank","short_name:bg":"ЦКБ","short_name:en":"CCBank","addr:street_address":"ж.к.\"Славейков\" бл.107","addr:city":"Бургас","addr:country":"BG","name":"Бургас Офис Славейков","phone":"+359 56 581 301;+359 88 464 9120","opening_hours":"Mo-Fr 08:30-12:30,13:30-17:00","brand":"Централна Кооперативна Банка","brand:wikidata":"Q2944755"},"coordinates":[42.518318,27.452721]},"tags_mismatch":false,"dist":0},{"osm":false,"atp":{"id":"8lUnxxh57pAeVQtkgZQ0m9c6Yps=","tags":{"ref":"1611278","amenity":"bank","short_name:bg":"ЦКБ","short_name:en":"CCBank","addr:street_address":"ул.\"Богориди\" 6","addr:city":"Айтос","addr:country":"BG","name":"Бургас Офис  Айтос","phone":"+359 55 829 041;+359 88 417 2089","opening_hours":"Mo-Fr 08:30-12:30,13:30-17:00","brand":"Централна Кооперативна Банка","brand:wikidata":"Q2944755"},"coordinates":[42.703945,27.252777]},"tags_mismatch":false,"dist":0},{"osm":false,"atp":{"id":"6K7wdnv1tfOxLxxKVekTVCLZtCk=","tags":{"ref":"1611279","amenity":"bank","short_name:bg":"ЦКБ","short_name:en":"CCBank","addr:street_address":"бул.\"Демокрация\" бл.117 партер","addr:city":"Бургас","addr:country":"BG","name":"Бургас ИРМ Демокрация","phone":"+359 56 530 269;+359 88 464 1973","opening_hours":"Mo-Fr 08:30-12:30,13:30-17:00","brand":"Централна Кооперативна Банка","brand:wikidata":"Q2944755"},"coordinates":[42.505627,27.472237]},"tags_mismatch":false,"dist":0},{"osm":false,"atp":{"id":"vq98wEhgJ5knUaJ7UICxTCIY4Qs=","tags":{"ref":"1611280","amenity":"bank","short_name:bg":"ЦКБ","short_name:en":"CCBank","addr:street_address":"ж.к.\"Меден рудник\" бл.294 партер","addr:city":"Бургас","addr:country":"BG","name":"Бургас Офис Меден рудник","phone":"+359 56 850 314;+359 88 464 5615","opening_hours":"Mo-Fr 08:30-12:30,13:30-17:00","brand":"Централна Кооперативна Банка","brand:wikidata":"Q2944755"},"coordinates":[42.454739,27.418442]},"tags_mismatch":false,"dist":0},{"osm":false,"atp":{"id":"IjNYtztR0Huxb89j0ZZuaYjs_Hs=","tags":{"ref":"1611281","amenity":"bank","short_name:bg":"ЦКБ","short_name:en":"CCBank","addr:street_address":"Летище Бургас - Терминал 2","addr:city":"Бургас","addr:country":"BG","name":"Бургас ИРМ Летище Бургас","phone":"+359 56 850 119;+359 88 262 3476","opening_hours":"Mo-Fr 09:00-14:00,14:30-17:00","brand":"Централна Кооперативна Банка","brand:wikidata":"Q2944755"},"coordinates":[42.5666342,27.518131]},"tags_mismatch":false,"dist":0},{"osm":false,"atp":{"id":"UV8WRzO4Ez3bKVVSizzkpDG6-ec=","tags":{"ref":"1611282","amenity":"bank","short_name:bg":"ЦКБ","short_name:en":"CCBank","addr:street_address":"ул.\"Янко Комитов\" 6","addr:city":"Бургас","addr:country":"BG","name":"Бургас ИРМ МОЛ Галерия","phone":"+359 56 879 687;+359 88 762 4561","opening_hours":"Mo-Su 09:30-14:00,14:30-21:00","brand":"Централна Кооперативна Банка","brand:wikidata":"Q2944755"},"coordinates":[42.5158961,27.4499505]},"tags_mismatch":false,"dist":0},{"osm":false,"atp":{"id":"h6Y6UAssndn7mv0N4X-TnPwxHlE=","tags":{"ref":"1611283","amenity":"bank","short_name:bg":"ЦКБ","short_name:en":"CCBank","addr:street_address":"бул.\"Стефан Стамболов\" 120","addr:city":"Бургас","addr:country":"BG","name":"Бургас ИРМ СГКК","phone":"+359 56 874 506;+359 88 762 4561","opening_hours":"Mo-Fr 09:00-13:30,14:00-17:30","brand":"Централна Кооперативна Банка","brand:wikidata":"Q2944755"},"coordinates":[42.73,25.48]},"tags_mismatch":false,"dist":0},{"osm":false,"atp":false,"tags_mismatch":false,"dist":0},{"osm":false,"atp":false,"tags_mismatch":false,"dist":0},{"osm":false,"atp":{"id":"ghD0BHaprbySO_VfQfqnLwgmZ9s=","tags":{"ref":"1611286","amenity":"bank","short_name:bg":"ЦКБ","short_name:en":"CCBank","addr:street_address":"бул.\"Сливница\" 72","addr:city":"Варна","addr:country":"BG","name":"Варна ИРМ ЦКБ - Лизинг","phone":"+359 52 602 411;+359 88 464 2502","opening_hours":"Mo-Fr 08:30-12:30,13:30-17:30","brand":"Централна Кооперативна Банка","brand:wikidata":"Q2944755"},"coordinates":[43.210483,27.912401]},"tags_mismatch":false,"dist":0},{"osm":false,"atp":false,"tags_mismatch":false,"dist":0},{"osm":false,"atp":{"id":"ZWylXtcHU9dzJ9BsfyP3SM59hKg=","tags":{"ref":"1611288","amenity":"bank","short_name:bg":"ЦКБ","short_name:en":"CCBank","addr:street_address":"бул.\"Владислав Варненчик\" 277","addr:city":"Варна","addr:country":"BG","name":"Варна ИРМ Елпром","phone":"+359 52 509 671;+359 88 464 1176","opening_hours":"Mo-Fr 08:30-12:30,13:00-17:00","brand":"Централна Кооперативна Банка","brand:wikidata":"Q2944755"},"coordinates":[43.221668,27.872765]},"tags_mismatch":false,"dist":0},{"osm":false,"atp":{"id":"6lxjOBf5qtvq9_Ps7twtmY3dEtA=","tags":{"ref":"1611289","amenity":"bank","short_name:bg":"ЦКБ","short_name:en":"CCBank","addr:street_address":"бул.\"Осми Приморски Полк\" 43","addr:city":"Варна","addr:country":"BG","name":"Варна ИРМ Община Варна","phone":"+359 52 660 069;+359 88 463 5481","opening_hours":"Mo-Fr 08:30-12:30,13:30-17:30","brand":"Централна Кооперативна Банка","brand:wikidata":"Q2944755"},"coordinates":[43.20763,27.916937]},"tags_mismatch":false,"dist":0},{"osm":false,"atp":{"id":"Sntd2_5MgFmaphI24AVuruZQEvU=","tags":{"ref":"1611290","amenity":"bank","short_name:bg":"ЦКБ","short_name:en":"CCBank","addr:street_address":"ул.\"Академик Курчатов\" 1","addr:city":"Варна","addr:country":"BG","name":"Варна ИРМ Варна Плод","phone":"+359 52 500 491;+359 88 264 4949","opening_hours":"Mo-Fr 08:30-12:30","brand":"Централна Кооперативна Банка","brand:wikidata":"Q2944755"},"coordinates":[43.217216,27.886133]},"tags_mismatch":false,"dist":0},{"osm":false,"atp":false,"tags_mismatch":false,"dist":0},{"osm":false,"atp":false,"tags_mismatch":false,"dist":0},{"osm":false,"atp":{"id":"iKZB-xtZla83UaezF6SlSKITqZc=","tags":{"ref":"1611293","amenity":"bank","short_name:bg":"ЦКБ","short_name:en":"CCBank","addr:street_address":"ул.\"Шипка\" 23","addr:city":"Варна","addr:country":"BG","name":"Варна Офис ЦКБ Трезор","phone":"+359 52 600 072;+359 88 464 2294","opening_hours":"Mo-Fr 08:30-12:30,13:30-17:30","brand":"Централна Кооперативна Банка","brand:wikidata":"Q2944755"},"coordinates":[43.205241,27.915007]},"tags_mismatch":false,"dist":0},{"osm":false,"atp":{"id":"q7MX6tTksRst_pPi-vLRS65PPM0=","tags":{"ref":"1611294","amenity":"bank","short_name:bg":"ЦКБ","short_name:en":"CCBank","addr:street_address":"Централен площад","addr:city":"Провадия","addr:country":"BG","name":"Варна Офис Провадия","phone":"+359 51 847 110;+359 88 464 1929","opening_hours":"Mo-Fr 08:30-12:30,13:30-17:30","brand":"Централна Кооперативна Банка","brand:wikidata":"Q2944755"},"coordinates":[43.177549,27.443216]},"tags_mismatch":false,"dist":0},{"osm":false,"atp":false,"tags_mismatch":false,"dist":0},{"osm":false,"atp":{"id":"Hybc7sQrbwVHjurU101mn8FHjE8=","tags":{"ref":"1611296","amenity":"bank","short_name:bg":"ЦКБ","short_name:en":"CCBank","addr:street_address":"Летище Варна терминал 3","addr:city":"Варна","addr:country":"BG","name":"Варна ИРМ Летище - Варна","phone":"+359 52 730 450;+359 88 464 6250","opening_hours":"Mo-Fr 09:00-13:30,14:30-18:00","brand":"Централна Кооперативна Банка","brand:wikidata":"Q2944755"},"coordinates":[43.235653,27.828091]},"tags_mismatch":false,"dist":0},{"osm":false,"atp":{"id":"vHxg2N2IsbfBkkPwNSmdvEF_HnU=","tags":{"ref":"1611297","amenity":"bank","short_name:bg":"ЦКБ","short_name:en":"CCBank","addr:street_address":"ул.\"Приморска\" 8","addr:city":"Балчик","addr:country":"BG","name":"Варна Офис  Балчик","phone":"+359 57 972 232;+359 88 464 1325","opening_hours":"Mo-Fr 08:30-12:30,13:30-17:30","brand":"Централна Кооперативна Банка","brand:wikidata":"Q2944755"},"coordinates":[43.405827,28.161607]},"tags_mismatch":false,"dist":0},{"osm":false,"atp":{"id":"GE5j0SfYDg2P0nG-1pxMT9f1F0Q=","tags":{"ref":"1611298","amenity":"bank","short_name:bg":"ЦКБ","short_name:en":"CCBank","addr:street_address":"ул.\"Георги Бенковски\" 16","addr:city":"Варна","addr:country":"BG","name":"Варна Офис  Бенковски","phone":"+359 52 600 067;+359 88 464 4126","opening_hours":"Mo-Fr 08:30-12:30,13:30-17:30","brand":"Централна Кооперативна Банка","brand:wikidata":"Q2944755"},"coordinates":[43.209362,27.910027]},"tags_mismatch":false,"dist":0},{"osm":false,"atp":false,"tags_mismatch":false,"dist":0},{"osm":false,"atp":false,"tags_mismatch":false,"dist":0},{"osm":false,"atp":false,"tags_mismatch":false,"dist":0},{"osm":false,"atp":false,"tags_mismatch":false,"dist":0},{"osm":false,"atp":false,"tags_mismatch":false,"dist":0},{"osm":false,"atp":{"id":"JMDsNdD8vkO-_Ht7h919nmKgWKw=","tags":{"ref":"1611304","amenity":"bank","short_name:bg":"ЦКБ","short_name:en":"CCBank","addr:street_address":"бул.\"Света Елена\" 26","addr:city":"Варна","addr:country":"BG","name":"Варна Офис Владиславово","phone":"+359 52 510 409;+359 88 464 5174","opening_hours":"Mo-Fr 08:30-12:30,13:30-17:30","brand":"Централна Кооперативна Банка","brand:wikidata":"Q2944755"},"coordinates":[43.2464104,27.8496648]},"tags_mismatch":false,"dist":0},