{"metadata":{"name":"Еконт","key":"amenity","value":"post_office","compare_keys":["opening_hours","phone","email","branch"]},"data":[{"osm":{"type":"node","id":348097703,"tags":{"amenity":"post_office","brand":"Еконт","brand:wikidata":"Q12279603","source":"Econt GPS data"},"wikidata":"Q12279603","coordinates":[42.6882766,27.6994701]},"atp":false,"tags_mismatch":false},{"osm":{"type":"node","id":1845692863,"tags":{"amenity":"post_office","brand":"Еконт","brand:wikidata":"Q12279603","source":"Econt GPS data"},"wikidata":"Q12279603","coordinates":[42.011716,24.8675487]},"atp":{"id":"0CAnjgCRY4UydYB2VNxhpBqL4ak=","tags":{"ref":"39765","amenity":"post_office","@source_uri":"https://ee.econt.com/services/Nomenclatures/NomenclaturesService.getOffices.json","@spider":"econt_bg","addr:full":"Асеновград бул. България №13","addr:housenumber":"13","addr:street":"бул. България","addr:city":"Асеновград","addr:country":"BG","branch":"Асеновград АБВ","phone":"+359 82 529 898","email":"asenovgrad_bulgaria@econt.com","opening_hours":"Mo-Fr 09:00-18:00; Sa 09:00-15:00","brand":"Еконт","brand:wikidata":"Q12279603","nsi_id":"4f7c8b-628448"},"coordinates":[42.01092293872574,24.86898757976225]},"dist":148.016,"tags_mismatch":true},{"osm":{"type":"node","id":1845692864,"tags":{"amenity":"post_office","branch":"Авангард Калето","brand":"Еконт","brand:wikidata":"Q12279603","source":"Econt GPS data","wheelchair":"limited"},"wikidata":"Q12279603","coordinates":[43.9872143,22.8786003]},"atp":{"id":"epmm126MbPq5XfhNdTrciY-gVzE=","tags":{"ref":"13","amenity":"post_office","@source_uri":"https://ee.econt.com/services/Nomenclatures/NomenclaturesService.getOffices.json","@spider":"econt_bg","addr:full":"Видин Видин ул. Княз Борис I №10","addr:housenumber":"10","addr:street":"ул. Княз Борис I","addr:city":"Видин","addr:country":"BG","branch":"Видин Авангард Калето","phone":"+359 94 600 681","email":"vidin@econt.com","opening_hours":"Mo-Fr 09:00-18:00; Sa 09:00-15:00","brand":"Еконт","brand:wikidata":"Q12279603","nsi_id":"4f7c8b-628448"},"coordinates":[43.98715306652619,22.878600055513836]},"dist":6.809,"tags_mismatch":true},{"osm":{"type":"node","id":1845692865,"tags":{"amenity":"post_office","brand":"Еконт","brand:wikidata":"Q12279603","source":"Econt GPS data"},"wikidata":"Q12279603","coordinates":[44.111453,27.2611561]},"atp":{"id":"I-_TT1I3MvHl5rf9MefPdOkv23g=","tags":{"ref":"360","amenity":"post_office","@source_uri":"https://ee.econt.com/services/Nomenclatures/NomenclaturesService.getOffices.json","@spider":"econt_bg","addr:full":"Силистра ул. София №80 срещу входа на Камъшит","addr:housenumber":"80","addr:street":"ул. София","addr:city":"Силистра","addr:country":"BG","branch":"Силистра Аврора","phone":"+359 82 529 912","email":"silistra_avrora@econt.com","opening_hours":"Mo-Fr 09:00-18:00; Sa 09:00-15:00","brand":"Еконт","brand:wikidata":"Q12279603","nsi_id":"4f7c8b-628448"},"coordinates":[44.11150493565812,27.261157602841752]},"dist":5.776,"tags_mismatch":true},{"osm":{"type":"node","id":1845692866,"tags":{"amenity":"post_office","branch":"Автогара Батак","brand":"Еконт","brand:wikidata":"Q12279603"},"wikidata":"Q12279603","coordinates":[42.4765027,26.498506]},"atp":{"id":"7264N_3yK_nlqCETBu-DImeNCNc=","tags":{"ref":"34733","amenity":"post_office","@source_uri":"https://ee.econt.com/services/Nomenclatures/NomenclaturesService.getOffices.json","@spider":"econt_bg","addr:full":"Ямбол ул. Страшимир Кринчев №1 блок 1","addr:housenumber":"1","addr:street":"ул. Страшимир Кринчев","addr:city":"Ямбол","addr:country":"BG","branch":"Ямбол Керханите","phone":"+359 82 527 307","email":"yambol_avtogarabatak@econt.com","opening_hours":"Mo-Fr 09:00-18:00; Sa 09:00-15:00","brand":"Еконт","brand:wikidata":"Q12279603","nsi_id":"4f7c8b-628448"},"coordinates":[42.47668243554538,26.49759976917269]},"dist":76.962,"tags_mismatch":true},{"osm":{"type":"node","id":1845692867,"tags":{"amenity":"post_office","brand":"Еконт","brand:wikidata":"Q12279603","source":"Econt GPS data"},"wikidata":"Q12279603","coordinates":[42.6929617,27.7053498]},"atp":false,"tags_mismatch":false},{"osm":{"type":"node","id":1845692868,"tags":{"amenity":"post_office","branch":"Автогара","brand":"Еконт","brand:wikidata":"Q12279603","source":"Econt GPS data"},"wikidata":"Q12279603","coordinates":[43.2075545,23.5587256]},"atp":{"id":"PjdNUt7AniaiSHbFO7aQOdYDZUs=","tags":{"ref":"301","amenity":"post_office","@source_uri":"https://ee.econt.com/services/Nomenclatures/NomenclaturesService.getOffices.json","@spider":"econt_bg","addr:full":"Враца ул. Васил Кънчов №76","addr:housenumber":"76","addr:street":"ул. Васил Кънчов","addr:city":"Враца","addr:country":"BG","branch":"Враца Автогара","phone":"+359 82 526 990","email":"vraca_avtogara@econt.com","opening_hours":"Mo-Fr 09:00-18:00; Sa 09:00-15:00","brand":"Еконт","brand:wikidata":"Q12279603","nsi_id":"4f7c8b-628448"},"coordinates":[43.207654222936505,23.558361476283082]},"dist":31.526,"tags_mismatch":true},{"osm":{"type":"node","id":1845692869,"tags":{"amenity":"post_office","brand":"Еконт","brand:wikidata":"Q12279603","fixme":"verify existence","source":"Econt GPS data"},"wikidata":"Q12279603","coordinates":[43.7021777,28.0396861]},"atp":{"id":"ErMMz2EZO9sr6LadWlODOMW41ic=","tags":{"ref":"33979","amenity":"post_office","@source_uri":"https://ee.econt.com/services/Nomenclatures/NomenclaturesService.getOffices.json","@spider":"econt_bg","addr:full":"Генерал Тошево ул. Трети Март №9","addr:housenumber":"9","addr:street":"ул. Трети Март","addr:city":"Генерал Тошево","addr:country":"BG","branch":"Генерал Тошево","phone":"+359 82 527 119","email":"generaltoshevo@econt.com","opening_hours":"Mo-Fr 09:00-18:00; Sa 09:00-15:00","brand":"Еконт","brand:wikidata":"Q12279603","nsi_id":"4f7c8b-628448"},"coordinates":[43.70152792640783,28.038750179555464]},"dist":104.311,"tags_mismatch":true},{"osm":{"type":"node","id":1845692870,"tags":{"amenity":"post_office","branch":"Автогара","brand":"Еконт","brand:wikidata":"Q12279603","source":"Econt GPS data"},"wikidata":"Q12279603","coordinates":[43.9849431,22.8740418]},"atp":false,"tags_mismatch":false},{"osm":{"type":"node","id":1845692871,"tags":{"amenity":"post_office","branch":"офис Айтос","brand":"Еконт","brand:wikidata":"Q12279603","source":"Econt GPS data"},"wikidata":"Q12279603","coordinates":[42.70377,27.2537739]},"atp":false,"tags_mismatch":false},{"osm":{"type":"node","id":1845692872,"tags":{"amenity":"post_office","brand":"Еконт","brand:wikidata":"Q12279603","source":"Econt GPS data"},"wikidata":"Q12279603","coordinates":[42.6789709,26.3152152]},"atp":{"id":"NKkz_DYLkxkYx7NYtlDHWFHDZnU=","tags":{"ref":"100","amenity":"post_office","@source_uri":"https://ee.econt.com/services/Nomenclatures/NomenclaturesService.getOffices.json","@spider":"econt_bg","addr:full":"Сливен ул. Генерал Драгомиров №10 К-с Париж вътрешна страна","addr:housenumber":"10","addr:street":"ул. Генерал Драгомиров","addr:city":"Сливен","addr:country":"BG","branch":"Сливен Аксаков","phone":"+359 82 526 805","email":"sliven_aksakov@econt.com","opening_hours":"Mo-Fr 09:00-18:00; Sa 09:00-15:00","brand":"Еконт","brand:wikidata":"Q12279603","nsi_id":"4f7c8b-628448"},"coordinates":[42.67885346379371,26.315577530976974]},"dist":32.37,"tags_mismatch":true},{"osm":{"type":"node","id":1845692873,"tags":{"amenity":"post_office","brand":"Еконт","brand:wikidata":"Q12279603","source":"Econt GPS data"},"wikidata":"Q12279603","coordinates":[42.1487247,24.7705607]},"atp":{"id":"iCsuKGcm2Ak3ZgUuzwom_Q8rf0M=","tags":{"ref":"456","amenity":"post_office","@source_uri":"https://ee.econt.com/services/Nomenclatures/NomenclaturesService.getOffices.json","@spider":"econt_bg","addr:full":"Пловдив Район Централен ул. Арчарица №1","addr:housenumber":"1","addr:street":"ул. Арчарица","addr:city":"Пловдив","addr:country":"BG","branch":"Пловдив Арчарица","phone":"+359 82 527 145","email":"Plovdiv_archarica@econt.com","opening_hours":"Mo-Fr 09:00-19:00; Sa 09:00-15:00","brand":"Еконт","brand:wikidata":"Q12279603","nsi_id":"4f7c8b-628448"},"coordinates":[42.14842725822329,24.770794200017352]},"dist":38.268,"tags_mismatch":true},{"osm":{"type":"node","id":1845692874,"tags":{"addr:street":"бул. Асен Йорданов","amenity":"post_office","branch":"Асен Йорданов","brand":"Еконт","brand:wikidata":"Q12279603","source":"Econt GPS data"},"wikidata":"Q12279603","coordinates":[42.6723931,23.3924458]},"atp":false,"tags_mismatch":false},{"osm":{"type":"node","id":1845692876,"tags":{"amenity":"post_office","brand":"Еконт","brand:wikidata":"Q12279603","source":"Econt GPS data"},"wikidata":"Q12279603","coordinates":[43.1822006,27.89952]},"atp":{"id":"IDN6-IjLo6GEaGQM_3vOv81Biik=","tags":{"ref":"908","amenity":"post_office","@source_uri":"https://ee.econt.com/services/Nomenclatures/NomenclaturesService.getOffices.json","@spider":"econt_bg","addr:full":"Варна кв. Аспарухово ж.к. Дружба №2 блок.2 вх.В (зад училище Христо Ботев)","addr:housenumber":"2","addr:street":"ж.к. Дружба","addr:city":"Варна","addr:country":"BG","branch":"Варна Аспарухово","phone":"+359 82 526 834","email":"varna_asparuhovo@econt.com","opening_hours":"Mo-Fr 09:00-18:00; Sa 09:00-15:00","brand":"Еконт","brand:wikidata":"Q12279603","nsi_id":"4f7c8b-628448"},"coordinates":[43.182362601400406,27.897211067187992]},"dist":188.076,"tags_mismatch":true},{"osm":{"type":"node","id":1845692877,"tags":{"amenity":"post_office","brand":"Еконт","brand:wikidata":"Q12279603","source":"Econt GPS data"},"wikidata":"Q12279603","coordinates":[43.4115513,28.1668404]},"atp":false,"tags_mismatch":false},{"osm":{"type":"node","id":1845692878,"tags":{"addr:city":"Банско","addr:housenumber":"8","addr:postcode":"2770","addr:street":"Васил Кънчев","amenity":"post_office","brand":"Еконт","brand:wikidata":"Q12279603","source":"Econt GPS data"},"wikidata":"Q12279603","coordinates":[41.8439449,23.4848264]},"atp":{"id":"hbMA6vbRGZ6QhTH6Us6sQRM-T9o=","tags":{"ref":"294","amenity":"post_office","@source_uri":"https://ee.econt.com/services/Nomenclatures/NomenclaturesService.getOffices.json","@spider":"econt_bg","addr:full":"Банско ул. Васил Кънчев №8","addr:housenumber":"8","addr:street":"ул. Васил Кънчев","addr:city":"Банско","addr:country":"BG","branch":"Банско","phone":"+359 82 526 875","email":"bansko@econt.com","opening_hours":"Mo-Fr 09:00-18:00; Sa 09:00-15:00","brand":"Еконт","brand:wikidata":"Q12279603","nsi_id":"4f7c8b-628448"},"coordinates":[41.84392321256175,23.48480858521959]},"dist":2.827,"tags_mismatch":true},{"osm":{"type":"node","id":1845692879,"tags":{"amenity":"post_office","brand":"Еконт","brand:wikidata":"Q12279603","source":"Econt GPS data"},"wikidata":"Q12279603","coordinates":[42.5494601,24.8262314]},"atp":false,"tags_mismatch":false},{"osm":{"type":"node","id":1845692880,"tags":{"amenity":"post_office","branch":"Батемберг","brand":"Еконт","brand:wikidata":"Q12279603","source":"Econt GPS data"},"wikidata":"Q12279603","coordinates":[42.2817498,22.6851745]},"atp":{"id":"Os8kCy0r_Hh4A0RkYqnBLvdUeYQ=","tags":{"ref":"370","amenity":"post_office","@source_uri":"https://ee.econt.com/services/Nomenclatures/NomenclaturesService.getOffices.json","@spider":"econt_bg","addr:full":"Кюстендил ул. Александър Батенберг №19","addr:housenumber":"19","addr:street":"ул. Александър Батенберг","addr:city":"Кюстендил","addr:country":"BG","branch":"Кюстендил Батенберг","phone":"+359 78 550 655","email":"kyustendil_batenberg@econt.com","opening_hours":"Mo-Fr 09:00-18:00; Sa 09:00-15:00","brand":"Еконт","brand:wikidata":"Q12279603","nsi_id":"4f7c8b-628448"},"coordinates":[42.28189637296266,22.685414041000378]},"dist":25.573,"tags_mismatch":true},{"osm":{"type":"node","id":1845692882,"tags":{"amenity":"post_office","branch":"Пловдив Беласица","brand":"Еконт","brand:wikidata":"Q12279603","email":"plovdiv_belasica@econt.com","fixme":"exact position inside building","opening_hours":"Mo-Fr 09:00-18:00; Sa 09:00-15:00","phone":"+359 82 527 147"},"wikidata":"Q12279603","coordinates":[42.1389368,24.7579888]},"atp":{"id":"fWy2wmwlgbo6lj0gpaIwG9Bmtzc=","tags":{"ref":"161","amenity":"post_office","@source_uri":"https://ee.econt.com/services/Nomenclatures/NomenclaturesService.getOffices.json","@spider":"econt_bg","addr:full":"Пловдив Район Централен ул. Беласица №49","addr:housenumber":"49","addr:street":"ул. Беласица","addr:city":"Пловдив","addr:country":"BG","branch":"Пловдив Беласица","phone":"+359 82 527 147","email":"plovdiv_belasica@econt.com","opening_hours":"Mo-Fr 09:00-18:00; Sa 09:00-15:00","brand":"Еконт","brand:wikidata":"Q12279603","nsi_id":"4f7c8b-628448"},"coordinates":[42.13892759246215,24.75799433070585]},"dist":1.121,"tags_mismatch":false},{"osm":{"type":"node","id":1845692883,"tags":{"amenity":"post_office","brand":"Еконт","brand:wikidata":"Q12279603","source":"Econt GPS data"},"wikidata":"Q12279603","coordinates":[43.6484536,25.1268295]},"atp":false,"tags_mismatch":false},{"osm":{"type":"node","id":1845692884,"tags":{"amenity":"post_office","brand":"Еконт","brand:wikidata":"Q12279603","source":"Econt GPS data"},"wikidata":"Q12279603","coordinates":[43.5299027,26.518334]},"atp":{"id":"d0bd80H_dKjg03rnqzX_PQ3j0Wg=","tags":{"ref":"169","amenity":"post_office","@source_uri":"https://ee.econt.com/services/Nomenclatures/NomenclaturesService.getOffices.json","@spider":"econt_bg","addr:full":"Разград ул. Осъм №30 блока зад БИЛЛА","addr:housenumber":"30","addr:street":"ул. Осъм","addr:city":"Разград","addr:country":"BG","branch":"Разград Бели Лом","phone":"+359 82 527 164","email":"razgrad_belilom@econt.com","opening_hours":"Mo-Fr 09:00-18:00; Sa 09:00-15:00","brand":"Еконт","brand:wikidata":"Q12279603","nsi_id":"4f7c8b-628448"},"coordinates":[43.53032470292688,26.520861875974905]},"dist":209.124,"tags_mismatch":true},{"osm":{"type":"node","id":1845692885,"tags":{"amenity":"post_office","brand":"Еконт","brand:wikidata":"Q12279603","source":"Econt GPS data","wheelchair":"no"},"wikidata":"Q12279603","coordinates":[42.2156631,24.015677]},"atp":{"id":"vi0Ww2E-BClDfkRCyDLzyNJxyyw=","tags":{"ref":"241","amenity":"post_office","@source_uri":"https://ee.econt.com/services/Nomenclatures/NomenclaturesService.getOffices.json","@spider":"econt_bg","addr:full":"Белово бул. Юндола №3","addr:housenumber":"3","addr:street":"бул. Юндола","addr:city":"Белово","addr:country":"BG","branch":"Белово","phone":"+359 82 526 948","email":"belovo@econt.com","opening_hours":"Mo-Fr 09:00-18:00; Sa 09:00-15:00","brand":"Еконт","brand:wikidata":"Q12279603","nsi_id":"4f7c8b-628448"},"coordinates":[42.21411394839143,24.01768619366851]},"dist":238.855,"tags_mismatch":true},{"osm":{"type":"node","id":1845692886,"tags":{"amenity":"post_office","branch":"Белоградчик","brand":"Еконт","brand:wikidata":"Q12279603","source":"Econt GPS data"},"wikidata":"Q12279603","coordinates":[43.6269747,22.683799]},"atp":{"id":"LXuCT2XmF5l_eLa54dKVFElctmo=","tags":{"ref":"342","amenity":"post_office","@source_uri":"https://ee.econt.com/services/Nomenclatures/NomenclaturesService.getOffices.json","@spider":"econt_bg","addr:full":"Белоградчик бул. Съединение №4","addr:housenumber":"4","addr:street":"бул. Съединение","addr:city":"Белоградчик","addr:country":"BG","branch":"Белоградчик","phone":"+359 82 526 814","email":"belogradchik@econt.com","opening_hours":"Mo-Fr 09:30-18:00; Sa 09:30-15:00","brand":"Еконт","brand:wikidata":"Q12279603","nsi_id":"4f7c8b-628448"},"coordinates":[43.6278929913728,22.68108217981194]},"dist":241.336,"tags_mismatch":true},{"osm":{"type":"node","id":1845692887,"tags":{"amenity":"post_office","brand":"Еконт","brand:wikidata":"Q12279603","source":"Econt GPS data"},"wikidata":"Q12279603","coordinates":[43.239305,23.1272206]},"atp":false,"tags_mismatch":false},{"osm":{"type":"node","id":1845692888,"tags":{"amenity":"post_office","branch":"София Бигла","brand":"Еконт","brand:wikidata":"Q12279603","check_date:opening_hours":"2024-04-23","email":"sofia_bigla@econt.com","opening_hours":"Mo-Fr 08:30-19:00; Sa 08:30-15:00","phone":"+359 2 902 2034"},"wikidata":"Q12279603","coordinates":[42.6711658,23.3273531]},"atp":{"id":"uJenKrVI_Z6Yc1z0FRhkqndgToM=","tags":{"ref":"384","amenity":"post_office","@source_uri":"https://ee.econt.com/services/Nomenclatures/NomenclaturesService.getOffices.json","@spider":"econt_bg","addr:full":"София жк Лозенец ул. Бигла №37","addr:housenumber":"37","addr:street":"ул. Бигла","addr:city":"София","addr:country":"BG","branch":"София Бигла","phone":"+359 2 902 2034","email":"sofia_bigla@econt.com","opening_hours":"Mo-Fr 08:30-19:00; Sa 08:30-15:00","brand":"Еконт","brand:wikidata":"Q12279603","nsi_id":"4f7c8b-628448"},"coordinates":[42.671177500000006,23.327338576617045]},"dist":1.761,"tags_mismatch":false},{"osm":{"type":"node","id":1845692897,"tags":{"amenity":"post_office","branch":"Благоевград","brand":"Еконт","brand:wikidata":"Q12279603","source":"Econt GPS data"},"wikidata":"Q12279603","coordinates":[41.9889778,23.0642769]},"atp":{"id":"T6FDjjy6LMMWOO_uu-FJvX32Dgw=","tags":{"ref":"34522","amenity":"post_office","@source_uri":"https://ee.econt.com/services/Nomenclatures/NomenclaturesService.getOffices.json","@spider":"econt_bg","addr:full":"Благоевград ул. Покровнишко шосе №20","addr:housenumber":"20","addr:street":"ул. Покровнишко шосе","addr:city":"Благоевград","addr:country":"BG","branch":"Благоевград Покровнишко шосе","phone":"+359 73 831 983","email":"blagoevgrad@econt.com","opening_hours":"Mo-Fr 08:00-20:00; Sa 08:00-15:00","brand":"Еконт","brand:wikidata":"Q12279603","nsi_id":"4f7c8b-628448"},"coordinates":[41.98899844403097,23.06462721679688]},"dist":29.044,"tags_mismatch":true},{"osm":{"type":"node","id":1845692904,"tags":{"amenity":"post_office","branch":"Сливен Братя Миладинови","brand":"Еконт","brand:wikidata":"Q12279603","email":"sliven_miladinovi@econt.com","opening_hours":"Mo-Fr 09:00-18:00; Sa 09:00-15:00","phone":"+359 82 527 103","source":"Econt GPS data"},"wikidata":"Q12279603","coordinates":[42.6776494,26.3241784]},"atp":{"id":"AgHnPKAeTcYy6ts9hqZBbXblL9o=","tags":{"ref":"34123","amenity":"post_office","@source_uri":"https://ee.econt.com/services/Nomenclatures/NomenclaturesService.getOffices.json","@spider":"econt_bg","addr:full":"Сливен бул. Братя Миладинови №16","addr:housenumber":"16","addr:street":"бул. Братя Миладинови","addr:city":"Сливен","addr:country":"BG","branch":"Сливен Бр. Миладинови","phone":"+359 82 527 103","email":"sliven_miladinovi@econt.com","opening_hours":"Mo-Fr 09:00-18:00; Sa 09:00-15:00","brand":"Еконт","brand:wikidata":"Q12279603","nsi_id":"4f7c8b-628448"},"coordinates":[42.67776261404982,26.32212525310842]},"dist":168.312,"tags_mismatch":true},{"osm":{"type":"node","id":1845692905,"tags":{"amenity":"post_office","brand":"Еконт","brand:wikidata":"Q12279603","source":"Econt GPS data"},"wikidata":"Q12279603","coordinates":[43.461148,25.7365557]},"atp":{"id":"sFE9EntL3CIodfhIuvMxT93d5Zo=","tags":{"ref":"251","amenity":"post_office","@source_uri":"https://ee.econt.com/services/Nomenclatures/NomenclaturesService.getOffices.json","@spider":"econt_bg","addr:full":"Бяла, Русенско кв. Бяла Русенско ул. Иван Вазов №15","addr:housenumber":"15","addr:street":"ул. Иван Вазов","addr:city":"Бяла, Русенско","addr:country":"BG","branch":"Бяла, Русенско","phone":"+359 81 772 343","email":"biala@econt.com","opening_hours":"Mo-Fr 09:00-18:00; Sa 09:00-15:00","brand":"Еконт","brand:wikidata":"Q12279603","nsi_id":"4f7c8b-628448"},"coordinates":[43.46141815735904,25.736637728558335]},"dist":30.761,"tags_mismatch":true},{"osm":{"type":"node","id":1845692907,"tags":{"amenity":"post_office","brand":"Еконт","brand:wikidata":"Q12279603"},"wikidata":"Q12279603","coordinates":[42.1450719,24.7606522]},"atp":{"id":"df1KaMiTclBeTxF3zSqi2aJ7USE=","tags":{"ref":"258","amenity":"post_office","@source_uri":"https://ee.econt.com/services/Nomenclatures/NomenclaturesService.getOffices.json","@spider":"econt_bg","addr:full":"Пловдив Район Централен ул. Хан Тервел №15","addr:housenumber":"15","addr:street":"ул. Хан Тервел","addr:city":"Пловдив","addr:country":"BG","branch":"Пловдив ВИП","phone":"+359 82 527 146","email":"plovdiv_vip@econt.com","opening_hours":"Mo-Fr 09:00-18:00; Sa 09:00-15:00","brand":"Еконт","brand:wikidata":"Q12279603","nsi_id":"4f7c8b-628448"},"coordinates":[42.145115226593575,24.76059662146109]},"dist":6.649,"tags_mismatch":true},{"osm":{"type":"node","id":1845692908,"tags":{"amenity":"post_office","brand":"Еконт","brand:wikidata":"Q12279603","source":"Econt GPS data"},"wikidata":"Q12279603","coordinates":[42.9198402,24.2560765]},"atp":false,"tags_mismatch":false},{"osm":{"type":"node","id":1845692909,"tags":{"amenity":"post_office","brand":"Еконт","brand:wikidata":"Q12279603","source":"Econt GPS data"},"wikidata":"Q12279603","coordinates":[41.6444214,25.3712756]},"atp":{"id":"CHIP1-ehO0byD-DPnT3YJyFfcOM=","tags":{"ref":"239","amenity":"post_office","@source_uri":"https://ee.econt.com/services/Nomenclatures/NomenclaturesService.getOffices.json","@spider":"econt_bg","addr:full":"Кърджали ул. Екзарх Йосиф №6","addr:housenumber":"6","addr:street":"ул. Екзарх Йосиф","addr:city":"Кърджали","addr:country":"BG","branch":"Кърджали Васил Априлов","phone":"+359 82 527 204","email":"kardjali_vaprilov@econt.com","opening_hours":"Mo-Fr 09:00-18:00; Sa 09:00-15:00","brand":"Еконт","brand:wikidata":"Q12279603","nsi_id":"4f7c8b-628448"},"coordinates":[41.64451696640713,25.371302519730207]},"dist":10.859,"tags_mismatch":true},{"osm":{"type":"node","id":1845692910,"tags":{"amenity":"post_office","brand":"Еконт","brand:wikidata":"Q12279603","source":"Econt GPS data"},"wikidata":"Q12279603","coordinates":[42.497047,26.0108869]},"atp":{"id":"H50KhjlmmzcI480zbIu3pjVpbPY=","tags":{"ref":"271","amenity":"post_office","@source_uri":"https://ee.econt.com/services/Nomenclatures/NomenclaturesService.getOffices.json","@spider":"econt_bg","addr:full":"Нова Загора ул. Васил Левски №66","addr:housenumber":"66","addr:street":"ул. Васил Левски","addr:city":"Нова Загора","addr:country":"BG","branch":"Нова Загора В.Левски","phone":"+359 82 527 233","email":"novazagora_levski@econt.com","opening_hours":"Mo-Fr 09:00-18:00; Sa 09:00-15:00","brand":"Еконт","brand:wikidata":"Q12279603","nsi_id":"4f7c8b-628448"},"coordinates":[42.496689008311186,26.011322976259155]},"dist":53.505,"tags_mismatch":true},{"osm":{"type":"node","id":1845692911,"tags":{"amenity":"post_office","brand":"Еконт","brand:wikidata":"Q12279603","source":"Econt GPS data"},"wikidata":"Q12279603","coordinates":[43.0810085,25.6043046]},"atp":{"id":"YuzJDkw0zqNpk6mTzN0LiB8jnZA=","tags":{"ref":"960","amenity":"post_office","@source_uri":"https://ee.econt.com/services/Nomenclatures/NomenclaturesService.getOffices.json","@spider":"econt_bg","addr:full":"Велико Търново кв. Кольо Фичето ул. Полтава №3Ж","addr:housenumber":"3Ж","addr:street":"ул. Полтава","addr:city":"Велико Търново","addr:country":"BG","branch":"Велико Търново","phone":"+359 62 510 427;+359 62 677 190;+359 62 510 699;+359 62 510 469","email":"vtarnovo_poltava@econt.com","opening_hours":"Mo-Fr 09:00-18:30; Sa 09:00-15:00","brand":"Еконт","brand:wikidata":"Q12279603","nsi_id":"4f7c8b-628448"},"coordinates":[43.08058269371969,25.606249958450782]},"dist":164.936,"tags_mismatch":true},{"osm":{"type":"node","id":1845692912,"tags":{"amenity":"post_office","brand":"Еконт","brand:wikidata":"Q12279603","source":"Econt GPS data"},"wikidata":"Q12279603","coordinates":[42.0250144,23.9934462]},"atp":false,"tags_mismatch":false},{"osm":{"type":"node","id":1845692913,"tags":{"amenity":"post_office","brand":"Еконт","brand:wikidata":"Q12279603","source":"Econt GPS data"},"wikidata":"Q12279603","coordinates":[43.703277,26.263591]},"atp":false,"tags_mismatch":false},{"osm":{"type":"node","id":1845692914,"tags":{"amenity":"post_office","brand":"Еконт","brand:wikidata":"Q12279603","source":"Econt GPS data","wheelchair":"yes"},"wikidata":"Q12279603","coordinates":[42.6981473,27.7057543]},"atp":{"id":"F3l6QHWWhHm02kg0eeUxeR_csyk=","tags":{"ref":"45600","amenity":"post_office","@source_uri":"https://ee.econt.com/services/Nomenclatures/NomenclaturesService.getOffices.json","@spider":"econt_bg","addr:full":"Слънчев бряг кв. Камелия до Автогарата","addr:city":"Слънчев бряг","addr:country":"BG","branch":"Слънчев бряг Автогара","phone":"+359 82 527 253","email":"slanchev_briag_avtogara_@econt.com","opening_hours":"Mo-Fr 09:00-18:00; Sa 09:00-15:00","brand":"Еконт","brand:wikidata":"Q12279603","nsi_id":"4f7c8b-628448"},"coordinates":[42.69620538983323,27.703297917218528]},"dist":294.827,"tags_mismatch":true},{"osm":{"type":"node","id":1845692915,"tags":{"amenity":"post_office","branch":"БЦ Витоша","brand":"Еконт","brand:wikidata":"Q12279603","email":"sofia_bcvitosha@econt.com","opening_hours":"Mo-Fr 08:30-20:30; Sa 08:30-15:00","phone":"+359 82 529 814","source":"Econt GPS data"},"wikidata":"Q12279603","coordinates":[42.6612374,23.3177822]},"atp":{"id":"-GqDMCAEodL1eMcn5ihDN2LLWDw=","tags":{"ref":"984","amenity":"post_office","@source_uri":"https://ee.econt.com/services/Nomenclatures/NomenclaturesService.getOffices.json","@spider":"econt_bg","addr:full":"София кв. Хладилника бул. Черни връх №47","addr:housenumber":"47","addr:street":"бул. Черни връх","addr:city":"София","addr:country":"BG","branch":"София БЦ Витоша","phone":"+359 82 529 814","email":"sofia_bcvitosha@econt.com","opening_hours":"Mo-Fr 08:30-20:30; Sa 08:30-15:00","brand":"Еконт","brand:wikidata":"Q12279603","nsi_id":"4f7c8b-628448"},"coordinates":[42.66132224137996,23.317716618385248]},"dist":10.852,"tags_mismatch":true},{"osm":{"type":"node","id":1845692916,"tags":{"amenity":"post_office","brand":"Еконт","brand:wikidata":"Q12279603","source":"Econt GPS data"},"wikidata":"Q12279603","coordinates":[43.2180091,23.5559754]},"atp":false,"tags_mismatch":false},{"osm":{"type":"node","id":1845692917,"tags":{"amenity":"post_office","branch":"Вълчедръм","brand":"Еконт","brand:wikidata":"Q12279603","source":"Econt GPS data"},"wikidata":"Q12279603","coordinates":[43.6956269,23.4450881]},"atp":false,"tags_mismatch":false},{"osm":{"type":"node","id":1845692918,"tags":{"amenity":"post_office","branch":"Върбица","brand":"Еконт","brand:wikidata":"Q12279603","source":"Econt GPS data"},"wikidata":"Q12279603","coordinates":[42.9931195,26.6716815]},"atp":{"id":"PI-9jd4rKGUK5d-pa30xdBCU1gQ=","tags":{"ref":"100023147","amenity":"post_office","@source_uri":"https://ee.econt.com/services/Nomenclatures/NomenclaturesService.getOffices.json","@spider":"econt_bg","addr:full":"Мобилна пощенска станция - гр. Върбица, ул. Септемврийско въстание 52","addr:city":"Върбица","addr:country":"BG","branch":"Мобилен офис (Върбица Мобилна пощенска станция - гр. Върбица, ул. Септемврийско въстание 52)","phone":"+359 87 694 8765","email":"veliki_preslav@econt.com","opening_hours":"Mo-Fr 13:30-14:00; Sa 12:20-12:30","brand":"Еконт","brand:wikidata":"Q12279603","nsi_id":"4f7c8b-628448"},"coordinates":[42.994036,26.671901]},"dist":103.462,"tags_mismatch":true},{"osm":{"type":"node","id":1845692920,"tags":{"amenity":"post_office","branch":"Гара Искър","brand":"Еконт","brand:wikidata":"Q12279603","source":"Econt GPS data"},"wikidata":"Q12279603","coordinates":[42.6587278,23.4128086]},"atp":{"id":"r1_N6YEaqi8ono6FdK2tQbRHx_c=","tags":{"ref":"369","amenity":"post_office","@source_uri":"https://ee.econt.com/services/Nomenclatures/NomenclaturesService.getOffices.json","@spider":"econt_bg","addr:full":"София ул. Мюнхен №14","addr:housenumber":"14","addr:street":"ул. Мюнхен","addr:city":"София","addr:country":"BG","branch":"София Гара Искър","phone":"+359 82 526 787","email":"sofia_garaiskar@econt.com","opening_hours":"Mo-Fr 09:00-19:00; Sa 09:00-15:00","brand":"Еконт","brand:wikidata":"Q12279603","nsi_id":"4f7c8b-628448"},"coordinates":[42.658255964954456,23.411922083137338]},"dist":89.487,"tags_mismatch":true},{"osm":{"type":"node","id":1845692922,"tags":{"addr:housenumber":"2","addr:street":"Инж. Борислав Огойски","amenity":"post_office","branch":"Горна Баня","brand":"Еконт","brand:wikidata":"Q12279603","contact:phone":"+359 87 992 2357","opening_hours":"Mo-Fr 09:00-18:00; Sa 09:00-13:00"},"wikidata":"Q12279603","coordinates":[42.6733872,23.2427424]},"atp":{"id":"pudZ20qNtUCuOs0vg7YJt9LW5FE=","tags":{"ref":"34033","amenity":"post_office","@source_uri":"https://ee.econt.com/services/Nomenclatures/NomenclaturesService.getOffices.json","@spider":"econt_bg","addr:full":"София кв. Горна Баня ул. Инж. Борислав Огойски №2","addr:housenumber":"2","addr:street":"ул. Инж. Борислав Огойски","addr:city":"София","addr:country":"BG","branch":"София Горна баня","phone":"+359 82 526 958","email":"sofia_gornabania@econt.com","opening_hours":"Mo-Fr 09:00-18:30; Sa 09:00-15:00","brand":"Еконт","brand:wikidata":"Q12279603","nsi_id":"4f7c8b-628448"},"coordinates":[42.67446115782505,23.243136326389276]},"dist":123.685,"tags_mismatch":true},{"osm":{"type":"node","id":1845692923,"tags":{"amenity":"post_office","branch":"Горна Оряховица","brand":"Еконт","brand:wikidata":"Q12279603","wheelchair":"yes"},"wikidata":"Q12279603","coordinates":[43.1223634,25.692521]},"atp":{"id":"h4DgP0NB5P5tl3uHxBKJAhjcUAc=","tags":{"ref":"733","amenity":"post_office","@source_uri":"https://ee.econt.com/services/Nomenclatures/NomenclaturesService.getOffices.json","@spider":"econt_bg","addr:full":"Горна Оряховица ул. Елена Грънчарова №10А над офис А1","addr:housenumber":"10А","addr:street":"ул. Елена Грънчарова","addr:city":"Горна Оряховица","addr:country":"BG","branch":"Горна Оряховица Общината","phone":"+359 82 526 997","email":"gosheinovo@econt.com","opening_hours":"Mo-Fr 09:00-18:00; Sa 09:00-15:00","brand":"Еконт","brand:wikidata":"Q12279603","nsi_id":"4f7c8b-628448"},"coordinates":[43.1232641,25.6917243]},"dist":119.213,"tags_mismatch":true},{"osm":{"type":"node","id":1845692924,"tags":{"amenity":"post_office","brand":"Еконт","brand:wikidata":"Q12279603","source":"Econt GPS data"},"wikidata":"Q12279603","coordinates":[41.5707142,23.7226858]},"atp":false,"tags_mismatch":false},{"osm":{"type":"node","id":1845692925,"tags":{"amenity":"post_office","brand":"Еконт","brand:wikidata":"Q12279603","source":"Econt GPS data"},"wikidata":"Q12279603","coordinates":[43.8483358,25.9565172]},"atp":{"id":"AeBEhYmS5Hj8cdp2f23Wr3RviP8=","tags":{"ref":"962","amenity":"post_office","@source_uri":"https://ee.econt.com/services/Nomenclatures/NomenclaturesService.getOffices.json","@spider":"econt_bg","addr:full":"Русе ул. Хан Крум №16","addr:housenumber":"16","addr:street":"ул. Хан Крум","addr:city":"Русе","addr:country":"BG","branch":"Русе Хан Крум","phone":"+359 82 526 901","email":"ruse_hankrum@econt.com","opening_hours":"Mo-Fr 09:00-18:30; Sa 09:00-15:00","brand":"Еконт","brand:wikidata":"Q12279603","nsi_id":"4f7c8b-628448"},"coordinates":[43.846692330227114,25.95577890818836]},"dist":192.097,"tags_mismatch":true},{"osm":{"type":"node","id":1845692927,"tags":{"amenity":"post_office","branch":"София Гюешево","brand":"Еконт","brand:wikidata":"Q12279603","email":"sf_giueshevo@econt.com","opening_hours":"Mo-Fr 09:00-19:00; Sa 09:00-15:00","phone":"+359 82 527 267"},"wikidata":"Q12279603","coordinates":[42.6905075,23.2941719]},"atp":{"id":"1C1o1MKV2-_eN-3raE5tOJ9SzSI=","tags":{"ref":"33990","amenity":"post_office","@source_uri":"https://ee.econt.com/services/Nomenclatures/NomenclaturesService.getOffices.json","@spider":"econt_bg","addr:full":"София жк Сердика ул. Гюешево №83","addr:housenumber":"83","addr:street":"ул. Гюешево","addr:city":"София","addr:country":"BG","branch":"София Гюешево БЦ Сердика","phone":"+359 82 527 267","email":"sf_giueshevo@econt.com","opening_hours":"Mo-Fr 09:00-19:00; Sa 09:00-15:00","brand":"Еконт","brand:wikidata":"Q12279603","nsi_id":"4f7c8b-628448"},"coordinates":[42.69046524617058,23.29413663627382]},"dist":5.512,"tags_mismatch":true},{"osm":{"type":"node","id":1845692929,"tags":{"amenity":"post_office","brand":"Еконт","brand:wikidata":"Q12279603","source":"Econt GPS data"},"wikidata":"Q12279603","coordinates":[43.2194936,27.5617901]},"atp":false,"tags_mismatch":false},{"osm":{"type":"node","id":1845692930,"tags":{"addr:city":"София","addr:housenumber":"15","addr:street":"Тинтява","amenity":"post_office","branch":"Дианабад","brand":"Еконт","brand:wikidata":"Q12279603","opening_hours":"Mo-Fr 09:00-18:00; Sa 09:00-15:00","phone":"+359 82 529 824"},"wikidata":"Q12279603","coordinates":[42.6669193,23.3518897]},"atp":{"id":"WOKyveQArHkMKXodtf9wFdfChO8=","tags":{"ref":"468","amenity":"post_office","@source_uri":"https://ee.econt.com/services/Nomenclatures/NomenclaturesService.getOffices.json","@spider":"econt_bg","addr:full":"София жк Дианабад ул. Тинтява №15","addr:housenumber":"15","addr:street":"ул. Тинтява","addr:city":"София","addr:country":"BG","branch":"София Дианабад","phone":"+359 82 529 824","email":"sofia_dianabad@econt.com","opening_hours":"Mo-Fr 09:00-18:00; Sa 09:00-15:00","brand":"Еконт","brand:wikidata":"Q12279603","nsi_id":"4f7c8b-628448"},"coordinates":[42.66671909662252,23.35111928182955]},"dist":66.809,"tags_mismatch":true},{"osm":{"type":"node","id":1845692931,"tags":{"amenity":"post_office","brand":"Еконт","brand:wikidata":"Q12279603","source":"Econt GPS data"},"wikidata":"Q12279603","coordinates":[43.5775716,27.8277542]},"atp":{"id":"HKSFAoak77lRGD9uv8zcYgAmCW0=","tags":{"ref":"1018","amenity":"post_office","@source_uri":"https://ee.econt.com/services/Nomenclatures/NomenclaturesService.getOffices.json","@spider":"econt_bg","addr:full":"Добрич бул. Двадесет и пети септември №45","addr:housenumber":"45","addr:street":"бул. Двадесет и пети септември","addr:city":"Добрич","addr:country":"BG","branch":"Добрич Родина","phone":"+359 82 527 134","email":"dobrich_rodina@econt.com","opening_hours":"Mo-Fr 09:00-18:00; Sa 09:00-15:00","brand":"Еконт","brand:wikidata":"Q12279603","nsi_id":"4f7c8b-628448"},"coordinates":[43.57787122496213,27.827700387208434]},"dist":33.598,"tags_mismatch":true},{"osm":{"type":"node","id":1845692932,"tags":{"amenity":"post_office","brand":"Еконт","brand:wikidata":"Q12279603","source":"Econt GPS data"},"wikidata":"Q12279603","coordinates":[42.9919799,27.718855]},"atp":{"id":"acSNoF57P5kyp5cx4N7k-JZZvxI=","tags":{"ref":"100000175","amenity":"post_office","@source_uri":"https://ee.econt.com/services/Nomenclatures/NomenclaturesService.getOffices.json","@spider":"econt_bg","addr:full":"мобилна пощенска станция - гр. Долни Чифлик, ул. Тича 4","addr:city":"Долни Чифлик","addr:country":"BG","branch":"Мобилен офис (Долни Чифлик мобилна пощенска станция - гр. Долни Чифлик, ул. Тича 4)","phone":"+359 88 567 7171","email":"dolnichiflik@econt.com","opening_hours":"Mo-Fr 12:30-13:30; Sa 12:30-13:00","brand":"Еконт","brand:wikidata":"Q12279603","nsi_id":"4f7c8b-628448"},"coordinates":[42.991451,27.719294]},"dist":68.801,"tags_mismatch":true},{"osm":{"type":"node","id":1845692933,"tags":{"amenity":"post_office","branch":"Доспат","brand":"Еконт","brand:wikidata":"Q12279603","email":"dospat@econt.com","opening_hours":"Mo-Fr 09:00-18:00; Sa 09:00-15:00","phone":"+359 82 527 120"},"wikidata":"Q12279603","coordinates":[41.648448,24.1592075]},"atp":{"id":"dqeCGNzHqfPBn93pAMJJbybsS8M=","tags":{"ref":"282","amenity":"post_office","@source_uri":"https://ee.econt.com/services/Nomenclatures/NomenclaturesService.getOffices.json","@spider":"econt_bg","addr:full":"Доспат ул. Тракия №10","addr:housenumber":"10","addr:street":"ул. Тракия","addr:city":"Доспат","addr:country":"BG","branch":"Доспат","phone":"+359 82 527 120","email":"dospat@econt.com","opening_hours":"Mo-Fr 09:00-18:00; Sa 09:00-15:00","brand":"Еконт","brand:wikidata":"Q12279603","nsi_id":"4f7c8b-628448"},"coordinates":[41.648653251053645,24.159165808904163]},"dist":23.084,"tags_mismatch":false},{"osm":{"type":"node","id":1845692934,"tags":{"amenity":"post_office","branch":"Дружба - Илия Бешков","brand":"Еконт","brand:wikidata":"Q12279603"},"wikidata":"Q12279603","coordinates":[42.6570971,23.4010816]},"atp":{"id":"8icVBxmyYmHh5dvxdLah0fYC458=","tags":{"ref":"979","amenity":"post_office","@source_uri":"https://ee.econt.com/services/Nomenclatures/NomenclaturesService.getOffices.json","@spider":"econt_bg","addr:full":"София жк Дружба-2 ул. Илия Бешков №12 до м-н Мания","addr:housenumber":"12","addr:street":"ул. Илия Бешков","addr:city":"София","addr:country":"BG","branch":"София Дружба Илия Бешков","phone":"+359 82 527 261","email":"sofia_druzhbaecont@econt.com","opening_hours":"Mo-Fr 09:00-19:30; Sa 09:00-15:00","brand":"Еконт","brand:wikidata":"Q12279603","nsi_id":"4f7c8b-628448"},"coordinates":[42.656945467199314,23.401008542327872]},"dist":17.888,"tags_mismatch":true},{"osm":{"type":"node","id":1845692935,"tags":{"amenity":"post_office","brand":"Еконт","brand:wikidata":"Q12279603","source":"Econt GPS data"},"wikidata":"Q12279603","coordinates":[43.8313196,25.9663034]},"atp":false,"tags_mismatch":false},{"osm":{"type":"node","id":1845692937,"tags":{"amenity":"post_office","brand":"Еконт","brand:wikidata":"Q12279603","source":"Econt GPS data"},"wikidata":"Q12279603","coordinates":[43.8188846,27.1400081]},"atp":{"id":"5Toox1PY6IrNuteSIpmzmSYByso=","tags":{"ref":"165","amenity":"post_office","@source_uri":"https://ee.econt.com/services/Nomenclatures/NomenclaturesService.getOffices.json","@spider":"econt_bg","addr:full":"Дулово ул. Петко Рачев Славейков №2А","addr:housenumber":"2А","addr:street":"ул. Петко Рачев Славейков","addr:city":"Дулово","addr:country":"BG","branch":"Дулово","phone":"+359 82 527 132","email":"dulovo@econt.com","opening_hours":"Mo-Fr 09:00-18:00; Sa 09:00-15:00","brand":"Еконт","brand:wikidata":"Q12279603","nsi_id":"4f7c8b-628448"},"coordinates":[43.81885136398635,27.14020883045207]},"dist":16.523,"tags_mismatch":true},{"osm":{"type":"node","id":1845692938,"tags":{"amenity":"post_office","brand":"Еконт","brand:wikidata":"Q12279603","source":"Econt GPS data"},"wikidata":"Q12279603","coordinates":[42.2636611,23.110802]},"atp":false,"tags_mismatch":false},{"osm":{"type":"node","id":1845692939,"tags":{"amenity":"post_office","branch":"Еленово","brand":"Еконт","brand:wikidata":"Q12279603","source":"Econt GPS data"},"wikidata":"Q12279603","coordinates":[42.0051606,23.1045938]},"atp":false,"tags_mismatch":false},{"osm":{"type":"node","id":1845692940,"tags":{"amenity":"post_office","branch":"Елхово","brand":"Еконт","brand:wikidata":"Q12279603","source":"Econt GPS data"},"wikidata":"Q12279603","coordinates":[42.1720205,26.5698879]},"atp":false,"tags_mismatch":false},{"osm":{"type":"node","id":1845692950,"tags":{"amenity":"post_office","brand":"Еконт","brand:wikidata":"Q12279603","source":"Econt GPS data"},"wikidata":"Q12279603","coordinates":[42.4139578,25.6000972]},"atp":{"id":"-uPmkuSHKSq49-Anyd645ppKx1E=","tags":{"ref":"798","amenity":"post_office","@source_uri":"https://ee.econt.com/services/Nomenclatures/NomenclaturesService.getOffices.json","@spider":"econt_bg","addr:full":"Стара Загора бул. Цар Симеон Велики №00 до м-н Зора","addr:housenumber":"00","addr:street":"бул. Цар Симеон Велики","addr:city":"Стара Загора","addr:country":"BG","branch":"Стара Загора кв.Железник","phone":"+359 82 526 716","email":"stz_jeleznik@econt.com","opening_hours":"Mo-Fr 09:00-18:00; Sa 09:00-15:00","brand":"Еконт","brand:wikidata":"Q12279603","nsi_id":"4f7c8b-628448"},"coordinates":[42.41447460019532,25.60049845870016]},"dist":66.237,"tags_mismatch":true},{"osm":{"type":"node","id":1845692956,"tags":{"addr:city":"София","addr:housenumber":"40","addr:street":"бул. Овча купел","amenity":"post_office","branch":"Житница","brand":"Еконт","brand:wikidata":"Q12279603","source":"Econt GPS data"},"wikidata":"Q12279603","coordinates":[42.6826906,23.271798]},"atp":false,"tags_mismatch":false},{"osm":{"type":"node","id":1845692957,"tags":{"amenity":"post_office","branch":"Запад","brand":"Еконт","brand:wikidata":"Q12279603","source":"Econt GPS data"},"wikidata":"Q12279603","coordinates":[42.0147816,23.0849735]},"atp":{"id":"Ls6eQMv6Yv4gjtdRdSZSs3DBep0=","tags":{"ref":"34523","amenity":"post_office","@source_uri":"https://ee.econt.com/services/Nomenclatures/NomenclaturesService.getOffices.json","@spider":"econt_bg","addr:full":"Благоевград ж.к. Запад ул. Свети Свети Кирил и Методий №31","addr:housenumber":"31","addr:street":"ул. Свети Свети Кирил и Методий","addr:city":"Благоевград","addr:country":"BG","branch":"Благоевград Запад","phone":"+359 82 526 799","email":"blagoevgrad_zapad@econt.com","opening_hours":"Mo-Fr 09:00-18:00; Sa 09:00-15:00","brand":"Еконт","brand:wikidata":"Q12279603","nsi_id":"4f7c8b-628448"},"coordinates":[42.014647396333075,23.086886296958944]},"dist":158.728,"tags_mismatch":true},{"osm":{"type":"node","id":1845692958,"tags":{"addr:city":"Варна","addr:postcode":"9000","amenity":"post_office","branch":"Западна промишлена зона","brand":"Еконт","brand:wikidata":"Q12279603","source":"Econt GPS data"},"wikidata":"Q12279603","coordinates":[43.2192234,27.8639524]},"atp":{"id":"SMDh_Nw6Q6VdvDethwJK4Pqb_TQ=","tags":{"ref":"34183","amenity":"post_office","@source_uri":"https://ee.econt.com/services/Nomenclatures/NomenclaturesService.getOffices.json","@spider":"econt_bg","addr:full":"Варна кв. Западна Промишлена Зона ул. Перла №20 до завод Метал","addr:housenumber":"20","addr:street":"ул. Перла","addr:city":"Варна","addr:country":"BG","branch":"Варна - Западна промишлена зона","phone":"+359 82 527 342","email":"varna_zapadnapromishlenazona@econt.com","opening_hours":"Mo-Fr 09:00-18:00; Sa 09:00-15:00","brand":"Еконт","brand:wikidata":"Q12279603","nsi_id":"4f7c8b-628448"},"coordinates":[43.219281025374684,27.863857389345164]},"dist":10.017,"tags_mismatch":true},{"osm":{"type":"node","id":1845692960,"tags":{"amenity":"post_office","brand":"Еконт","brand:wikidata":"Q12279603","source":"Econt GPS data"},"wikidata":"Q12279603","coordinates":[41.3803863,25.0984215]},"atp":{"id":"aEmWNhstSygnubstDj09JmXMmio=","tags":{"ref":"160","amenity":"post_office","@source_uri":"https://ee.econt.com/services/Nomenclatures/NomenclaturesService.getOffices.json","@spider":"econt_bg","addr:full":"Златоград ул. Стефан Стамболов №2А","addr:housenumber":"2А","addr:street":"ул. Стефан Стамболов","addr:city":"Златоград","addr:country":"BG","branch":"Златоград","phone":"+359 82 526 929","email":"zlatograd@econt.com","opening_hours":"Mo-Fr 09:00-18:00; Sa 09:00-15:00","brand":"Еконт","brand:wikidata":"Q12279603","nsi_id":"4f7c8b-628448"},"coordinates":[41.38183524526885,25.09273880786508]},"dist":500.75,"tags_mismatch":true},{"osm":{"type":"node","id":1845692961,"tags":{"amenity":"post_office","branch":"Изгрев","brand":"Еконт","brand:wikidata":"Q12279603","email":"peshtera_izgrev@econt.com","opening_hours":"Mo-Fr 09:00-18:00; Sa 09:00-15:00","phone":"+359 82 526 867"},"wikidata":"Q12279603","coordinates":[42.0354054,24.3067467]},"atp":false,"tags_mismatch":false},{"osm":{"type":"node","id":1845692962,"tags":{"amenity":"post_office","branch":"Изгрев","brand":"Еконт","brand:wikidata":"Q12279603","source":"Econt GPS data"},"wikidata":"Q12279603","coordinates":[42.5219124,27.4631175]},"atp":{"id":"u-b7v2_ac2ryQnjHsN_RyXXbekM=","tags":{"ref":"484","amenity":"post_office","@source_uri":"https://ee.econt.com/services/Nomenclatures/NomenclaturesService.getOffices.json","@spider":"econt_bg","addr:full":"Бургас ж.к. Изгрев блок.197 партер","addr:city":"Бургас","addr:country":"BG","branch":"Бургас Изгрев","phone":"+359 82 526 846","email":"bourgas_izgrev@econt.com","opening_hours":"Mo-Fr 09:00-18:30; Sa 09:00-15:00","brand":"Еконт","brand:wikidata":"Q12279603","nsi_id":"4f7c8b-628448"},"coordinates":[42.523293662900464,27.45877410318134]},"dist":387.672,"tags_mismatch":true},{"osm":{"type":"node","id":1845692963,"tags":{"amenity":"post_office","branch":"Изток","brand":"Еконт","brand:wikidata":"Q12279603"},"wikidata":"Q12279603","coordinates":[42.6040996,23.10893]},"atp":false,"tags_mismatch":false},{"osm":{"type":"node","id":1845692964,"tags":{"addr:city":"София","addr:housenumber":"3","addr:street":"Петър Панайотов","amenity":"post_office","branch":"Илиянци База 1","brand":"Еконт","brand:wikidata":"Q12279603","opening_hours":"Mo-Sa 09:00-19:00; Su 09:00-16:00","phone":"+359 2 902 2013"},"wikidata":"Q12279603","coordinates":[42.7396753,23.3132565]},"atp":{"id":"ixvPQjkGxw4BwNUb_aNc0E0RSdg=","tags":{"ref":"200","amenity":"post_office","@source_uri":"https://ee.econt.com/services/Nomenclatures/NomenclaturesService.getOffices.json","@spider":"econt_bg","addr:full":"София кв. Илиянци ул. Петър Панайотов №3","addr:housenumber":"3","addr:street":"ул. Петър Панайотов","addr:city":"София","addr:country":"BG","branch":"София Илиянци - База 1","phone":"+359 2 902 2013","email":"sofia_ilianci@econt.com","opening_hours":"Mo-Fr 09:00-19:00; Sa 09:00-15:00","brand":"Еконт","brand:wikidata":"Q12279603","nsi_id":"4f7c8b-628448"},"coordinates":[42.73965003909828,23.313306193162553]},"dist":4.936,"tags_mismatch":true},{"osm":{"type":"node","id":1845692966,"tags":{"addr:city":"Ямбол","addr:housenumber":"2","addr:postcode":"8600","addr:street":"Срем","amenity":"post_office","branch":"офис Искър","brand":"Еконт","brand:wikidata":"Q12279603","opening_hours":"Mo-Fr 09:00-18:00; Sa 09:00-15:00"},"wikidata":"Q12279603","coordinates":[42.4807824,26.5139004]},"atp":{"id":"AX0JV9PS6rhvxwbFWPXNTafRnAI=","tags":{"ref":"34787","amenity":"post_office","@source_uri":"https://ee.econt.com/services/Nomenclatures/NomenclaturesService.getOffices.json","@spider":"econt_bg","addr:full":"Ямбол ул. Срем №2 до старата автогара","addr:housenumber":"2","addr:street":"ул. Срем","addr:city":"Ямбол","addr:country":"BG","branch":"Ямбол Искър","phone":"+359 82 527 324","email":"yambol_iskar@econt.com","opening_hours":"Mo-Fr 09:00-18:00; Sa 09:00-15:00","brand":"Еконт","brand:wikidata":"Q12279603","nsi_id":"4f7c8b-628448"},"coordinates":[42.4808209,26.5138844]},"dist":4.478,"tags_mismatch":true},{"osm":{"type":"node","id":1845692967,"tags":{"amenity":"post_office","branch":"Исперих","brand":"Еконт","brand:wikidata":"Q12279603"},"wikidata":"Q12279603","coordinates":[43.7136241,26.8321251]},"atp":false,"tags_mismatch":false},{"osm":{"type":"node","id":1845692968,"tags":{"amenity":"post_office","brand":"Еконт","brand:wikidata":"Q12279603","source":"Econt GPS data"},"wikidata":"Q12279603","coordinates":[42.4415905,23.8137403]},"atp":false,"tags_mismatch":false},{"osm":{"type":"node","id":1845692969,"tags":{"amenity":"post_office","brand":"Еконт","brand:wikidata":"Q12279603","source":"Econt GPS data"},"wikidata":"Q12279603","coordinates":[43.8836009,26.0253621]},"atp":false,"tags_mismatch":false},{"osm":{"type":"node","id":1845692970,"tags":{"amenity":"post_office","brand":"Еконт","brand:wikidata":"Q12279603","source":"Econt GPS data"},"wikidata":"Q12279603","coordinates":[43.4340002,28.335363]},"atp":false,"tags_mismatch":false},{"osm":{"type":"node","id":1845692971,"tags":{"amenity":"post_office","brand":"Еконт","brand:wikidata":"Q12279603","source":"Econt GPS data"},"wikidata":"Q12279603","coordinates":[42.6152105,25.4181645]},"atp":{"id":"T1kNFl_UlKIFB6Dqg3yaNNYtluo=","tags":{"ref":"108","amenity":"post_office","@source_uri":"https://ee.econt.com/services/Nomenclatures/NomenclaturesService.getOffices.json","@spider":"econt_bg","addr:full":"Казанлък бул. Княз Александър Батенберг №221 до ПРП","addr:housenumber":"221","addr:street":"бул. Княз Александър Батенберг","addr:city":"Казанлък","addr:country":"BG","branch":"Казанлък Склад Батенберг","phone":"+359 82 526 897","email":"kazanlak_batenberg@econt.com","opening_hours":"Mo-Fr 09:00-18:00; Sa 09:00-15:00","brand":"Еконт","brand:wikidata":"Q12279603","nsi_id":"4f7c8b-628448"},"coordinates":[42.61504222614439,25.418076132585128]},"dist":20.06,"tags_mismatch":true},{"osm":{"type":"node","id":1845692972,"tags":{"amenity":"post_office","brand":"Еконт","brand:wikidata":"Q12279603","source":"Econt GPS data"},"wikidata":"Q12279603","coordinates":[42.6179113,25.3901166]},"atp":false,"tags_mismatch":false},{"osm":{"type":"node","id":1845692973,"tags":{"amenity":"post_office","brand":"Еконт","brand:wikidata":"Q12279603","source":"Econt GPS data"},"wikidata":"Q12279603","coordinates":[42.033301,23.9896285]},"atp":false,"tags_mismatch":false},{"osm":{"type":"node","id":1845692974,"tags":{"amenity":"post_office","brand":"Еконт","brand:wikidata":"Q12279603","source":"Econt GPS data"},"wikidata":"Q12279603","coordinates":[42.5635908,27.2960969]},"atp":false,"tags_mismatch":false},{"osm":{"type":"node","id":1845692975,"tags":{"amenity":"post_office","brand":"Еконт","brand:wikidata":"Q12279603","source":"Econt GPS data"},"wikidata":"Q12279603","coordinates":[42.1859726,24.3281074]},"atp":{"id":"2y_NOs_7T0jmP1I14sTEDyjPfO0=","tags":{"ref":"1040","amenity":"post_office","@source_uri":"https://ee.econt.com/services/Nomenclatures/NomenclaturesService.getOffices.json","@spider":"econt_bg","addr:full":"Пазарджик кв. Вароша бул. България №55","addr:housenumber":"55","addr:street":"бул. България","addr:city":"Пазарджик","addr:country":"BG","branch":"Пазарджик Канала","phone":"+359 82 529 816","email":"pazardjik_kanala@econt.com","opening_hours":"Mo-Fr 09:00-18:00; Sa 09:00-15:00","brand":"Еконт","brand:wikidata":"Q12279603","nsi_id":"4f7c8b-628448"},"coordinates":[42.1871281184099,24.326008809509293]},"dist":215.419,"tags_mismatch":true},{"osm":{"type":"node","id":1845692977,"tags":{"amenity":"post_office","brand":"Еконт","brand:wikidata":"Q12279603","source":"Econt GPS data"},"wikidata":"Q12279603","coordinates":[42.8895081,24.7095079]},"atp":{"id":"020vInttxW9Ph8jE-dxyFhycDEI=","tags":{"ref":"482","amenity":"post_office","@source_uri":"https://ee.econt.com/services/Nomenclatures/NomenclaturesService.getOffices.json","@spider":"econt_bg","addr:full":"Троян Троян ул. Кирил и Методий №17 срещу Държавно Горско Стопанство","addr:housenumber":"17","addr:street":"ул. Кирил и Методий","addr:city":"Троян","addr:country":"BG","branch":"Троян Каравелов","phone":"+359 82 526 888","email":"troyan_karavelov@econt.com","opening_hours":"Mo-Fr 09:00-18:00; Sa 09:00-15:00","brand":"Еконт","brand:wikidata":"Q12279603","nsi_id":"4f7c8b-628448"},"coordinates":[42.889515261449304,24.709533821148646]},"dist":2.257,"tags_mismatch":true},{"osm":{"type":"node","id":1845692979,"tags":{"amenity":"post_office","brand":"Еконт","brand:wikidata":"Q12279603","source":"Econt GPS data"},"wikidata":"Q12279603","coordinates":[42.6487511,26.9851176]},"atp":false,"tags_mismatch":false},{"osm":{"type":"node","id":1845692981,"tags":{"amenity":"post_office","brand":"Еконт","brand:wikidata":"Q12279603","source":"Econt GPS data"},"wikidata":"Q12279603","coordinates":[41.3290502,25.364889]},"atp":{"id":"p2vgrvdD24t1gnKxEAbjVGnPeFw=","tags":{"ref":"206","amenity":"post_office","@source_uri":"https://ee.econt.com/services/Nomenclatures/NomenclaturesService.getOffices.json","@spider":"econt_bg","addr:full":"Кирково ул. Димитър Благоев №23","addr:housenumber":"23","addr:street":"ул. Димитър Благоев","addr:city":"Кирково","addr:country":"BG","branch":"Кирково","phone":"+359 82 527 189","email":"kirkovo@econt.com","opening_hours":"Mo-Fr 09:00-18:00; Sa 09:00-15:00","brand":"Еконт","brand:wikidata":"Q12279603","nsi_id":"4f7c8b-628448"},"coordinates":[41.32919848980892,25.364807352743917]},"dist":17.843,"tags_mismatch":true},{"osm":{"type":"node","id":1845692982,"tags":{"amenity":"post_office","brand":"Еконт","brand:wikidata":"Q12279603","source":"Econt GPS data"},"wikidata":"Q12279603","coordinates":[42.6802949,26.3060018]},"atp":{"id":"p-WJkx9XlN5l3ZrnE97xylLy3UE=","tags":{"ref":"625","amenity":"post_office","@source_uri":"https://ee.econt.com/services/Nomenclatures/NomenclaturesService.getOffices.json","@spider":"econt_bg","addr:full":"Сливен кв. Клуцохор ул. Хан Крум №43","addr:housenumber":"43","addr:street":"ул. Хан Крум","addr:city":"Сливен","addr:country":"BG","branch":"Сливен Клуцохор","phone":"+359 82 526 953","email":"sliven_klucohor@econt.com","opening_hours":"Mo-Fr 09:00-18:00; Sa 09:00-15:00","brand":"Еконт","brand:wikidata":"Q12279603","nsi_id":"4f7c8b-628448"},"coordinates":[42.67833786063314,26.30382042507265]},"dist":281.341,"tags_mismatch":true},{"osm":{"type":"node","id":1845692983,"tags":{"amenity":"post_office","brand":"Еконт","brand:wikidata":"Q12279603","source":"Econt GPS data"},"wikidata":"Q12279603","coordinates":[43.4931976,24.0758548]},"atp":false,"tags_mismatch":false},{"osm":{"type":"node","id":1845692984,"tags":{"amenity":"post_office","brand":"Еконт","brand:wikidata":"Q12279603","source":"Econt GPS data"},"wikidata":"Q12279603","coordinates":[43.7770198,23.7274042]},"atp":{"id":"iWVYTTnmBun3gexVZ_S27W848vo=","tags":{"ref":"73","amenity":"post_office","@source_uri":"https://ee.econt.com/services/Nomenclatures/NomenclaturesService.getOffices.json","@spider":"econt_bg","addr:full":"Козлодуй Търговска №11","addr:housenumber":"11","addr:street":"Търговска","addr:city":"Козлодуй","addr:country":"BG","branch":"Козлодуй Търговска","phone":"+359 82 526 708","email":"kozloduy@econt.com","opening_hours":"Mo-Fr 09:00-18:00; Sa 09:00-15:00","brand":"Еконт","brand:wikidata":"Q12279603","nsi_id":"4f7c8b-628448"},"coordinates":[43.775981733092976,23.727641383738245]},"dist":116.988,"tags_mismatch":true},{"osm":{"type":"node","id":1845692986,"tags":{"amenity":"post_office","branch":"Кончето","brand":"Еконт","brand:wikidata":"Q12279603","source":"Econt GPS data"},"wikidata":"Q12279603","coordinates":[42.0209663,23.0937335]},"atp":false,"tags_mismatch":false},{"osm":{"type":"node","id":1845692987,"tags":{"amenity":"post_office","brand":"Еконт","brand:wikidata":"Q12279603","source":"Econt GPS data"},"wikidata":"Q12279603","coordinates":[42.3089009,23.8569337]},"atp":{"id":"pvO07ketBCUd3KBU8Z9t_Zp53uc=","tags":{"ref":"515","amenity":"post_office","@source_uri":"https://ee.econt.com/services/Nomenclatures/NomenclaturesService.getOffices.json","@spider":"econt_bg","addr:full":"Костенец кв. Костенец ул. Търговска №7","addr:housenumber":"7","addr:street":"ул. Търговска","addr:city":"Костенец","addr:country":"BG","branch":"Костенец","phone":"+359 82 527 190","email":"kostenetz@econt.com","opening_hours":"Mo-Fr 09:00-18:00; Sa 09:00-15:00","brand":"Еконт","brand:wikidata":"Q12279603","nsi_id":"4f7c8b-628448"},"coordinates":[42.30799602176311,23.858429855065324]},"dist":158.937,"tags_mismatch":true},{"osm":{"type":"node","id":1845692988,"tags":{"addr:city":"Костинброд","addr:housenumber":"50","addr:postcode":"2230","addr:street":"Славянска","amenity":"post_office","branch":"Костинброд","brand":"Еконт","brand:wikidata":"Q12279603","contact:phone":"+359 88 281 8064","wheelchair":"yes"},"wikidata":"Q12279603","coordinates":[42.8099924,23.2157555]},"atp":{"id":"2B4Ko7WEYdmmDbohXh5otaQ12rQ=","tags":{"ref":"39139","amenity":"post_office","@source_uri":"https://ee.econt.com/services/Nomenclatures/NomenclaturesService.getOffices.json","@spider":"econt_bg","addr:full":"Костинброд ул. Славянска №36 Била парк","addr:housenumber":"36","addr:street":"ул. Славянска","addr:city":"Костинброд","addr:country":"BG","branch":"Костинброд","phone":"+359 82 527 290","email":"kostinbrod@econt.com","opening_hours":"Mo-Fr 09:00-18:00; Sa 09:00-15:00","brand":"Еконт","brand:wikidata":"Q12279603","nsi_id":"4f7c8b-628448"},"coordinates":[42.808982009432796,23.21323554902172]},"dist":234.263,"tags_mismatch":true},{"osm":{"type":"node","id":1845692991,"tags":{"amenity":"post_office","brand":"Еконт","brand:wikidata":"Q12279603","source":"Econt GPS data"},"wikidata":"Q12279603","coordinates":[43.3712429,23.4802043]},"atp":false,"tags_mismatch":false},{"osm":{"type":"node","id":1845692993,"tags":{"amenity":"post_office","brand":"Еконт","brand:wikidata":"Q12279603","source":"Econt GPS data"},"wikidata":"Q12279603","coordinates":[43.8269241,23.2367735]},"atp":false,"tags_mismatch":false},{"osm":{"type":"node","id":1845692994,"tags":{"amenity":"post_office","brand":"Еконт","brand:wikidata":"Q12279603","source":"Econt GPS data"},"wikidata":"Q12279603","coordinates":[43.9989742,22.8710592]},"atp":{"id":"4TOH42GMarvslc3FmBMO9tJrWCs=","tags":{"ref":"340","amenity":"post_office","@source_uri":"https://ee.econt.com/services/Nomenclatures/NomenclaturesService.getOffices.json","@spider":"econt_bg","addr:full":"Видин Видин ул. Райко Жинзифов №0 до бл. 27","addr:housenumber":"0","addr:street":"ул. Райко Жинзифов","addr:city":"Видин","addr:country":"BG","branch":"Видин Крум Бъчваров","phone":"+359 82 526 993","email":"vidin_kbachvarov@econt.com","opening_hours":"Mo-Fr 09:00-18:00; Sa 09:00-15:00","brand":"Еконт","brand:wikidata":"Q12279603","nsi_id":"4f7c8b-628448"},"coordinates":[43.998976799555805,22.87112346883295]},"dist":5.149,"tags_mismatch":true},{"osm":{"type":"node","id":1845692995,"tags":{"amenity":"post_office","brand":"Еконт","brand:wikidata":"Q12279603","source":"Econt GPS data"},"wikidata":"Q12279603","coordinates":[41.4728524,25.6513663]},"atp":{"id":"1XYMTOU5h9FX7-i-5lWI_4XuKeA=","tags":{"ref":"262","amenity":"post_office","@source_uri":"https://ee.econt.com/services/Nomenclatures/NomenclaturesService.getOffices.json","@spider":"econt_bg","addr:full":"Крумовград ул. Княз Борис I №6","addr:housenumber":"6","addr:street":"ул. Княз Борис I","addr:city":"Крумовград","addr:country":"BG","branch":"Крумовград","phone":"+359 82 527 187","email":"krumovgrad@econt.com","opening_hours":"Mo-Fr 09:00-18:00; Sa 09:00-15:00","brand":"Еконт","brand:wikidata":"Q12279603","nsi_id":"4f7c8b-628448"},"coordinates":[41.47290189606061,25.653940281545257]},"dist":214.522,"tags_mismatch":true},{"osm":{"type":"node","id":1845692996,"tags":{"amenity":"post_office","brand":"Еконт","brand:wikidata":"Q12279603","source":"Econt GPS data"},"wikidata":"Q12279603","coordinates":[43.7970949,26.4995633]},"atp":false,"tags_mismatch":false},{"osm":{"type":"node","id":1845692997,"tags":{"amenity":"post_office","brand":"Еконт","brand:wikidata":"Q12279603","source":"Econt GPS data"},"wikidata":"Q12279603","coordinates":[41.633216,25.3828407]},"atp":false,"tags_mismatch":false},{"osm":{"type":"node","id":1845692998,"tags":{"amenity":"post_office","branch":"Пловдив Кършиака","brand":"Еконт","brand:wikidata":"Q12279603","email":"plovdiv_karshiaka@econt.com","fixme":"verify location","mapillary":"860939875144930","opening_hours":"Mo-Fr 09:00-18:30; Sa 09:00-15:00","phone":"+359 82 526 855"},"wikidata":"Q12279603","coordinates":[42.1578185,24.7394076]},"atp":{"id":"HfZEyLPzSaAhx5B0PgTLsCQYNvg=","tags":{"ref":"184","amenity":"post_office","@source_uri":"https://ee.econt.com/services/Nomenclatures/NomenclaturesService.getOffices.json","@spider":"econt_bg","addr:full":"Пловдив кв. Кършиака ул. Средец №60","addr:housenumber":"60","addr:street":"ул. Средец","addr:city":"Пловдив","addr:country":"BG","branch":"Пловдив Кършияка","phone":"+359 82 526 855","email":"plovdiv_karshiaka@econt.com","opening_hours":"Mo-Fr 09:00-18:30; Sa 09:00-15:00","brand":"Еконт","brand:wikidata":"Q12279603","nsi_id":"4f7c8b-628448"},"coordinates":[42.157798933981354,24.739424688360597]},"dist":2.592,"tags_mismatch":true},{"osm":{"type":"node","id":1845692999,"tags":{"amenity":"post_office","branch":"Лазур","brand":"Еконт","brand:wikidata":"Q12279603","source":"Econt GPS data"},"wikidata":"Q12279603","coordinates":[42.5089464,27.4770134]},"atp":{"id":"dvz3rXLZxivt6CbFOGfHKb0s8v4=","tags":{"ref":"246","amenity":"post_office","@source_uri":"https://ee.econt.com/services/Nomenclatures/NomenclaturesService.getOffices.json","@spider":"econt_bg","addr:full":"Бургас ж.к. Лазур ул. Копривщица №15 срещу руската гимназия","addr:housenumber":"15","addr:street":"ул. Копривщица","addr:city":"Бургас","addr:country":"BG","branch":"Бургас Лазур","phone":"+359 56 911 942","email":"bourgas_lazur@econt.com","opening_hours":"Mo-Fr 09:00-18:00; Sa 09:00-15:00","brand":"Еконт","brand:wikidata":"Q12279603","nsi_id":"4f7c8b-628448"},"coordinates":[42.50832135326653,27.473301282482126]},"dist":312.12,"tags_mismatch":true},{"osm":{"type":"node","id":1845693002,"tags":{"addr:city":"Левски","addr:housenumber":"16","addr:postcode":"5900","addr:street":"Св. Св. Кирил и Методий","amenity":"post_office","branch":"Левски","brand":"Еконт","brand:wikidata":"Q12279603","opening_hours":"Mo-Fr 09:00-18:00; Sa 09:00-13:00","source":"Econt GPS data"},"wikidata":"Q12279603","coordinates":[43.361689,25.1420705]},"atp":{"id":"czQirNgmFJnyMiYM_z_4TWzJUZY=","tags":{"ref":"46095","amenity":"post_office","@source_uri":"https://ee.econt.com/services/Nomenclatures/NomenclaturesService.getOffices.json","@spider":"econt_bg","addr:full":"Левски ул. Кирил и Методий №16","addr:housenumber":"16","addr:street":"ул. Кирил и Методий","addr:city":"Левски","addr:country":"BG","branch":"Левски","phone":"+359 82 527 215","email":"levski@econt.com","opening_hours":"Mo-Fr 09:00-18:00; Sa 09:00-15:00","brand":"Еконт","brand:wikidata":"Q12279603","nsi_id":"4f7c8b-628448"},"coordinates":[43.3612838,25.1436974]},"dist":139.027,"tags_mismatch":true},{"osm":{"type":"node","id":1845693003,"tags":{"addr:housenumber":"28","addr:street":"Ген. Колев","amenity":"post_office","branch":"Летен Театър","brand":"Еконт","brand:wikidata":"Q12279603","source":"Econt GPS data"},"wikidata":"Q12279603","coordinates":[43.5643161,27.8250583]},"atp":{"id":"nEfvCBvJXPlTrWH58ZMe1hE10Ig=","tags":{"ref":"911","amenity":"post_office","@source_uri":"https://ee.econt.com/services/Nomenclatures/NomenclaturesService.getOffices.json","@spider":"econt_bg","addr:full":"Добрич ул. Генерал Колев №28","addr:housenumber":"28","addr:street":"ул. Генерал Колев","addr:city":"Добрич","addr:country":"BG","branch":"Добрич Летен Театър","phone":"+359 82 529 820","email":"dobrich_letenteatar@econt.com","opening_hours":"Mo-Fr 09:00-18:00; Sa 09:00-15:00","brand":"Еконт","brand:wikidata":"Q12279603","nsi_id":"4f7c8b-628448"},"coordinates":[43.564002041359714,27.825150466270436]},"dist":35.703,"tags_mismatch":true},{"osm":{"type":"node","id":1845693004,"tags":{"amenity":"post_office","brand":"Еконт","brand:wikidata":"Q12279603","source":"Econt GPS data"},"wikidata":"Q12279603","coordinates":[43.5686123,27.8022645]},"atp":false,"tags_mismatch":false},{"osm":{"type":"node","id":1845693005,"tags":{"amenity":"post_office","branch":"Ловеч","brand":"Еконт","brand:wikidata":"Q12279603","source":"Econt GPS data"},"wikidata":"Q12279603","coordinates":[43.1313938,24.716817]},"atp":false,"tags_mismatch":false},{"osm":{"type":"node","id":1845693006,"tags":{"amenity":"post_office","branch":"Ломско шосе","brand":"Еконт","brand:wikidata":"Q12279603","source":"Econt GPS data"},"wikidata":"Q12279603","coordinates":[42.7372149,23.2896729]},"atp":false,"tags_mismatch":false},{"osm":{"type":"node","id":1845693007,"tags":{"amenity":"post_office","brand":"Еконт","brand:wikidata":"Q12279603","source":"Econt GPS data"},"wikidata":"Q12279603","coordinates":[43.2068153,24.1614781]},"atp":{"id":"VcjdLNSSEflFP2M7qdQtxtatbho=","tags":{"ref":"129","amenity":"post_office","@source_uri":"https://ee.econt.com/services/Nomenclatures/NomenclaturesService.getOffices.json","@spider":"econt_bg","addr:full":"Луковит ул. Възраждане №83","addr:housenumber":"83","addr:street":"ул. Възраждане","addr:city":"Луковит","addr:country":"BG","branch":"Луковит","phone":"+359 82 526 740","email":"lukovit@econt.com","opening_hours":"Mo-Fr 09:00-18:00; Sa 09:00-15:00","brand":"Еконт","brand:wikidata":"Q12279603","nsi_id":"4f7c8b-628448"},"coordinates":[43.20681050555641,24.162564424398035]},"dist":88.047,"tags_mismatch":true},{"osm":{"type":"node","id":1845693008,"tags":{"amenity":"post_office","brand":"Еконт","brand:wikidata":"Q12279603","source":"Econt GPS data"},"wikidata":"Q12279603","coordinates":[41.8435327,26.08007]},"atp":false,"tags_mismatch":false},{"osm":{"type":"node","id":1845693010,"tags":{"amenity":"post_office","brand":"Еконт","brand:wikidata":"Q12279603","source":"Econt GPS data"},"wikidata":"Q12279603","coordinates":[43.1028821,25.7228436]},"atp":false,"tags_mismatch":false},{"osm":{"type":"node","id":1845693011,"tags":{"amenity":"post_office","branch":"офис Лясковец","brand":"Еконт","brand:wikidata":"Q12279603","source":"Econt GPS data"},"wikidata":"Q12279603","coordinates":[43.107016,25.714255]},"atp":{"id":"3GcKcSHBmMfiwJkoGcn48KP3O8Q=","tags":{"ref":"494","amenity":"post_office","@source_uri":"https://ee.econt.com/services/Nomenclatures/NomenclaturesService.getOffices.json","@spider":"econt_bg","addr:full":"Лясковец ул. Трети март №5","addr:housenumber":"5","addr:street":"ул. Трети март","addr:city":"Лясковец","addr:country":"BG","branch":"Лясковец Трети март","phone":"+359 82 529 901","email":"liaskovec_tretimart@econt.com","opening_hours":"Mo-Fr 09:00-18:00; Sa 09:00-15:00","brand":"Еконт","brand:wikidata":"Q12279603","nsi_id":"4f7c8b-628448"},"coordinates":[43.10711290500337,25.71430903161673]},"dist":11.634,"tags_mismatch":true},{"osm":{"type":"node","id":1845693012,"tags":{"amenity":"post_office","brand":"Еконт","brand:wikidata":"Q12279603","source":"Econt GPS data"},"wikidata":"Q12279603","coordinates":[42.8768749,25.3209459]},"atp":{"id":"-EaJJun-liRAC6aywdvepeuM4Fs=","tags":{"ref":"191","amenity":"post_office","@source_uri":"https://ee.econt.com/services/Nomenclatures/NomenclaturesService.getOffices.json","@spider":"econt_bg","addr:full":"Габрово ул. Орловска №27","addr:housenumber":"27","addr:street":"ул. Орловска","addr:city":"Габрово","addr:country":"BG","branch":"Габрово Мадара","phone":"+359 82 526 818","email":"gabrovo_madara@econt.com","opening_hours":"Mo-Fr 09:00-18:00; Sa 09:00-15:00","brand":"Еконт","brand:wikidata":"Q12279603","nsi_id":"4f7c8b-628448"},"coordinates":[42.87510848134192,25.318916371925297]},"dist":256.768,"tags_mismatch":true},{"osm":{"type":"node","id":1845693013,"tags":{"amenity":"post_office","brand":"Еконт","brand:wikidata":"Q12279603","source":"Econt GPS data"},"wikidata":"Q12279603","coordinates":[44.1204448,27.2683116]},"atp":{"id":"ILy7YCxb4SxGEzPfYIEstgUAdJU=","tags":{"ref":"963","amenity":"post_office","@source_uri":"https://ee.econt.com/services/Nomenclatures/NomenclaturesService.getOffices.json","@spider":"econt_bg","addr:full":"Силистра бул. Македония №152","addr:housenumber":"152","addr:street":"бул. Македония","addr:city":"Силистра","addr:country":"BG","branch":"Силистра Македония","phone":"+359 86 822 002","email":"silistra_makedonia@econt.com","opening_hours":"Mo-Fr 09:00-18:00; Sa 09:00-15:00","brand":"Еконт","brand:wikidata":"Q12279603","nsi_id":"4f7c8b-628448"},"coordinates":[44.12048099704,27.26825667724608]},"dist":5.952,"tags_mismatch":true},{"osm":{"type":"node","id":1845693014,"tags":{"amenity":"post_office","branch":"Малашевци","brand":"Еконт","brand:wikidata":"Q12279603","source":"Econt GPS data"},"wikidata":"Q12279603","coordinates":[42.7139268,23.3418843]},"atp":{"id":"WGSqHwD4IlhhvDx-b5zY-VUU4_E=","tags":{"ref":"396","amenity":"post_office","@source_uri":"https://ee.econt.com/services/Nomenclatures/NomenclaturesService.getOffices.json","@spider":"econt_bg","addr:full":"София кв. Малашевци ул. Първа Българска армия №82","addr:housenumber":"82","addr:street":"ул. Първа Българска армия","addr:city":"София","addr:country":"BG","branch":"София Малашевци","phone":"+359 82 526 942","email":"sf_malashevci@econt.com","opening_hours":"Mo-Fr 09:00-18:00; Sa 09:00-15:00","brand":"Еконт","brand:wikidata":"Q12279603","nsi_id":"4f7c8b-628448"},"coordinates":[42.71380875917225,23.342131653047943]},"dist":24.097,"tags_mismatch":true},{"osm":{"type":"node","id":1845693015,"tags":{"addr:city":"София","addr:entrance":"вх. А","addr:housenumber":"бл.64","addr:place":"ж.к. Манастирски ливади - Б","addr:postcode":"1404","addr:unit":"офис 2","amenity":"post_office","branch":"София Бокар","brand":"Еконт","brand:wikidata":"Q12279603","check_date":"2024-11-06","email":"sofia_bokar@econt.com","internet_access":"wlan","internet_access:fee":"no","opening_hours":"Mo-Fr 09:00-19:00; Sa 09:00-15:00","payment:mastercard":"yes","payment:visa":"yes","phone":"+359 82 527 243","wheelchair":"no"},"wikidata":"Q12279603","coordinates":[42.6602058,23.2879369]},"atp":{"id":"WRIgeKKdKIzXUKUODxV9ij2qjeI=","tags":{"ref":"1100","amenity":"post_office","@source_uri":"https://ee.econt.com/services/Nomenclatures/NomenclaturesService.getOffices.json","@spider":"econt_bg","addr:full":"София кв. Манастирски ливади Изток блок.64 вх.А офис 2, до Флора парк","addr:city":"София","addr:country":"BG","branch":"София Бокар Манастирски ливади","phone":"+359 82 527 243","email":"sofia_bokar@econt.com","opening_hours":"Mo-Fr 09:00-19:00; Sa 09:00-15:00","brand":"Еконт","brand:wikidata":"Q12279603","nsi_id":"4f7c8b-628448"},"coordinates":[42.660115504295284,23.287880699405683]},"dist":11.042,"tags_mismatch":true},{"osm":{"type":"node","id":1845693016,"tags":{"amenity":"post_office","brand":"Еконт","brand:wikidata":"Q12279603","source":"Econt GPS data"},"wikidata":"Q12279603","coordinates":[42.152519,24.7362349]},"atp":{"id":"LaUvCtkaGJniYowfwrIzXPLB_c8=","tags":{"ref":"446","amenity":"post_office","@source_uri":"https://ee.econt.com/services/Nomenclatures/NomenclaturesService.getOffices.json","@spider":"econt_bg","addr:full":"Пловдив бул. Марица №50","addr:housenumber":"50","addr:street":"бул. Марица","addr:city":"Пловдив","addr:country":"BG","branch":"Пловдив Марица","phone":"+359 82 529 911","email":"plovdiv_marica@econt.com","opening_hours":"Mo-Fr 09:00-18:30; Sa 09:00-15:00","brand":"Еконт","brand:wikidata":"Q12279603","nsi_id":"4f7c8b-628448"},"coordinates":[42.15249207372106,24.736108173575957]},"dist":10.867,"tags_mismatch":true},{"osm":{"type":"node","id":1845693017,"tags":{"amenity":"post_office","brand":"Еконт","brand:wikidata":"Q12279603","source":"Econt GPS data"},"wikidata":"Q12279603","coordinates":[42.1300706,24.7771628]},"atp":{"id":"E_RvHUXvaJE3JERnQokyaR_MYKQ=","tags":{"ref":"37928","amenity":"post_office","@source_uri":"https://ee.econt.com/services/Nomenclatures/NomenclaturesService.getOffices.json","@spider":"econt_bg","addr:full":"Пловдив ж.к. Тракия бул. Освобождение №87","addr:housenumber":"87","addr:street":"бул. Освобождение","addr:city":"Пловдив","addr:country":"BG","branch":"Пловдив Гербера кв.Тракия","phone":"+359 82 526 765","email":"Plovdiv_gerbera@econt.com","opening_hours":"Mo-Fr 09:00-18:00; Sa 09:00-15:00","brand":"Еконт","brand:wikidata":"Q12279603","nsi_id":"4f7c8b-628448"},"coordinates":[42.1307527,24.7783289]},"dist":122.473,"tags_mismatch":true},{"osm":{"type":"node","id":1845693019,"tags":{"amenity":"post_office","brand":"Еконт","brand:wikidata":"Q12279603","source":"Econt GPS data","wheelchair":"yes"},"wikidata":"Q12279603","coordinates":[43.1449101,23.7164879]},"atp":{"id":"8obO_6P3Svet43vz8QZWqpqvi04=","tags":{"ref":"34726","amenity":"post_office","@source_uri":"https://ee.econt.com/services/Nomenclatures/NomenclaturesService.getOffices.json","@spider":"econt_bg","addr:full":"Мездра ул. Динко Петров №2","addr:housenumber":"2","addr:street":"ул. Динко Петров","addr:city":"Мездра","addr:country":"BG","branch":"Мездра","phone":"+359 82 527 304","email":"mezdra@econt.com","opening_hours":"Mo-Fr 09:00-18:00; Sa 09:00-15:00","brand":"Еконт","brand:wikidata":"Q12279603","nsi_id":"4f7c8b-628448"},"coordinates":[43.14325834435802,23.717599800186136]},"dist":204.625,"tags_mismatch":true},{"osm":{"type":"node","id":1845693021,"tags":{"amenity":"post_office","brand":"Еконт","brand:wikidata":"Q12279603","source":"Econt GPS data"},"wikidata":"Q12279603","coordinates":[43.6917311,23.8566649]},"atp":false,"tags_mismatch":false},{"osm":{"type":"node","id":1845693023,"tags":{"addr:city":"Варна","addr:country":"BG","addr:housenumber":"4","addr:street":"Вяра","amenity":"post_office","brand":"Еконт","brand:wikidata":"Q12279603","source":"Econt GPS data"},"wikidata":"Q12279603","coordinates":[43.2279115,27.8895007]},"atp":false,"tags_mismatch":false},{"osm":{"type":"node","id":1845693025,"tags":{"amenity":"post_office","brand":"Еконт","brand:wikidata":"Q12279603","source":"Econt GPS data"},"wikidata":"Q12279603","coordinates":[41.3985627,23.2073092]},"atp":{"id":"YXXJG4NNVKFG8fslkYynkLZ0wLg=","tags":{"ref":"276","amenity":"post_office","@source_uri":"https://ee.econt.com/services/Nomenclatures/NomenclaturesService.getOffices.json","@spider":"econt_bg","addr:full":"Петрич ул. кап. Никола Парапанов №18А","addr:housenumber":"18А","addr:street":"ул. кап. Никола Парапанов","addr:city":"Петрич","addr:country":"BG","branch":"Петрич Монопола","phone":"+359 74 560 383","email":"petrich_monopola@econt.com","opening_hours":"Mo-Fr 09:00-18:00; Sa 09:00-15:00","brand":"Еконт","brand:wikidata":"Q12279603","nsi_id":"4f7c8b-628448"},"coordinates":[41.400131290238754,23.2073250926424]},"dist":174.424,"tags_mismatch":true},{"osm":{"type":"node","id":1845693027,"tags":{"amenity":"post_office","branch":"Мориц","brand":"Еконт","brand:wikidata":"Q12279603","source":"Econt GPS data"},"wikidata":"Q12279603","coordinates":[42.2820242,22.6913896]},"atp":{"id":"KK6592BTl8DepL29KCftUMzBGdI=","tags":{"ref":"278","amenity":"post_office","@source_uri":"https://ee.econt.com/services/Nomenclatures/NomenclaturesService.getOffices.json","@spider":"econt_bg","addr:full":"Кюстендил ул. Мориц Леви №1","addr:housenumber":"1","addr:street":"ул. Мориц Леви","addr:city":"Кюстендил","addr:country":"BG","branch":"Кюстендил Мориц Леви","phone":"+359 82 529 817","email":"kyustendil_mlevi@econt.com","opening_hours":"Mo-Fr 09:00-18:00; Sa 09:00-15:00","brand":"Еконт","brand:wikidata":"Q12279603","nsi_id":"4f7c8b-628448"},"coordinates":[42.28200433382608,22.691406771163923]},"dist":2.622,"tags_mismatch":true},{"osm":{"type":"node","id":1845693030,"tags":{"amenity":"post_office","brand":"Еконт","brand:wikidata":"Q12279603","source":"Econt GPS data"},"wikidata":"Q12279603","coordinates":[41.4544503,25.0819214]},"atp":false,"tags_mismatch":false},{"osm":{"type":"node","id":1845693033,"tags":{"amenity":"post_office","branch":"Неофит Рилски","brand":"Еконт","brand:wikidata":"Q12279603","opening_hours":"Mo-Sa 09:00-18:00","source":"Econt GPS data"},"wikidata":"Q12279603","coordinates":[43.4147178,24.6230223]},"atp":{"id":"zWMqVbjCPyGL_o7aNAojhebFfpU=","tags":{"ref":"146","amenity":"post_office","@source_uri":"https://ee.econt.com/services/Nomenclatures/NomenclaturesService.getOffices.json","@spider":"econt_bg","addr:full":"Плевен ул. Неофит Рилски №33","addr:housenumber":"33","addr:street":"ул. Неофит Рилски","addr:city":"Плевен","addr:country":"BG","branch":"Плевен Неофит Рилски","phone":"+359 82 527 219","email":"nova_vest@econt.com","opening_hours":"Mo-Fr 09:00-18:00; Sa 09:00-15:00","brand":"Еконт","brand:wikidata":"Q12279603","nsi_id":"4f7c8b-628448"},"coordinates":[43.41471565105846,24.623116710739232]},"dist":7.629,"tags_mismatch":true},{"osm":{"type":"node","id":1845693046,"tags":{"amenity":"post_office","branch":"офис Нови Пазар","brand":"Еконт","brand:wikidata":"Q12279603","source":"Econt GPS data"},"wikidata":"Q12279603","coordinates":[43.3420236,27.1977498]},"atp":false,"tags_mismatch":false},{"osm":{"type":"node","id":1845693054,"tags":{"amenity":"post_office","brand":"Еконт","brand:wikidata":"Q12279603","source":"Econt GPS data"},"wikidata":"Q12279603","coordinates":[43.201415,27.9102519]},"atp":{"id":"qVGJ12s5LZ_TxnD0bRFYYFZ6eSA=","tags":{"ref":"569","amenity":"post_office","@source_uri":"https://ee.econt.com/services/Nomenclatures/NomenclaturesService.getOffices.json","@spider":"econt_bg","addr:full":"Варна Център ул. Шабла №1","addr:housenumber":"1","addr:street":"ул. Шабла","addr:city":"Варна","addr:country":"BG","branch":"Варна ЖП Гара","phone":"+359 82 526 913","email":"vn_jpgara@econt.com","opening_hours":"Mo-Fr 09:00-18:00; Sa 09:00-15:00","brand":"Еконт","brand:wikidata":"Q12279603","nsi_id":"4f7c8b-628448"},"coordinates":[43.19939749187532,27.910906113543906]},"dist":230.519,"tags_mismatch":true},{"osm":{"type":"node","id":1845693058,"tags":{"amenity":"post_office","brand":"Еконт","brand:wikidata":"Q12279603","source":"Econt GPS data"},"wikidata":"Q12279603","coordinates":[43.4961688,24.0792599]},"atp":{"id":"Z4VG3B5FJ0d1yGoUtYCKJyUlSOc=","tags":{"ref":"38391","amenity":"post_office","@source_uri":"https://ee.econt.com/services/Nomenclatures/NomenclaturesService.getOffices.json","@spider":"econt_bg","addr:full":"Кнежа ул. Огнян Михайлов №1","addr:housenumber":"1","addr:street":"ул. Огнян Михайлов","addr:city":"Кнежа","addr:country":"BG","branch":"Кнежа Общината","phone":"+359 82 527 188","email":"kneja_obshtinata@econt.com","opening_hours":"Mo-Fr 09:00-18:00; Sa 09:00-15:00","brand":"Еконт","brand:wikidata":"Q12279603","nsi_id":"4f7c8b-628448"},"coordinates":[43.49633486155455,24.079142464654424]},"dist":20.753,"tags_mismatch":true},{"osm":{"type":"node","id":1845693063,"tags":{"amenity":"post_office","branch":"София Овча купел","brand":"Еконт","brand:wikidata":"Q12279603","contact:phone":"+359 87 992 2541","email":"sf_ovchacupel@econt.com","opening_hours":"Mo-Fr 09:00-18:00; Sa 09:00-15:00","phone":"+359 82 527 137"},"wikidata":"Q12279603","coordinates":[42.6792016,23.2535412]},"atp":{"id":"JFrPT_ywP1v31N6fp9rVuwS3tFg=","tags":{"ref":"464","amenity":"post_office","@source_uri":"https://ee.econt.com/services/Nomenclatures/NomenclaturesService.getOffices.json","@spider":"econt_bg","addr:full":"София кв. Овча купел 1 ул. Маестро Кънев №78 до НБУ","addr:housenumber":"78","addr:street":"ул. Маестро Кънев","addr:city":"София","addr:country":"BG","branch":"София Овча купел","phone":"+359 82 527 137","email":"sf_ovchacupel@econt.com","opening_hours":"Mo-Fr 09:00-18:00; Sa 09:00-15:00","brand":"Еконт","brand:wikidata":"Q12279603","nsi_id":"4f7c8b-628448"},"coordinates":[42.67919335760633,23.253779054431142]},"dist":19.465,"tags_mismatch":false},{"osm":{"type":"node","id":1845693067,"tags":{"amenity":"post_office","brand":"Еконт","brand:wikidata":"Q12279603","source":"Econt GPS data"},"wikidata":"Q12279603","coordinates":[43.2481293,26.5706267]},"atp":false,"tags_mismatch":false},{"osm":{"type":"node","id":1845693076,"tags":{"amenity":"post_office","brand":"Еконт","brand:wikidata":"Q12279603","source":"Econt GPS data"},"wikidata":"Q12279603","coordinates":[43.4447587,26.1659559]},"atp":{"id":"AAjTKfEesTJ3cSkikyNRAE6KShc=","tags":{"ref":"100025421","amenity":"post_office","@source_uri":"https://ee.econt.com/services/Nomenclatures/NomenclaturesService.getOffices.json","@spider":"econt_bg","addr:full":"гр. Опака, ул. България № 94, пред общината на паркинга","addr:city":"Опака","addr:country":"BG","branch":"Мобилен офис (Опака гр. Опака, ул. България № 94, пред общината на паркинга)","email":"elena_georgieva@econt.com","opening_hours":"Mo-Fr 10:30-12:30; Sa 09:30-11:30","brand":"Еконт","brand:wikidata":"Q12279603","nsi_id":"4f7c8b-628448"},"coordinates":[43.4433109,26.1649067]},"dist":181.912,"tags_mismatch":true},{"osm":{"type":"node","id":1845693081,"tags":{"addr:city":"София","addr:housenumber":"бл.103А","addr:place":"ж.к. Люлин 10","addr:postcode":"1324","amenity":"post_office","branch":"Орион","brand":"Еконт","brand:wikidata":"Q12279603","email":"sofia_orion@econt.com","level":"0","opening_hours":"Mo-Fr 09:00-20:00; Sa 09:00-13:00","payment:cards":"yes","payment:cash":"yes","payment:contactless":"yes","payment:credit_cards":"yes","payment:debit_cards":"yes","phone":"+359 2 902 2030"},"wikidata":"Q12279603","coordinates":[42.7160007,23.2685188]},"atp":{"id":"ghrukS8tJ2XZAhAIPYJsnP0WdKQ=","tags":{"ref":"1101","amenity":"post_office","@source_uri":"https://ee.econt.com/services/Nomenclatures/NomenclaturesService.getOffices.json","@spider":"econt_bg","addr:full":"София жк Люлин-10 ул. Луи Пастьор №103А пресечната на бул.Луи Пастьор и ул.Никола Генев","addr:housenumber":"103А","addr:street":"ул. Луи Пастьор","addr:city":"София","addr:country":"BG","branch":"София Орион","phone":"+359 2 902 2030","email":"sofia_orion@econt.com","opening_hours":"Mo-Fr 09:00-20:00; Sa 09:00-15:00","brand":"Еконт","brand:wikidata":"Q12279603","nsi_id":"4f7c8b-628448"},"coordinates":[42.71593705727785,23.26857856507776]},"dist":8.598,"tags_mismatch":true},{"osm":{"type":"node","id":1845693089,"tags":{"amenity":"post_office","brand":"Еконт","brand:wikidata":"Q12279603","source":"Econt GPS data"},"wikidata":"Q12279603","coordinates":[43.7369355,23.9593028]},"atp":false,"tags_mismatch":false},{"osm":{"type":"node","id":1845693094,"tags":{"amenity":"post_office","branch":"ПЗ Север","brand":"Еконт","brand:wikidata":"Q12279603","source":"Econt GPS data"},"wikidata":"Q12279603","coordinates":[42.52245,27.4359842]},"atp":{"id":"3B4M-MWXaIjSHiiU7qMf6CjvDaw=","tags":{"ref":"46434","amenity":"post_office","@source_uri":"https://ee.econt.com/services/Nomenclatures/NomenclaturesService.getOffices.json","@spider":"econt_bg","addr:full":"Бургас кв. 1 ул. Янко Комитов №1 БЦ Мадика /срещу КАТ/","addr:housenumber":"1","addr:street":"ул. Янко Комитов","addr:city":"Бургас","addr:country":"BG","branch":"Бургас ПЗ Север","phone":"+359 82 526 712","email":"bourgas_pz_sever@econt.com","opening_hours":"Mo-Fr 09:00-18:00; Sa 09:00-15:00","brand":"Еконт","brand:wikidata":"Q12279603","nsi_id":"4f7c8b-628448"},"coordinates":[42.5227935,27.4359397]},"dist":38.369,"tags_mismatch":true},{"osm":{"type":"node","id":1845693096,"tags":{"amenity":"post_office","branch":"Павликени","brand":"Еконт","brand:wikidata":"Q12279603","source":"Econt GPS data"},"wikidata":"Q12279603","coordinates":[43.237813,25.3064389]},"atp":false,"tags_mismatch":false},{"osm":{"type":"node","id":1845693104,"tags":{"amenity":"post_office","branch":"София Павлово","brand":"Еконт","brand:wikidata":"Q12279603","email":"sofia_pavlovo@econt.com","opening_hours":"Mo-Fr 09:00-18:40; Sa 09:00-15:00","phone":"+359 82 526 775"},"wikidata":"Q12279603","coordinates":[42.6643749,23.2620393]},"atp":{"id":"J6pYgsGauGqWMZdzLltm8LtWOAk=","tags":{"ref":"34321","amenity":"post_office","@source_uri":"https://ee.econt.com/services/Nomenclatures/NomenclaturesService.getOffices.json","@spider":"econt_bg","addr:full":"София кв. Павлово ул. Мадара №1 вх.1 район Витоша","addr:housenumber":"1","addr:street":"ул. Мадара","addr:city":"София","addr:country":"BG","branch":"София Павлово","phone":"+359 82 526 775","email":"sofia_pavlovo@econt.com","opening_hours":"Mo-Fr 09:00-18:40; Sa 09:00-15:00","brand":"Еконт","brand:wikidata":"Q12279603","nsi_id":"4f7c8b-628448"},"coordinates":[42.66438810563392,23.2619239067459]},"dist":9.549,"tags_mismatch":false},{"osm":{"type":"node","id":1845693108,"tags":{"addr:city":"Благоевград","addr:housenumber":"15","addr:postcode":"2700","addr:street":"Даме Груев","amenity":"post_office","branch":"Пазара","brand":"Еконт","brand:wikidata":"Q12279603","opening_hours":"Mo-Fr 09:00-18:00, Sa 09:00-15:00","source":"Econt GPS data"},"wikidata":"Q12279603","coordinates":[42.0152843,23.0956559]},"atp":{"id":"ak8BmV77IklY7jv13k31zbvQhLw=","tags":{"ref":"34513","amenity":"post_office","@source_uri":"https://ee.econt.com/services/Nomenclatures/NomenclaturesService.getOffices.json","@spider":"econt_bg","addr:full":"Благоевград ул. Даме Груев №15","addr:housenumber":"15","addr:street":"ул. Даме Груев","addr:city":"Благоевград","addr:country":"BG","branch":"Благоевград Пазара","phone":"+359 82 526 778","email":"blagoevgrad_pazara@econt.com","opening_hours":"Mo-Fr 09:00-18:00; Sa 09:00-15:00","brand":"Еконт","brand:wikidata":"Q12279603","nsi_id":"4f7c8b-628448"},"coordinates":[42.015382889867034,23.095827116394037]},"dist":17.896,"tags_mismatch":true},{"osm":{"type":"node","id":1845693112,"tags":{"amenity":"post_office","brand":"Еконт","brand:wikidata":"Q12279603","source":"Econt GPS data"},"wikidata":"Q12279603","coordinates":[42.6056801,23.0336555]},"atp":{"id":"76VqQizJgz2YrqfOxF0n2TQgk6A=","tags":{"ref":"253","amenity":"post_office","@source_uri":"https://ee.econt.com/services/Nomenclatures/NomenclaturesService.getOffices.json","@spider":"econt_bg","addr:full":"Перник ул. Розова долина №3","addr:housenumber":"3","addr:street":"ул. Розова долина","addr:city":"Перник","addr:country":"BG","branch":"Перник Пазара","phone":"+359 76 602 920","email":"pernik_pazara@econt.com","opening_hours":"Mo-Fr 09:00-18:00; Sa 09:00-15:00","brand":"Еконт","brand:wikidata":"Q12279603","nsi_id":"4f7c8b-628448"},"coordinates":[42.60485553599945,23.02789162648686]},"dist":480.562,"tags_mismatch":true},{"osm":{"type":"node","id":1845693116,"tags":{"amenity":"post_office","brand":"Еконт","brand:wikidata":"Q12279603","source":"Econt GPS data"},"wikidata":"Q12279603","coordinates":[43.1418323,24.7177776]},"atp":{"id":"ctxbx3S6LsFy_6bAC683QgjoC5s=","tags":{"ref":"948","amenity":"post_office","@source_uri":"https://ee.econt.com/services/Nomenclatures/NomenclaturesService.getOffices.json","@spider":"econt_bg","addr:full":"Ловеч Кооперативен пазар ул. Георги С .Раковски №1 до сладкарница Фаворит","addr:housenumber":"1","addr:street":"ул. Георги С .Раковски","addr:city":"Ловеч","addr:country":"BG","branch":"Ловеч Пазара","phone":"+359 82 527 216","email":"lovech_pazara@econt.com","opening_hours":"Mo-Fr 09:00-18:00; Sa 09:00-15:00","brand":"Еконт","brand:wikidata":"Q12279603","nsi_id":"4f7c8b-628448"},"coordinates":[43.14041733088548,24.71820743089676]},"dist":161.156,"tags_mismatch":true},{"osm":{"type":"node","id":1845693121,"tags":{"amenity":"post_office","brand":"Еконт","brand:wikidata":"Q12279603","source":"Econt GPS data"},"wikidata":"Q12279603","coordinates":[43.2505127,26.5707483]},"atp":{"id":"RYWB_fH9ZR1rCLs1DLcdXUrGAIA=","tags":{"ref":"34012","amenity":"post_office","@source_uri":"https://ee.econt.com/services/Nomenclatures/NomenclaturesService.getOffices.json","@spider":"econt_bg","addr:full":"Търговище ул. Генерал Скобелев №1 магазин Булмаг","addr:housenumber":"1","addr:street":"ул. Генерал Скобелев","addr:city":"Търговище","addr:country":"BG","branch":"Търговище Пазара","phone":"+359 82 526 973","email":"targovishte_pazara@econt.com","opening_hours":"Mo-Fr 09:00-18:00; Sa 09:00-15:00","brand":"Еконт","brand:wikidata":"Q12279603","nsi_id":"4f7c8b-628448"},"coordinates":[43.25093503045118,26.569724007732884]},"dist":95.327,"tags_mismatch":true},{"osm":{"type":"node","id":1845693122,"tags":{"amenity":"post_office","brand":"Еконт","brand:wikidata":"Q12279603","source":"Econt GPS data"},"wikidata":"Q12279603","coordinates":[42.1757153,24.3307613]},"atp":false,"tags_mismatch":false},{"osm":{"type":"node","id":1845693128,"tags":{"amenity":"post_office","brand":"Еконт","brand:wikidata":"Q12279603","source":"Econt GPS data"},"wikidata":"Q12279603","coordinates":[42.5046954,24.188444]},"atp":{"id":"Bjx9hbqC0v8EMAME_hBqxuhRQJY=","tags":{"ref":"63","amenity":"post_office","@source_uri":"https://ee.econt.com/services/Nomenclatures/NomenclaturesService.getOffices.json","@spider":"econt_bg","addr:full":"Панагюрище ул. Димитър Коклев №9","addr:housenumber":"9","addr:street":"ул. Димитър Коклев","addr:city":"Панагюрище","addr:country":"BG","branch":"Панагюрище","phone":"+359 82 527 207","email":"panagyurishte@econt.com","opening_hours":"Mo-Fr 09:00-18:00; Sa 09:00-15:00","brand":"Еконт","brand:wikidata":"Q12279603","nsi_id":"4f7c8b-628448"},"coordinates":[42.502520664607786,24.174874506717217]},"dist":1138.364,"tags_mismatch":true},{"osm":{"type":"node","id":1845693130,"tags":{"amenity":"post_office","branch":"Бургас Патриарх Евтимий","brand":"Еконт","brand:wikidata":"Q12279603","email":"bourgas_patriarh_@econt.com","opening_hours":"Mo-Fr 09:00-18:00; Sa 09:00-15:00","phone":"+359 56 911 944","source":"Econt GPS data"},"wikidata":"Q12279603","coordinates":[42.4991424,27.4640374]},"atp":{"id":"Nlm57znicL922tqfxXaTSc3qznU=","tags":{"ref":"41917","amenity":"post_office","@source_uri":"https://ee.econt.com/services/Nomenclatures/NomenclaturesService.getOffices.json","@spider":"econt_bg","addr:full":"Бургас ж.к. Възраждане ул. Пробуда №65","addr:housenumber":"65","addr:street":"ул. Пробуда","addr:city":"Бургас","addr:country":"BG","branch":"Бургас Патриарх Евтимий","phone":"+359 56 911 944","email":"bourgas_patriarh_@econt.com","opening_hours":"Mo-Fr 09:00-18:00; Sa 09:00-15:00","brand":"Еконт","brand:wikidata":"Q12279603","nsi_id":"4f7c8b-628448"},"coordinates":[42.49910987622563,27.464034111656765]},"dist":3.627,"tags_mismatch":false},{"osm":{"type":"node","id":1845693131,"tags":{"amenity":"post_office","brand":"Еконт","brand:wikidata":"Q12279603","source":"Econt GPS data"},"wikidata":"Q12279603","coordinates":[43.2147817,27.8998837]},"atp":{"id":"H_2T8Z3z7_vN-jF-kqkGIPeydx0=","tags":{"ref":"215","amenity":"post_office","@source_uri":"https://ee.econt.com/services/Nomenclatures/NomenclaturesService.getOffices.json","@spider":"econt_bg","addr:full":"Варна ул. Калофер №2","addr:housenumber":"2","addr:street":"ул. Калофер","addr:city":"Варна","addr:country":"BG","branch":"Варна Патриарха","phone":"+359 82 526 865","email":"varna_patriarha@econt.com","opening_hours":"Mo-Fr 09:00-18:00; Sa 09:00-15:00","brand":"Еконт","brand:wikidata":"Q12279603","nsi_id":"4f7c8b-628448"},"coordinates":[43.21473235621814,27.89979171104508]},"dist":9.256,"tags_mismatch":true},{"osm":{"type":"node","id":1845693132,"tags":{"amenity":"post_office","brand":"Еконт","brand:wikidata":"Q12279603","opening_hours":"Mo-Fr 08:00-17:00","source":"Econt GPS data","wheelchair":"limited"},"wikidata":"Q12279603","coordinates":[42.4975477,26.0030879]},"atp":false,"tags_mismatch":false},{"osm":{"type":"node","id":1845693133,"tags":{"amenity":"post_office","branch":"Пещера България","brand":"Еконт","brand:wikidata":"Q12279603","email":"peshtera_balgaria@econt.com","opening_hours":"Mo-Fr 09:00-18:00; Sa 09:00-15:00","phone":"+359 35 062 166"},"wikidata":"Q12279603","coordinates":[42.0321956,24.3058414]},"atp":{"id":"0hWETRgahsJBu0a008OXHjgsEkA=","tags":{"ref":"474","amenity":"post_office","@source_uri":"https://ee.econt.com/services/Nomenclatures/NomenclaturesService.getOffices.json","@spider":"econt_bg","addr:full":"Пещера ул. Георги Кьосеиванов №52 до м-н Била","addr:housenumber":"52","addr:street":"ул. Георги Кьосеиванов","addr:city":"Пещера","addr:country":"BG","branch":"Пещера България","phone":"+359 35 062 166","email":"peshtera_balgaria@econt.com","opening_hours":"Mo-Fr 09:00-18:00; Sa 09:00-15:00","brand":"Еконт","brand:wikidata":"Q12279603","nsi_id":"4f7c8b-628448"},"coordinates":[42.0322424611593,24.305735817508676]},"dist":10.158,"tags_mismatch":false},{"osm":{"type":"node","id":1845693134,"tags":{"amenity":"post_office","brand":"Еконт","brand:wikidata":"Q12279603","source":"Econt GPS data"},"wikidata":"Q12279603","coordinates":[43.4271697,24.6146023]},"atp":false,"tags_mismatch":false},{"osm":{"type":"node","id":1845693135,"tags":{"amenity":"post_office","brand":"Еконт","brand:wikidata":"Q12279603","source":"Econt GPS data"},"wikidata":"Q12279603","coordinates":[42.2012525,25.3257078]},"atp":{"id":"7uhkJj1WDIescLDucYxSN1AedAg=","tags":{"ref":"506","amenity":"post_office","@source_uri":"https://ee.econt.com/services/Nomenclatures/NomenclaturesService.getOffices.json","@spider":"econt_bg","addr:full":"Чирпан ул. Братя Даскалови №12","addr:housenumber":"12","addr:street":"ул. Братя Даскалови","addr:city":"Чирпан","addr:country":"BG","branch":"Чирпан Площада","phone":"+359 82 527 224","email":"chirpan_ploshtada@econt.com","opening_hours":"Mo-Fr 09:00-18:00; Sa 09:00-15:00","brand":"Еконт","brand:wikidata":"Q12279603","nsi_id":"4f7c8b-628448"},"coordinates":[42.20192141971822,25.32463167354127]},"dist":115.715,"tags_mismatch":true},{"osm":{"type":"node","id":1845693136,"tags":{"amenity":"post_office","brand":"Еконт","brand:wikidata":"Q12279603","source":"Econt GPS data"},"wikidata":"Q12279603","coordinates":[43.1796133,27.4428949]},"atp":false,"tags_mismatch":false},{"osm":{"type":"node","id":1845693137,"tags":{"amenity":"post_office","branch":"Полски Тръмбеш","brand":"Еконт","brand:wikidata":"Q12279603","source":"Econt GPS data"},"wikidata":"Q12279603","coordinates":[43.3673863,25.6350794]},"atp":{"id":"cpFVtorfQAjVVrBFKdjKmmI0K_E=","tags":{"ref":"348","amenity":"post_office","@source_uri":"https://ee.econt.com/services/Nomenclatures/NomenclaturesService.getOffices.json","@spider":"econt_bg","addr:full":"Полски Тръмбеш ул. Търговска №19","addr:housenumber":"19","addr:street":"ул. Търговска","addr:city":"Полски Тръмбеш","addr:country":"BG","branch":"Полски Тръмбеш","phone":"+359 82 526 847","email":"polski_trambesh@econt.com","opening_hours":"Mo-Fr 09:00-18:00; Sa 09:00-15:00","brand":"Еконт","brand:wikidata":"Q12279603","nsi_id":"4f7c8b-628448"},"coordinates":[43.3653023834595,25.633663251733037]},"dist":258.456,"tags_mismatch":true},{"osm":{"type":"node","id":1845693138,"tags":{"amenity":"post_office","brand":"Еконт","brand:wikidata":"Q12279603","source":"Econt GPS data"},"wikidata":"Q12279603","coordinates":[42.5604568,27.636269]},"atp":{"id":"rRklKcNIFDEzmwKq29r7-ivSnP0=","tags":{"ref":"38111","amenity":"post_office","@source_uri":"https://ee.econt.com/services/Nomenclatures/NomenclaturesService.getOffices.json","@spider":"econt_bg","addr:full":"Поморие ул. Александър Батенберг №7","addr:housenumber":"7","addr:street":"ул. Александър Батенберг","addr:city":"Поморие","addr:country":"BG","branch":"Поморие","phone":"+359 82 527 353","email":"pomorie@econt.com","opening_hours":"Mo-Fr 09:00-18:00; Sa 09:00-15:00","brand":"Еконт","brand:wikidata":"Q12279603","nsi_id":"4f7c8b-628448"},"coordinates":[42.56091301785499,27.64076977206411]},"dist":372.096,"tags_mismatch":true},{"osm":{"type":"node","id":1845693139,"tags":{"amenity":"post_office","brand":"Еконт","brand:wikidata":"Q12279603","source":"Econt GPS data","wheelchair":"yes"},"wikidata":"Q12279603","coordinates":[43.348759,26.2211663]},"atp":{"id":"PB2Ive16jWWJ3n-d_kDsbGZW2Ww=","tags":{"ref":"39892","amenity":"post_office","@source_uri":"https://ee.econt.com/services/Nomenclatures/NomenclaturesService.getOffices.json","@spider":"econt_bg","addr:full":"Попово бул. България №117","addr:housenumber":"117","addr:street":"бул. България","addr:city":"Попово","addr:country":"BG","branch":"Попово","phone":"+359 82 527 183","email":"popovo_office@econt.com","opening_hours":"Mo-Fr 09:00-18:00; Sa 09:00-15:00","brand":"Еконт","brand:wikidata":"Q12279603","nsi_id":"4f7c8b-628448"},"coordinates":[43.3487023,26.2211417]},"dist":6.611,"tags_mismatch":true},{"osm":{"type":"node","id":1845693140,"tags":{"amenity":"post_office","brand":"Еконт","brand:wikidata":"Q12279603","source":"Econt GPS data"},"wikidata":"Q12279603","coordinates":[42.2669189,27.7469646]},"atp":{"id":"rlU14MxXTO_HSaG_KRva-ssOEj8=","tags":{"ref":"38408","amenity":"post_office","@source_uri":"https://ee.econt.com/services/Nomenclatures/NomenclaturesService.getOffices.json","@spider":"econt_bg","addr:full":"Приморско ул. Ропотамо №47","addr:housenumber":"47","addr:street":"ул. Ропотамо","addr:city":"Приморско","addr:country":"BG","branch":"Приморско","phone":"+359 82 526 918","email":"primorsko@econt.com","opening_hours":"Mo-Fr 09:00-18:00; Sa 09:00-15:00","brand":"Еконт","brand:wikidata":"Q12279603","nsi_id":"4f7c8b-628448"},"coordinates":[42.268478719242445,27.74710983626844]},"dist":173.855,"tags_mismatch":true},{"osm":{"type":"node","id":1845693141,"tags":{"amenity":"post_office","branch":"Промишлена зона","brand":"Еконт","brand:wikidata":"Q12279603","source":"Econt GPS data"},"wikidata":"Q12279603","coordinates":[41.4053954,23.2032171]},"atp":{"id":"uu7GvkCvQTbgz55pTi4ZAXcnQuQ=","tags":{"ref":"198","amenity":"post_office","@source_uri":"https://ee.econt.com/services/Nomenclatures/NomenclaturesService.getOffices.json","@spider":"econt_bg","addr:full":"Петрич кв. Промишлена зона ул. Места №18","addr:housenumber":"18","addr:street":"ул. Места","addr:city":"Петрич","addr:country":"BG","branch":"Петрич Промишлена зона","phone":"+359 82 526 832","email":"petrich_pz@econt.com","opening_hours":"Mo-Fr 09:00-18:00; Sa 09:00-15:00","brand":"Еконт","brand:wikidata":"Q12279603","nsi_id":"4f7c8b-628448"},"coordinates":[41.40491080984815,23.20224966037026]},"dist":97.025,"tags_mismatch":true},{"osm":{"type":"node","id":1845693142,"tags":{"amenity":"post_office","brand":"Еконт","brand:wikidata":"Q12279603","source":"Econt GPS data"},"wikidata":"Q12279603","coordinates":[42.193218,24.3302158]},"atp":false,"tags_mismatch":false},{"osm":{"type":"node","id":1845693143,"tags":{"addr:city":"Първомай","amenity":"post_office","brand":"Еконт","brand:wikidata":"Q12279603","source":"Econt GPS data"},"wikidata":"Q12279603","coordinates":[42.0966763,25.221652]},"atp":{"id":"wvq4GqeanpirkEESkRWpl6FIskg=","tags":{"ref":"44695","amenity":"post_office","@source_uri":"https://ee.econt.com/services/Nomenclatures/NomenclaturesService.getOffices.json","@spider":"econt_bg","addr:full":"Първомай ул. Стара планина №1","addr:housenumber":"1","addr:street":"ул. Стара планина","addr:city":"Първомай","addr:country":"BG","branch":"Първомай","phone":"+359 82 527 161","email":"parvomai_@econt.com","opening_hours":"Mo-Fr 09:00-18:00; Sa 09:00-15:00","brand":"Еконт","brand:wikidata":"Q12279603","nsi_id":"4f7c8b-628448"},"coordinates":[42.0964546,25.2218291]},"dist":28.657,"tags_mismatch":true},{"osm":{"type":"node","id":1845693144,"tags":{"amenity":"post_office","brand":"Еконт","brand:wikidata":"Q12279603","source":"Econt GPS data"},"wikidata":"Q12279603","coordinates":[42.2903882,25.9280106]},"atp":false,"tags_mismatch":false},{"osm":{"type":"node","id":1845693145,"tags":{"amenity":"post_office","brand":"Еконт","brand:wikidata":"Q12279603","source":"Econt GPS data"},"wikidata":"Q12279603","coordinates":[42.5459045,22.9624866]},"atp":{"id":"mNrrfDPdzzjHmFgh8Eh270XANBg=","tags":{"ref":"141","amenity":"post_office","@source_uri":"https://ee.econt.com/services/Nomenclatures/NomenclaturesService.getOffices.json","@spider":"econt_bg","addr:full":"Радомир ул. Райко Даскалов №46А","addr:housenumber":"46А","addr:street":"ул. Райко Даскалов","addr:city":"Радомир","addr:country":"BG","branch":"Радомир","phone":"+359 82 527 192","email":"radomir@econt.com","opening_hours":"Mo-Fr 09:00-18:00; Sa 09:00-15:00","brand":"Еконт","brand:wikidata":"Q12279603","nsi_id":"4f7c8b-628448"},"coordinates":[42.54466004613815,22.9613475342785]},"dist":166.901,"tags_mismatch":true},{"osm":{"type":"node","id":1845693146,"tags":{"amenity":"post_office","brand":"Еконт","brand:wikidata":"Q12279603","source":"Econt GPS data"},"wikidata":"Q12279603","coordinates":[43.525136,26.5254871]},"atp":{"id":"V-nou2VLlqF9UK0d_W3MdOOY18g=","tags":{"ref":"1008","amenity":"post_office","@source_uri":"https://ee.econt.com/services/Nomenclatures/NomenclaturesService.getOffices.json","@spider":"econt_bg","addr:full":"Разград ул. връх Св. Никола №2 бивш магазин Росстел","addr:housenumber":"2","addr:street":"ул. връх Св. Никола","addr:city":"Разград","addr:country":"BG","branch":"Разград Автогара","phone":"+359 84 660 781","email":"razgrad_avtogara@econt.com","opening_hours":"Mo-Fr 09:00-18:30; Sa 09:00-15:00","brand":"Еконт","brand:wikidata":"Q12279603","nsi_id":"4f7c8b-628448"},"coordinates":[43.52418171672643,26.530705644147375]},"dist":433.919,"tags_mismatch":true},{"osm":{"type":"node","id":1845693147,"tags":{"amenity":"post_office","brand":"Еконт","brand:wikidata":"Q12279603","source":"Econt GPS data"},"wikidata":"Q12279603","coordinates":[41.8865775,23.4668379]},"atp":{"id":"6b4KrLmRr2fTS1nmMVHfBL8NICE=","tags":{"ref":"34388","amenity":"post_office","@source_uri":"https://ee.econt.com/services/Nomenclatures/NomenclaturesService.getOffices.json","@spider":"econt_bg","addr:full":"Разлог ул. Бяла река №4","addr:housenumber":"4","addr:street":"ул. Бяла река","addr:city":"Разлог","addr:country":"BG","branch":"Разлог","phone":"+359 82 529 809","email":"razlog@econt.com","opening_hours":"Mo-Fr 09:00-18:00; Sa 09:00-15:00","brand":"Еконт","brand:wikidata":"Q12279603","nsi_id":"4f7c8b-628448"},"coordinates":[41.88843627815286,23.468107423143366]},"dist":231.87,"tags_mismatch":true},{"osm":{"type":"node","id":1845693148,"tags":{"amenity":"post_office","brand":"Еконт","brand:wikidata":"Q12279603","source":"Econt GPS data"},"wikidata":"Q12279603","coordinates":[42.1163743,24.7564908]},"atp":false,"tags_mismatch":false},